[{"title":"4S Ranch","location":"yes","address":"16615 Dove Canyon Road, Suite 115","city":"San Diego","state":"CA","zip":"92127","lat":"33.0149106","lng":"-117.1100397","ID":"7114","type":"cr","phone":"(858) 239-2121","url":"https:\/\/www.clubpilates.com\/4sranch","comingSoon":"","openingSoon":"","dist":"","country":"US","npdevents":"","location_details":"4S Ranch Village Center - 4s Ranch Heritage Park at Camino Del Norte & Dove Canyon Rd. near Del Norte High School."},{"title":"Abacoa","location":"yes","address":"1203 Town Center Drive, Unit 107","city":"Jupiter","state":"FL","zip":"33458","lat":"26.889902","lng":"-80.115006","ID":"3348","type":"cr","phone":"(561) 449-8161","url":"https:\/\/www.clubpilates.com\/abacoa\/","comingSoon":"","openingSoon":"","dist":"","country":"US","npdevents":"","location_details":"Located in downtown Abacoa , near the Rodger Dean Stadium. 3 free parking garages plus street parking available ."},{"title":"Addison","location":"yes","address":"5290 Beltline Road, Suite 123","city":"Addison","state":"TX","zip":"75254","lat":"32.953163","lng":"-96.8166872","ID":"8927","type":"cr","phone":"(469) 352-9291","url":"http:\/\/www.clubpilates.com\/addison","comingSoon":"","openingSoon":"","dist":"","country":"US","npdevents":"","location_details":"No more information about this location."},{"title":"Alameda","location":"yes","address":"2651 Blanding Ave., Ste. D","city":"Alameda","state":"CA","zip":"94501","lat":"37.7689379888","lng":"-122.232277393","ID":"6563","type":"cr","phone":"(510) 578-8593","url":"https:\/\/www.clubpilates.com\/alameda\/","comingSoon":"","openingSoon":"","dist":"","country":"US","npdevents":"","location_details":"Conveniently located in the Bridgeside Shopping Center on Blanding Avenue right off the Fruitvale Avenue Bridge in Alameda. We are centrally situated in the same shopping center as Nob Hill Foods with the back of our studio facing the Oakland Estuary. Parking is free!"},{"title":"Algonquin","location":"yes","address":"2517 N. County Line Rd.","city":"Algonquin","state":"IL","zip":"60102","lat":"42.1532323231","lng":"-88.3370570288","ID":"6997","type":"cr","phone":"(224) 209-8642","url":"https:\/\/www.clubpilates.com\/algonquin\/","comingSoon":"","openingSoon":"","dist":"","country":"US","npdevents":"","location_details":"No more information about this location."},{"title":"Allen","location":"yes","address":"190 E Stacy Rd., Suite 1716","city":"Allen","state":"TX","zip":"75002","lat":"33.1279499041","lng":"-96.65778193","ID":"7814","type":"cr","phone":"(469) 393-2002","url":"https:\/\/www.clubpilates.com\/allen","comingSoon":"","openingSoon":"","dist":"","country":"US","npdevents":"","location_details":"No more information about this location."},{"title":"Alpharetta","location":"yes","address":"3005 Old Alabama Road, Suite 150","city":"Alpharetta","state":"GA","zip":"30022","lat":"34.0203102972","lng":"-84.2726361752","ID":"5558","type":"cr","phone":"(678) 919-8733","url":"https:\/\/www.clubpilates.com\/alpharetta\/","comingSoon":"","openingSoon":"","dist":"","country":"US","npdevents":"","location_details":"No more information about this location."},{"title":"Altamonte Springs","location":"yes","address":"380 S State Rd 434, #1002","city":"Altamonte Springs","state":"FL","zip":"32714","lat":"28.6573694","lng":"-81.4225757","ID":"9387","type":"cr","phone":"(561) 631-3333","url":"http:\/\/www.clubpilates.com\/altamontesprings","comingSoon":"","openingSoon":"","dist":"","country":"US","npdevents":"","location_details":"No more information about this location."},{"title":"Altamonte Springs","location":"yes","address":"380 S State Rd 434, #1002","city":"Altamonte Springs","state":"FL","zip":"32714","lat":"28.6573694","lng":"-81.4225757","ID":"9387","type":"cr","phone":"(561) 631-3333","url":"http:\/\/www.clubpilates.com\/altamontesprings","comingSoon":"","openingSoon":"","dist":"","country":"US","npdevents":"","location_details":"No more information about this location."},{"title":"Andalucia","location":"yes","address":"5600 Coors Blvd NW, Ste. G-2","city":"Albuquerque","state":"NM","zip":"87120","lat":"35.1466657","lng":"-106.6864258","ID":"8174","type":"cr","phone":"(505) 444-6995","url":"https:\/\/www.clubpilates.com\/andalucia","comingSoon":"","openingSoon":"","dist":"","country":"US","npdevents":"","location_details":"In the new Andalucia Shopping Center - across the parking lot from Sprouts"},{"title":"Annapolis","location":"yes","address":"2661 Riva Rd, Bldg. 600, Suite 625","city":"Annapolis","state":"MD","zip":"21401","lat":"38.9742542985","lng":"-76.5594769828","ID":"5407","type":"cr","phone":"(240) 324-7474","url":"https:\/\/www.clubpilates.com\/annapolis\/","comingSoon":"","openingSoon":"","dist":"","country":"US","npdevents":"","location_details":"We are located across from the County Administration Buildings in the Riva Business Park.  Look for the 600 building between High Starr Copy and Arundel Federal.  We are on the second floor facing Riva Road."},{"title":"Arbor Lakes","location":"yes","address":"11658 Fountains Drive","city":"Maple Grove","state":"MN","zip":"55369","lat":"45.0940175634","lng":"-93.4264495969","ID":"3839","type":"cr","phone":"(763) 219-4880","url":"https:\/\/www.clubpilates.com\/arborlakes\/","comingSoon":"","openingSoon":"","dist":"","country":"US","npdevents":"","location_details":"Across from Costco, in same building with Nadia's Cupcakes.  Enter through door by parking lot."},{"title":"Arcadia","location":"yes","address":"3750 E. Indian School Rd.","city":"Phoenix","state":"AZ","zip":"85018","lat":"33.4957655024","lng":"-112.000500262","ID":"6459","type":"cr","phone":"(480) 372-4692","url":"https:\/\/www.clubpilates.com\/arcadia\/","comingSoon":"","openingSoon":"","dist":"","country":"US","npdevents":"","location_details":"No more information about this location."},{"title":"Arden Hills","location":"yes","address":"3845 Lexington Ave N, Ste 111","city":"Arden Hills","state":"MN","zip":"55126","lat":"45.0566293","lng":"-93.1483104","ID":"6621","type":"cr","phone":"(651) 383-4640","url":"https:\/\/www.clubpilates.com\/ardenhills\/","comingSoon":"","openingSoon":"","dist":"","country":"US","npdevents":"","location_details":"In the new building across from Starbucks - across Lexington Avenue from Super Target"},{"title":"Ardsley","location":"yes","address":"875 Saw Mill River Rd.","city":"Ardsley","state":"NY","zip":"10502","lat":"41.0188637474","lng":"-73.8433880255","ID":"6095","type":"cr","phone":"(914) 292-1292","url":"https:\/\/www.clubpilates.com\/ardsley\/","comingSoon":"","openingSoon":"","dist":"","country":"US","npdevents":"Saturday, May 4th 1 pm FREE intro\nSaturday May 4th 4-4:45 pm Mat class at Macey Park\nSunday, May 5th 1:30 pm FREE intro","location_details":"No more information about this location."},{"title":"Ashburn","location":"yes","address":"43670 Greenway Corporate Dr., Suite 124","city":"Ashburn","state":"VA","zip":"20147","lat":"39.0102668317","lng":"-77.4922896123","ID":"5474","type":"cr","phone":"(703) 828-0779","url":"https:\/\/www.clubpilates.com\/ashburn\/","comingSoon":"","openingSoon":"","dist":"","country":"US","npdevents":"","location_details":"No more information about this location."},{"title":"Asheville","location":"yes","address":"80 Charlotte Street, Suite 20","city":"Asheville","state":"NC","zip":"28801","lat":"35.6022445502","lng":"-82.5473826834","ID":"8884","type":"cr","phone":"(828) 782-3629","url":"http:\/\/www.clubpilates.com\/asheville","comingSoon":"","openingSoon":"","dist":"","country":"US","npdevents":"","location_details":"The new studio in North Asheville is located on Charlotte Street, just off the 240 exit. We are located on the side of the former Pearlman's Carpet building. The studio will have great views of downtown and off the main road so there is no noise. Parking is in the front of the building on Charlotte Street."},{"title":"Assembly Row","location":"yes","address":"389 Revolution Dr.","city":"Somerville","state":"MA","zip":"02145","lat":"42.3916266705","lng":"-71.0791692138","ID":"5924","type":"cr","phone":"(857) 997-2580","url":"https:\/\/www.clubpilates.com\/assemblyrow\/","comingSoon":"","openingSoon":"","dist":"","country":"US","npdevents":"","location_details":"No more information about this location."},{"title":"Atascocita","location":"yes","address":"16430 W. Lake Houston Pkwy, Ste. 300","city":"Houston","state":"TX","zip":"77044","lat":"29.9627257627","lng":"-95.1677890785","ID":"5991","type":"cr","phone":"(832) 779-2622","url":"https:\/\/www.clubpilates.com\/atascocita\/","comingSoon":"","openingSoon":"","dist":"","country":"US","npdevents":"","location_details":"No more information about this location."},{"title":"Athens","location":"yes","address":"290 Alps Road","city":"Athens","state":"GA","zip":"30606","lat":"33.94406","lng":"-83.40911","ID":"7550","type":"cr","phone":"(706) 406-1710","url":"https:\/\/www.clubpilates.com\/athens","comingSoon":"","openingSoon":"","dist":"","country":"US","npdevents":"","location_details":"No more information about this location."},{"title":"Auburn","location":"yes","address":"2311 Bent Creek Rd., Ste 600","city":"Auburn","state":"AL","zip":"36830","lat":"32.6086172","lng":"-85.430066","ID":"6949","type":"cr","phone":"(334) 414-4548","url":"https:\/\/www.clubpilates.com\/auburn\/","comingSoon":"","openingSoon":"","dist":"","country":"US","npdevents":"","location_details":"Club Pilates Auburn is located on Bent Creek Road and E Glenn Ave next to Academy Sports + Outdoors stores. Club Pilates offers your first visit free, so don't procrastinate any longer! Schedule your visit to Club Pilates Auburn today!"},{"title":"Aurora","location":"yes","address":"18121 E. Hampden Ave., Ste. 1","city":"Aurora","state":"CO","zip":"80013","lat":"39.6546608","lng":"-104.7773452","ID":"7923","type":"cr","phone":"(303) 339-0294","url":"https:\/\/www.clubpilates.com\/aurora","comingSoon":"","openingSoon":"","dist":"","country":"US","npdevents":"","location_details":"Located at the NW corner of Hampden Ave and Tower Rd in the King Soopers shopping center"},{"title":"Austin Landing","location":"yes","address":"3649 Rigby Rd","city":"Dayton","state":"OH","zip":"45342","lat":"39.5995601237","lng":"-84.2321414858","ID":"7607","type":"cr","phone":"(937) 886-4810","url":"https:\/\/www.clubpilates.com\/austinlanding","comingSoon":"","openingSoon":"","dist":"","country":"US","npdevents":"Sat. May 4 @ 11am - Intro Class\nSun May 5 @ 9am - Intro Class","location_details":"Located in beautiful Austin Landing on Rigby Road between Orangetheory and CycleBar."},{"title":"Avalon","location":"yes","address":"7160 Avalon Way","city":"Alpharetta","state":"GA","zip":"30009","lat":"34.0715288597","lng":"-84.2736822367","ID":"5917","type":"cr","phone":"(678) 996-5336","url":"https:\/\/www.clubpilates.com\/avalon\/","comingSoon":"","openingSoon":"","dist":"","country":"US","npdevents":"","location_details":"No more information about this location."},{"title":"Aventura","location":"yes","address":"19021 Biscayne Blvd.","city":"Aventura","state":"FL","zip":"33180","lat":"25.9515000526","lng":"-80.145699944","ID":"7090","type":"cr","phone":"(786) 565-9340","url":"https:\/\/www.clubpilates.com\/aventura\/","comingSoon":"","openingSoon":"","dist":"","country":"US","npdevents":"","location_details":"No more information about this location."},{"title":"Avon","location":"yes","address":"380 West Main Street","city":"Avon","state":"CT","zip":"06001","lat":"41.8161931","lng":"-72.861702","ID":"8912","type":"cr","phone":"(860) 404-6424","url":"http:\/\/www.clubpilates.com\/avon","comingSoon":"","openingSoon":"","dist":"","country":"US","npdevents":"","location_details":"No more information about this location."},{"title":"Bankers Hill","location":"yes","address":"2760 5th Ave, Suite 110","city":"San Diego","state":"CA","zip":"92103","lat":"32.7342866949","lng":"-117.160558105","ID":"3086","type":"cr","phone":"(619) 701-6414","url":"https:\/\/www.clubpilates.com\/bankershill\/","comingSoon":"","openingSoon":"","dist":"","country":"US","npdevents":"","location_details":"No more information about this location."},{"title":"Barrie","location":"yes","address":"678 Veterans Drive, Unit 2","city":"Barrie","state":"ON","zip":"L9J 0H6","lat":"44.3272693","lng":"-79.6985857","ID":"9470","type":"cr","phone":"(705) 721-1887","url":"http:\/\/www.clubpilates.com\/barrie","comingSoon":"","openingSoon":"","dist":"","country":"CA","npdevents":"","location_details":"No more information about this location."},{"title":"Basking Ridge","location":"yes","address":"25 Mountainview Blvd.","city":"Basking Ridge","state":"NJ","zip":"07920","lat":"40.6443444221","lng":"-74.5772850331","ID":"7162","type":"cr","phone":"(973) 348-5633","url":"https:\/\/www.clubpilates.com\/baskingridge","comingSoon":"","openingSoon":"","dist":"","country":"US","npdevents":"","location_details":"No more information about this location."},{"title":"Baton Rouge","location":"yes","address":"2561 Citiplace Ct., Suite 350","city":"Baton Rouge","state":"LA","zip":"70808","lat":"30.4240838367","lng":"-91.1294850086","ID":"8964","type":"cr","phone":"(225) 773-4440","url":"http:\/\/www.clubpilates.com\/batonrouge","comingSoon":"","openingSoon":"","dist":"","country":"US","npdevents":"","location_details":"No more information about this location."},{"title":"Bay Ridge","location":"yes","address":"540 86th St","city":"Brooklyn","state":"NY","zip":"11209","lat":"40.6205635","lng":"-74.0251985","ID":"8969","type":"cr","phone":"(718) 701-0050","url":"http:\/\/www.clubpilates.com\/bayridge","comingSoon":"","openingSoon":"","dist":"","country":"US","npdevents":"","location_details":"No more information about this location."},{"title":"Beavercreek","location":"yes","address":"2451 Lakeview Drive, Suite 104","city":"Beavercreek","state":"OH","zip":"45431","lat":"39.759202","lng":"-84.051196","ID":"6847","type":"cr","phone":"(937) 365-2929","url":"https:\/\/www.clubpilates.com\/beavercreek\/","comingSoon":"","openingSoon":"","dist":"","country":"US","npdevents":"Sat. May 4 @ 12pm - Intro Class","location_details":"We are temporarily closed due to tornado damage. We will be back soon!"},{"title":"Belle Meade","location":"yes","address":"4326 Harding Pike, Ste. 105","city":"Nashville","state":"TN","zip":"37205","lat":"36.1260917","lng":"-86.8463465","ID":"6127","type":"cr","phone":"(615) 988-4488","url":"https:\/\/www.clubpilates.com\/bellemeade\/","comingSoon":"","openingSoon":"","dist":"","country":"US","npdevents":"","location_details":"We are conveniently located in the Publix shopping center next to St. Thomas West.  Additional parking is located behind Publix and in the free parking garage underneath it."},{"title":"Bellevue","location":"yes","address":"143 106th Ave NE","city":"Bellevue","state":"WA","zip":"98004","lat":"47.6112842014","lng":"-122.199707329","ID":"3132","type":"cr","phone":"(425) 326-1926","url":"https:\/\/www.clubpilates.com\/bellevue\/","comingSoon":"","openingSoon":"","dist":"","country":"US","npdevents":"","location_details":"No more information about this location."},{"title":"Belmar","location":"yes","address":"437 S Wadsworth Blvd, Suite F","city":"Lakewood","state":"CO","zip":"80226","lat":"39.7088695","lng":"-105.0839471","ID":"3155","type":"cr","phone":"(720) 789-1011","url":"https:\/\/www.clubpilates.com\/belmar\/","comingSoon":"","openingSoon":"","dist":"","country":"US","npdevents":"Sat, May 4th @ 10am - Puppies & Pilates Mat Class at Lakewood Heritage Center Amphitheater","location_details":"We are located in the Lakewood City Commons on the southwest corner of Wadsworth Blvd. and Alameda Ave.  You can find us tucked in a back cul-de-sac near a nail salon, Affordable Dentures, and a Cost Cutters."},{"title":"Belterra","location":"yes","address":"166 Hargraves Drive, Ste C500","city":"Austin","state":"TX","zip":"78737","lat":"30.2037233357","lng":"-97.9788687024","ID":"6500","type":"cr","phone":"(512) 212-7525","url":"https:\/\/www.clubpilates.com\/belterra\/","comingSoon":"","openingSoon":"","dist":"","country":"US","npdevents":"","location_details":"No more information about this location."},{"title":"Bend","location":"yes","address":"20520 Robal Lane, Ste. 104","city":"Bend","state":"OR","zip":"97701","lat":"44.1031719","lng":"-121.297431","ID":"7994","type":"cr","phone":"(541) 410-1183","url":"https:\/\/www.clubpilates.com\/bend\/","comingSoon":"","openingSoon":"","dist":"","country":"US","npdevents":"","location_details":"We are opening the end of June and will be located in the Robal Plaza to the left of Ulta Beauty and Mud Bay.  Great Parking, easy accessibility!!"},{"title":"Bethesda","location":"yes","address":"4959 Elm St","city":"Bethesda","state":"MD","zip":"20814","lat":"38.9821910425","lng":"-77.0980812712","ID":"6685","type":"cr","phone":"(301) 541-8807","url":"https:\/\/www.clubpilates.com\/location\/bethesda\/","comingSoon":"","openingSoon":"","dist":"","country":"US","npdevents":"","location_details":"Located on Bethesda Row on the corner of Arlington and Elm Street next to Wells Fargo Bank."},{"title":"Beverly Hills","location":"yes","address":"31255 Southfield Road","city":"Beverly Hills","state":"MI","zip":"48025","lat":"42.5188214676","lng":"-83.2241928577","ID":"3587","type":"cr","phone":"(248) 878-9905","url":"https:\/\/www.clubpilates.com\/beverlyhills\/","comingSoon":"","openingSoon":"","dist":"","country":"US","npdevents":"","location_details":"No more information about this location."},{"title":"Biltmore Park","location":"yes","address":"28 Schenck Pkwy., #155","city":"Asheville","state":"NC","zip":"28803","lat":"35.4854012836","lng":"-82.5545847416","ID":"6346","type":"cr","phone":"(828) 318-8800","url":"https:\/\/www.clubpilates.com\/biltmorepark\/","comingSoon":"","openingSoon":"","dist":"","country":"US","npdevents":"","location_details":"Club Pilates Biltmore Park is located in Biltmore Pak Town Square. Visit Club Pilates in Biltmore Park Town Square and enjoy low-impact, high-energy group reformer classes unlike any other Pilates experience."},{"title":"Blaine","location":"yes","address":"10945 Club West Parkway NE, Suite 150","city":"Blaine","state":"MN","zip":"55449","lat":"45.168750955","lng":"-93.2294132712","ID":"7194","type":"cr","phone":"(763) 888-0003","url":"https:\/\/www.clubpilates.com\/blaine","comingSoon":"","openingSoon":"","dist":"","country":"US","npdevents":"","location_details":"Right across from the Fairview Clinic, next to Edina Realty"},{"title":"Bloomingdale","location":"yes","address":"383 W. Army Trail Road, Suite 800","city":"Bloomingdale","state":"IL","zip":"60108","lat":"41.9399231","lng":"-88.1145077","ID":"7243","type":"cr","phone":"(847) 466-5610","url":"https:\/\/www.clubpilates.com\/bloomingdale","comingSoon":"","openingSoon":"","dist":"","country":"US","npdevents":"","location_details":"No more information about this location."},{"title":"Boca South","location":"yes","address":"7050 W. Palmetto Park Rd., #49\/50","city":"Boca Raton","state":"FL","zip":"33433","lat":"26.3488505965","lng":"-80.1577019153","ID":"5971","type":"cr","phone":"(561) 717-2125","url":"https:\/\/www.clubpilates.com\/bocasouth\/","comingSoon":"","openingSoon":"","dist":"","country":"US","npdevents":"","location_details":"No more information about this location."},{"title":"Boulder","location":"yes","address":"2850 Baseline Rd., Unit A-2","city":"Boulder","state":"CO","zip":"80303","lat":"39.9998221049","lng":"-105.256158113","ID":"6009","type":"cr","phone":"(720) 675-9435","url":"https:\/\/www.clubpilates.com\/boulder\/","comingSoon":"","openingSoon":"","dist":"","country":"US","npdevents":"","location_details":"No more information about this location."},{"title":"Bountiful","location":"yes","address":"530 W. 500 S., Ste. D","city":"Bountiful","state":"UT","zip":"84010","lat":"40.8848962767","lng":"-111.893220402","ID":"6225","type":"cr","phone":"(801) 317-1766","url":"https:\/\/www.clubpilates.com\/bountiful\/","comingSoon":"","openingSoon":"","dist":"","country":"US","npdevents":"","location_details":"No more information about this location."},{"title":"Bozeman","location":"yes","address":"1707 W. Oak Street, Suite C","city":"Bozeman","state":"MT","zip":"59715","lat":"45.6941227864","lng":"-111.058771312","ID":"5287","type":"cr","phone":"(406) 404-1922","url":"https:\/\/www.clubpilates.com\/bozeman","comingSoon":"","openingSoon":"","dist":"","country":"US","npdevents":"","location_details":"We are located in the Smith's Shopping center, on the far East Side end.  We have great parking and accessibility!"},{"title":"Braden River","location":"yes","address":"5408 Lockwood Ridge Rd.","city":"Bradenton","state":"FL","zip":"34203","lat":"27.4447346","lng":"-82.5060401","ID":"6160","type":"cr","phone":"(941) 260-3360","url":"https:\/\/www.clubpilates.com\/bradenriver\/","comingSoon":"","openingSoon":"","dist":"","country":"US","npdevents":"","location_details":"No more information about this location."},{"title":"Brea","location":"yes","address":"3357 E. Imperial Hwy.","city":"Brea","state":"CA","zip":"92823","lat":"33.9092802877","lng":"-117.851171047","ID":"6082","type":"cr","phone":"(657) 315-9080","url":"https:\/\/www.clubpilates.com\/brea\/","comingSoon":"","openingSoon":"","dist":"","country":"US","npdevents":"","location_details":"Located in the Village at La Floresta next to Floyd\u2019s Barbershop."},{"title":"Brentwood","location":"yes","address":"11677 San Vicente Blvd.","city":"Los Angeles","state":"CA","zip":"90049","lat":"34.0541261086","lng":"-118.465133607","ID":"5817","type":"cr","phone":"(424) 368-2650","url":"https:\/\/www.clubpilates.com\/brentwood\/","comingSoon":"","openingSoon":"","dist":"","country":"US","npdevents":"","location_details":"No more information about this location."},{"title":"Brentwood STL","location":"yes","address":"2535 S Brentwood Blvd","city":"St. Louis","state":"MO","zip":"63144","lat":"38.6146280208","lng":"-90.3492182493","ID":"5498","type":"cr","phone":"(314) 551-2126","url":"https:\/\/www.clubpilates.com\/brentwoodstl","comingSoon":"","openingSoon":"","dist":"","country":"US","npdevents":"","location_details":"No more information about this location."},{"title":"Breton Village","location":"yes","address":"1886 Breton Rd SE","city":"Grand Rapids","state":"MI","zip":"49506","lat":"42.9290026","lng":"-85.6077783","ID":"8823","type":"cr","phone":"(616) 855-1696","url":"http:\/\/www.clubpilates.com\/bretonvillage","comingSoon":"","openingSoon":"","dist":"","country":"US","npdevents":"","location_details":"No more information about this location."},{"title":"Briargate","location":"yes","address":"9288 Forest Bluffs View, Unit 100","city":"Colorado Springs","state":"CO","zip":"80920","lat":"38.9658008","lng":"-104.7874269","ID":"7496","type":"cr","phone":"(719) 394-1212","url":"https:\/\/www.clubpilates.com\/Briargate","comingSoon":"","openingSoon":"","dist":"","country":"US","npdevents":"","location_details":"No more information about this location."},{"title":"Brickell","location":"yes","address":"117 SW 10th Street, Suite 103","city":"Miami","state":"FL","zip":"33130","lat":"25.7645881333","lng":"-80.1960352063","ID":"4037","type":"cr","phone":"(786) 509-9831","url":"https:\/\/www.clubpilates.com\/brickell\/","comingSoon":"","openingSoon":"","dist":"","country":"US","npdevents":"Join us Saturday, May 4th at 10:30am, at Kennedy Park for a free community mat Pilates class in celebration of National Pilates Day! Everyone is welcomed, just bring your own mat.","location_details":"No more information about this location."},{"title":"Bridgewater","location":"yes","address":"334 Chimney Rock Rd.","city":"Bound Brook","state":"NJ","zip":"08805","lat":"40.5779795","lng":"-74.5585875","ID":"7166","type":"cr","phone":"(908) 333-6786","url":"https:\/\/www.clubpilates.com\/bridgewater","comingSoon":"","openingSoon":"","dist":"","country":"US","npdevents":"","location_details":"Located in Chimney Rock Crossing"},{"title":"Broadview Heights","location":"yes","address":"4223 East Royalton Rd.","city":"Broadview Heights","state":"OH","zip":"44147","lat":"41.3146907","lng":"-81.6576414","ID":"6985","type":"cr","phone":"(440) 397-0050","url":"https:\/\/www.clubpilates.com\/broadviewheights\/","comingSoon":"","openingSoon":"","dist":"","country":"US","npdevents":"Fri May 3rd  @ 4:30p Intro Class  and @ 5:30p Intro Class\nSat May 4th @ 2:00p Intro Class, @ 3:00p Intro class, @ 4:00p Workshop and Party!","location_details":"No more information about this location."},{"title":"Brookfield","location":"yes","address":"17301 W Capitol Drive","city":"Brookfield","state":"WI","zip":"53045","lat":"43.0886728","lng":"-88.1267811","ID":"8489","type":"cr","phone":"(262) 245-3117","url":"https:\/\/www.clubpilates.com\/brookfield","comingSoon":"","openingSoon":"","dist":"","country":"US","npdevents":"","location_details":"No more information about this location."},{"title":"Brookhaven","location":"yes","address":"5001 Peachtree Blvd., Ste. 630","city":"Chamblee","state":"GA","zip":"30341","lat":"33.8849390608","lng":"-84.3142050505","ID":"5836","type":"cr","phone":"(678) 996-1986","url":"https:\/\/www.clubpilates.com\/brookhaven\/","comingSoon":"","openingSoon":"","dist":"","country":"US","npdevents":"","location_details":"No more information about this location."},{"title":"Buckhead","location":"yes","address":"2391 Peachtree Rd. NE, Suite B3Ab","city":"Atlanta","state":"GA","zip":"30305","lat":"33.8202434331","lng":"-84.3879928307","ID":"5339","type":"cr","phone":"(470) 885-0622","url":"https:\/\/www.clubpilates.com\/buckhead\/","comingSoon":"","openingSoon":"","dist":"","country":"US","npdevents":"","location_details":"No more information about this location."},{"title":"Burke","location":"yes","address":"5765 Burke Center Pkwy., Ste. S","city":"Burke","state":"VA","zip":"22015","lat":"38.799713","lng":"-77.318207","ID":"6948","type":"cr","phone":"(703) 691-5999","url":"https:\/\/www.clubpilates.com\/burke\/","comingSoon":"","openingSoon":"","dist":"","country":"US","npdevents":"","location_details":"Reserve a Free Intro Class at Club Pilates Burke, located in the former Five Star Jeweler location (near Kohl's) in the Burke Centre Shopping Center in Fairfax County. If you need to tone and burn calories, we welcome you to our supportive small group."},{"title":"Burlington","location":"yes","address":"43 Middlesex Turnpike, Unit 12","city":"Burlington","state":"MA","zip":"01803","lat":"42.4712976248","lng":"-71.2095990032","ID":"6067","type":"cr","phone":"(781) 300-7525","url":"https:\/\/www.clubpilates.com\/burlington\/","comingSoon":"","openingSoon":"","dist":"","country":"US","npdevents":"","location_details":"Club Pilates provides the path to a more fulfilling life through low-impact, full body workouts. Visit Club Pilates Burlington in the Middlesex Commons on the 43 Middlesex Turnpike, right next to Burton's Grill and Eastern Bank!"},{"title":"Cahaba Heights","location":"yes","address":"3169 Green Valley Rd","city":"Birmingham","state":"AL","zip":"35243","lat":"33.4596163037","lng":"-86.7321011424","ID":"3289","type":"cr","phone":"(205) 777-7976","url":"https:\/\/www.clubpilates.com\/cahabaheights\/","comingSoon":"","openingSoon":"","dist":"","country":"US","npdevents":"","location_details":"No more information about this location."},{"title":"Camarillo","location":"yes","address":"2360-F Las Posas Rd.","city":"Camarillo","state":"CA","zip":"93010","lat":"34.23487","lng":"-119.037622","ID":"5575","type":"cr","phone":"(805) 261-1255","url":"https:\/\/www.clubpilates.com\/camarillo","comingSoon":"","openingSoon":"","dist":"","country":"US","npdevents":"","location_details":"No more information about this location."},{"title":"Camas","location":"yes","address":"19215 SE 34th St, Ste 108","city":"Camas","state":"WA","zip":"98607","lat":"45.5964242","lng":"-122.4766227","ID":"9343","type":"cr","phone":"(360) 205-4708","url":"http:\/\/wwwclubpilates.com\/camas","comingSoon":"","openingSoon":"","dist":"","country":"US","npdevents":"","location_details":"No more information about this location."},{"title":"Campbell","location":"yes","address":"10 E Hamilton Ave, Ste 300","city":"Campbell","state":"CA","zip":"95008","lat":"37.2937817906","lng":"-121.949553461","ID":"5525","type":"cr","phone":"(408) 412-0130","url":"https:\/\/www.clubpilates.com\/campbell\/","comingSoon":"","openingSoon":"","dist":"","country":"US","npdevents":"","location_details":"No more information about this location."},{"title":"Canton","location":"yes","address":"5846-B North Sheldon Rd","city":"Canton","state":"MI","zip":"48187","lat":"42.3242402445","lng":"-83.4766963386","ID":"8983","type":"cr","phone":"(734) 550-4210","url":"http:\/\/www.clubpilates.com\/canton","comingSoon":"","openingSoon":"","dist":"","country":"US","npdevents":"","location_details":"No more information about this location."},{"title":"Canyon Creek","location":"yes","address":"1150 N. Loop 1604 W., Ste.140","city":"San Antonio","state":"TX","zip":"78248","lat":"29.6061900077","lng":"-98.5102120042","ID":"6659","type":"cr","phone":"(210) 745-5595","url":"https:\/\/www.clubpilates.com\/canyoncreek\/","comingSoon":"","openingSoon":"","dist":"","country":"US","npdevents":"","location_details":"No more information about this location."},{"title":"Carlsbad","location":"yes","address":"1818 Marron Road, Suite 102","city":"Carlsbad","state":"CA","zip":"92008","lat":"33.177988603","lng":"-117.339939243","ID":"3145","type":"cr","phone":"(760) 960-3138","url":"https:\/\/www.clubpilates.com\/carlsbad\/","comingSoon":"","openingSoon":"","dist":"","country":"US","npdevents":"","location_details":"No more information about this location."},{"title":"Carmel","location":"yes","address":"2482 East 146th Street","city":"Carmel","state":"IN","zip":"46033","lat":"40.0019384097","lng":"-86.118889153","ID":"4046","type":"cr","phone":"(317) 565-4828","url":"https:\/\/www.clubpilates.com\/carmel\/","comingSoon":"","openingSoon":"","dist":"","country":"US","npdevents":"","location_details":"Reserve a Free Intro Class at Club Pilates Carmel, located in the Cool Creek Commons Shopping Center on 146th Street (next to Fresh Market). Club Pilates offers full body - low-impact workouts for everybody.  With a variety of classes offered seven days a week, no matter your previous experience or fitness level, there's a perfect Club Pilates workout for you."},{"title":"Carrollwood","location":"yes","address":"13254 N. Dale Mabry Hwy","city":"Tampa","state":"FL","zip":"33618","lat":"28.0688515235","lng":"-82.5068843365","ID":"5408","type":"cr","phone":"(813) 773-3880","url":"https:\/\/www.clubpilates.com\/carrollwood\/","comingSoon":"","openingSoon":"","dist":"","country":"US","npdevents":"","location_details":"No more information about this location."},{"title":"Castle Rock","location":"yes","address":"6360 Promenade Parkway, Unit 120","city":"Castle Rock","state":"CO","zip":"80108","lat":"39.4220158918","lng":"-104.878025651","ID":"5552","type":"cr","phone":"(720) 575-7185","url":"https:\/\/www.clubpilates.com\/castlerock\/","comingSoon":"","openingSoon":"","dist":"","country":"US","npdevents":"","location_details":"No more information about this location."},{"title":"Cedar Hills","location":"yes","address":"2725 SW Cedar Hills Blvd., Ste. 100","city":"Beaverton","state":"OR","zip":"97005","lat":"45.5006863544","lng":"-122.809059321","ID":"7014","type":"cr","phone":"(503) 430-0693","url":"https:\/\/www.clubpilates.com\/cedarhills","comingSoon":"","openingSoon":"","dist":"","country":"US","npdevents":"","location_details":"Located in the Beaverton at Cedar Hills Crossing & Cedar Hills Blvd."},{"title":"Cedar Park","location":"yes","address":"5001 183A Toll Rd., Ste. G200","city":"Cedar Park","state":"TX","zip":"78613","lat":"30.533949","lng":"-97.819564","ID":"6076","type":"cr","phone":"(512) 399-5212","url":"https:\/\/www.clubpilates.com\/cedarpark\/","comingSoon":"","openingSoon":"","dist":"","country":"US","npdevents":"","location_details":"Located in the Parke Shopping Center next to Bath and Body Shop and Maurices, in the same center as Wholefoods 365 and Costco."},{"title":"Centennial Hills","location":"yes","address":"9670 W. Skye Canyon Park Dr., Suite 130","city":"Las Vegas","state":"NV","zip":"89166","lat":"36.3141813","lng":"-115.3071267","ID":"9324","type":"cr","phone":"(702) 508-8586","url":"http:\/\/www.clubpilates.com\/centennialhills","comingSoon":"","openingSoon":"","dist":"","country":"US","npdevents":"","location_details":"No more information about this location."},{"title":"Central Phoenix","location":"yes","address":"6819 N. 16th St., Ste. 7","city":"Phoenix","state":"AZ","zip":"85016","lat":"33.5370356136","lng":"-112.047061231","ID":"7078","type":"cr","phone":"(602) 888-8824","url":"https:\/\/www.clubpilates.com\/centralphoenix","comingSoon":"","openingSoon":"","dist":"","country":"US","npdevents":"","location_details":"Club Pilates Central Phoenix \/ Squaw Peak Plaza \/ Sprouts Plaza \/ 16th & Glendale Ave \/ 51 Freeway"},{"title":"Cerritos","location":"yes","address":"11900 South St, Ste. 120","city":"Cerritos","state":"CA","zip":"90703","lat":"33.85727","lng":"-118.079728","ID":"6723","type":"cr","phone":"(562) 860-0330","url":"https:\/\/www.clubpilates.com\/cerritos\/","comingSoon":"","openingSoon":"","dist":"","country":"US","npdevents":"","location_details":"No more information about this location."},{"title":"Chagrin Falls","location":"yes","address":"8474 E. Washington St., Unit 11","city":"Chagrin Falls","state":"OH","zip":"44023","lat":"41.4136622274","lng":"-81.3400241733","ID":"6128","type":"cr","phone":"(440) 804-5110","url":"https:\/\/www.clubpilates.com\/chagrinfalls\/","comingSoon":"","openingSoon":"","dist":"","country":"US","npdevents":"","location_details":"No more information about this location."},{"title":"Chandan Place","location":"yes","address":"3065 N. Perryville Rd., Ste. 121","city":"Rockford","state":"IL","zip":"61114","lat":"42.3049238261","lng":"-88.9773917198","ID":"5906","type":"cr","phone":"(815) 860-0710","url":"https:\/\/www.clubpilates.com\/chandanplace\/","comingSoon":"","openingSoon":"","dist":"","country":"US","npdevents":"","location_details":"No more information about this location."},{"title":"Chandler","location":"yes","address":"4085 South Gilbert Rd, Shops B Suite 5","city":"Chandler","state":"AZ","zip":"85249","lat":"33.246862","lng":"-111.7880875","ID":"5475","type":"cr","phone":"(480) 771-4459","url":"https:\/\/www.clubpilates.com\/chandler","comingSoon":"","openingSoon":"","dist":"","country":"US","npdevents":"","location_details":"No more information about this location."},{"title":"Chapel Hill","location":"yes","address":"1800 E. Franklin St., #9","city":"Chapel Hill","state":"NC","zip":"27514","lat":"35.936806","lng":"-79.024342","ID":"6105","type":"cr","phone":"(919) 781-8089","url":"https:\/\/www.clubpilates.com\/chapelhill\/","comingSoon":"","openingSoon":"","dist":"","country":"US","npdevents":"","location_details":"No more information about this location."},{"title":"Charlottesville","location":"yes","address":"2140 Barracks Road","city":"Charlottesville","state":"VA","zip":"22903","lat":"38.054453532","lng":"-78.4997292504","ID":"9042","type":"cr","phone":"(434) 202-4219","url":"http:\/\/www.clubpilates.com\/charlottesville","comingSoon":"","openingSoon":"","dist":"","country":"US","npdevents":"","location_details":"No more information about this location."},{"title":"Cherry Creek","location":"yes","address":"3033 E 1st Ave, Ste 102","city":"Denver","state":"CO","zip":"80206","lat":"39.71849","lng":"-104.951617","ID":"3156","type":"cr","phone":"(720) 233-1352","url":"https:\/\/www.clubpilates.com\/cherrycreek\/","comingSoon":"","openingSoon":"","dist":"","country":"US","npdevents":"","location_details":"Across from Del Frisco's"},{"title":"Cherry Hills","location":"yes","address":"3576 S. Logan St. Unit B","city":"Englewood","state":"CO","zip":"80113","lat":"39.651717","lng":"-104.982739","ID":"6461","type":"cr","phone":"(720) 699-8900","url":"https:\/\/www.clubpilates.com\/cherryhills\/","comingSoon":"","openingSoon":"","dist":"","country":"US","npdevents":"","location_details":"Located in the Boardwalk Shops in Englewood - Cherry Hills Village."},{"title":"Chesterfield","location":"yes","address":"122 Hilltown Village Center","city":"Chesterfield","state":"MO","zip":"63017","lat":"38.6593902556","lng":"-90.5511939526","ID":"3685","type":"cr","phone":"(636) 778-9525","url":"https:\/\/www.clubpilates.com\/chesterfield\/","comingSoon":"","openingSoon":"","dist":"","country":"US","npdevents":"","location_details":"No more information about this location."},{"title":"Chino Hills","location":"yes","address":"13920 City Center Dr., Suite 4010","city":"Chino Hills","state":"CA","zip":"91709","lat":"34.0006374","lng":"-117.7314994","ID":"4174","type":"cr","phone":"(909) 529-1041","url":"https:\/\/www.clubpilates.com\/chinohills","comingSoon":"","openingSoon":"","dist":"","country":"US","npdevents":"","location_details":"Located in The Shoppes at Chino Hills. Trader Joe's side. Next to Chipotle. Across from Forever 21."},{"title":"Eastlake","location":"yes","address":"2015 Birch Road, Suite 1204","city":"Chula Vista","state":"CA","zip":"91915","lat":"32.6232709221","lng":"-116.969940259","ID":"3146","type":"cr","phone":"(619) 392-2572","url":"https:\/\/www.clubpilates.com\/eastlake\/","comingSoon":"","openingSoon":"","dist":"","country":"US","npdevents":"","location_details":"We are located in the Otay Ranch Mall, next door to GNC"},{"title":"Cinco Ranch","location":"yes","address":"22100 Westheimer Parkway","city":"Katy","state":"TX","zip":"77450","lat":"29.7349625","lng":"-95.7531678","ID":"8812","type":"cr","phone":"(281) 676-4638","url":"http:\/\/www.clubpilates.com\/cincoranch","comingSoon":"","openingSoon":"","dist":"","country":"US","npdevents":"","location_details":"In the Kroger shopping center next to Hallmark\nJoin us June 8th and 9th for our Grand Opening!!"},{"title":"Clear Lake","location":"yes","address":"2323 Clear Lake City Blvd., Ste. 183","city":"Houston","state":"TX","zip":"77062","lat":"29.5927893076","lng":"-95.1408022642","ID":"6194","type":"cr","phone":"(832) 584-4120","url":"https:\/\/www.clubpilates.com\/clearlake\/","comingSoon":"","openingSoon":"","dist":"","country":"US","npdevents":"","location_details":"No more information about this location."},{"title":"Clifton Park","location":"yes","address":"15 Clifton Country Rd","city":"Clifton Park","state":"NY","zip":"12065","lat":"42.8584467057","lng":"-73.7812930074","ID":"8674","type":"cr","phone":"(518) 691-3131","url":"https:\/\/www.clubpilates.com\/cliftonpark","comingSoon":"","openingSoon":"","dist":"","country":"US","npdevents":"","location_details":"No more information about this location."},{"title":"Clocktower Village","location":"yes","address":"617 N. 98th St.","city":"Omaha","state":"NE","zip":"68114","lat":"41.2659193721","lng":"-96.0643548891","ID":"7057","type":"cr","phone":"(402) 807-3741","url":"https:\/\/www.clubpilates.com\/clocktowervillage\/","comingSoon":"","openingSoon":"","dist":"","country":"US","npdevents":"","location_details":"Across from Von Maur at Westroads Mall next to Tip Top Tux"},{"title":"Cobble Hill*","location":"yes","address":"181 Pacific St.","city":"Brooklyn","state":"NY","zip":"11201","lat":"40.689406","lng":"-73.993328","ID":"6055","type":"cr","phone":"(718) 635-1699","url":"https:\/\/www.clubpilates.com\/cobblehill\/","comingSoon":"","openingSoon":"","dist":"","country":"US","npdevents":"","location_details":"No more information about this location."},{"title":"College Station","location":"yes","address":"910 William D Fitch Parkway, Suite 600","city":"College Station","state":"TX","zip":"77845","lat":"30.5554185757","lng":"-96.2615710904","ID":"9046","type":"cr","phone":"(979) 999-1896","url":"http:\/\/www.clubpilates.com\/collegestation","comingSoon":"","openingSoon":"","dist":"","country":"US","npdevents":"","location_details":"No more information about this location."},{"title":"Collegeville","location":"yes","address":"222 East Main St., #12","city":"Collegeville","state":"PA","zip":"19426","lat":"40.1831459678","lng":"-75.452234745","ID":"6182","type":"cr","phone":"(484) 284-8004","url":"https:\/\/www.clubpilates.com\/collegeville\/","comingSoon":"","openingSoon":"","dist":"","country":"US","npdevents":"","location_details":"Located at the Collegeville Shopping Center, near Kimberton Whole Foods."},{"title":"Colleyville","location":"yes","address":"4701 Colleyville Blvd., #430","city":"Colleyville","state":"TX","zip":"76034","lat":"32.8779628547","lng":"-97.1570184319","ID":"5690","type":"cr","phone":"(817) 409-6970","url":"https:\/\/www.clubpilates.com\/colleyville\/","comingSoon":"","openingSoon":"","dist":"","country":"US","npdevents":"","location_details":"No more information about this location."},{"title":"Collierville","location":"yes","address":"3660 S. Houston Levee Rd., #108","city":"Collierville","state":"TN","zip":"38017","lat":"35.0500969167","lng":"-89.7309556603","ID":"6392","type":"cr","phone":"(901) 255-0606","url":"https:\/\/www.clubpilates.com\/collierville\/","comingSoon":"","openingSoon":"","dist":"","country":"US","npdevents":"","location_details":"No more information about this location."},{"title":"Commack","location":"yes","address":"6226 Jericho Turnpike","city":"Commack","state":"NY","zip":"11725","lat":"40.841921485","lng":"-73.2988754821","ID":"6296","type":"cr","phone":"(631) 600-3072","url":"https:\/\/www.clubpilates.com\/commack\/","comingSoon":"","openingSoon":"","dist":"","country":"US","npdevents":"Saturday May 4 @ 1:30 pm - Free Intro Class\nSaturday and Sunday 8:00 am - 1:00 pm - Amazing Lash and Massage Envy Giveaways","location_details":"Next door to Jersey Mike's, PM Pediatrics, and BurgerFi"},{"title":"Conshohocken","location":"yes","address":"22 E Ridge Pike","city":"Conshohocken","state":"PA","zip":"19428","lat":"40.0934439","lng":"-75.285069","ID":"9423","type":"cr","phone":"(610) 613-8380","url":"http:\/\/www.clubpilates.com\/conshohocken","comingSoon":"","openingSoon":"","dist":"","country":"US","npdevents":"","location_details":"No more information about this location."},{"title":"Cool Springs","location":"yes","address":"4031 Aspen Grove Drive, Suite 144","city":"Franklin","state":"TN","zip":"37067","lat":"35.9413191","lng":"-86.8266568","ID":"9237","type":"cr","phone":"(615) 538-1199","url":"http:\/\/www.clubpilates.com\/coolsprings","comingSoon":"","openingSoon":"","dist":"","country":"US","npdevents":"","location_details":"No more information about this location."},{"title":"Coppell","location":"yes","address":"106 N. Denton Tap Road, Suite 202","city":"Coppell","state":"TX","zip":"75019","lat":"32.9697687","lng":"-96.9915935","ID":"8043","type":"cr","phone":"(972) 848-3308","url":"https:\/\/www.clubpilates.com\/coppell","comingSoon":"","openingSoon":"","dist":"","country":"US","npdevents":"","location_details":"No more information about this location."},{"title":"Coral Gables","location":"yes","address":"77 Miracle Mile","city":"Coral Gables","state":"FL","zip":"33134","lat":"25.7499914","lng":"-80.2563607","ID":"9187","type":"cr","phone":"(305) 209-5679","url":"http:\/\/www.clubpilates.com\/coralgables","comingSoon":"","openingSoon":"","dist":"","country":"US","npdevents":"","location_details":"No more information about this location."},{"title":"Coral Springs","location":"yes","address":"4388 N. State Rd. 7","city":"Coral Springs","state":"FL","zip":"33073","lat":"26.2832715338","lng":"-80.2044600248","ID":"6075","type":"cr","phone":"(954) 507-4633","url":"https:\/\/www.clubpilates.com\/coralsprings\/","comingSoon":"","openingSoon":"","dist":"","country":"US","npdevents":"","location_details":"No more information about this location."},{"title":"Corona","location":"yes","address":"2790 Cabot Drive, Suite 4-137","city":"Corona","state":"CA","zip":"92883","lat":"33.8114911","lng":"-117.5065624","ID":"8543","type":"cr","phone":"(951) 268-4027","url":"http:\/\/www.clubpilates.com\/corona","comingSoon":"","openingSoon":"","dist":"","country":"US","npdevents":"","location_details":"No more information about this location."},{"title":"Costa Mesa","location":"yes","address":"1525 Mesa Verde Dr. E., Ste 123","city":"Costa Mesa","state":"CA","zip":"92626","lat":"33.6696934121","lng":"-117.92050302","ID":"3136","type":"cr","phone":"(949) 791-7184","url":"https:\/\/www.clubpilates.com\/costamesa\/","comingSoon":"","openingSoon":"","dist":"","country":"US","npdevents":"","location_details":"No more information about this location."},{"title":"Countryside","location":"yes","address":"25973 US Hwy. 19 N, Ste. A-102","city":"Clearwater","state":"FL","zip":"33763","lat":"28.0085785075","lng":"-82.7290334039","ID":"6724","type":"cr","phone":"(727) 210-5365","url":"https:\/\/www.clubpilates.com\/countryside\/","comingSoon":"","openingSoon":"","dist":"","country":"US","npdevents":"","location_details":"No more information about this location."},{"title":"Courthouse","location":"yes","address":"2476 Nimmo Parkway, Suite 108","city":"Virginia Beach","state":"VA","zip":"23456","lat":"36.7543582","lng":"-76.0655477","ID":"8902","type":"cr","phone":"(757) 300-1200","url":"http:\/\/www.clubpilates.com\/courthouse","comingSoon":"","openingSoon":"","dist":"","country":"US","npdevents":"","location_details":"Courthouse Marketplace at the Virginia Beach Municipal Center"},{"title":"Creve Coeur","location":"yes","address":"702 N. New Ballas Rd.","city":"Creve Coeur","state":"MO","zip":"63141","lat":"38.6685320144","lng":"-90.4428179562","ID":"6537","type":"cr","phone":"(314) 736-4102","url":"https:\/\/www.clubpilates.com\/crevecoeur\/","comingSoon":"","openingSoon":"","dist":"","country":"US","npdevents":"","location_details":"No more information about this location."},{"title":"Crofton","location":"yes","address":"2101 Concord Blvd., Suite F","city":"Crofton","state":"MD","zip":"21114","lat":"39.0192217","lng":"-76.6989914","ID":"7515","type":"cr","phone":"(240) 847-4441","url":"https:\/\/www.clubpilates.com\/crofton","comingSoon":"","openingSoon":"","dist":"","country":"US","npdevents":"","location_details":"No more information about this location."},{"title":"Culver City","location":"yes","address":"10732 Jefferson Blvd.","city":"Culver City","state":"CA","zip":"90230","lat":"34.0019920335","lng":"-118.392614722","ID":"5725","type":"cr","phone":"(310) 424-5290","url":"https:\/\/www.clubpilates.com\/culvercity\/","comingSoon":"","openingSoon":"","dist":"","country":"US","npdevents":"","location_details":"No more information about this location."},{"title":"Cumming","location":"yes","address":"5740 Steeplechase Blvd, Suite 104","city":"Cumming","state":"GA","zip":"30040","lat":"34.1709778","lng":"-84.1827179","ID":"7516","type":"cr","phone":"(678) 330-2875","url":"https:\/\/www.clubpilates.com\/cumming","comingSoon":"","openingSoon":"","dist":"","country":"US","npdevents":"","location_details":"The studio is located in The Shoppes of Bethelview at the intersection of Bethelview and Castleberry Road (right next to the Kroger Marketplace)."},{"title":"Dalton Corners","location":"yes","address":"3301 N. Goliad St., Ste. 103","city":"Rockwall","state":"TX","zip":"75087","lat":"32.9668211","lng":"-96.4653166","ID":"6473","type":"cr","phone":"(469) 718-7787","url":"https:\/\/www.clubpilates.com\/daltoncorners\/","comingSoon":"","openingSoon":"","dist":"","country":"US","npdevents":"","location_details":"No more information about this location."},{"title":"Dana Point","location":"yes","address":"33611 Del Obispo St, Ste C","city":"Dana Point","state":"CA","zip":"92629","lat":"33.4746172","lng":"-117.6862425","ID":"3140","type":"cr","phone":"(949) 216-6165","url":"https:\/\/www.clubpilates.com\/danapoint\/","comingSoon":"","openingSoon":"","dist":"","country":"US","npdevents":"","location_details":"No more information about this location."},{"title":"Danville","location":"yes","address":"3418 Camino Tassajara","city":"Danville","state":"CA","zip":"94506","lat":"37.7977483569","lng":"-121.92116961","ID":"6876","type":"cr","phone":"(925) 854-5500","url":"https:\/\/www.clubpilates.com\/danville\/","comingSoon":"","openingSoon":"","dist":"","country":"US","npdevents":"","location_details":"No more information about this location."},{"title":"Darien","location":"yes","address":"1063 Boston Post Rd.","city":"Darien","state":"CT","zip":"06820","lat":"41.0749878527","lng":"-73.4727403522","ID":"6125","type":"cr","phone":"(203) 439-4670","url":"https:\/\/www.clubpilates.com\/darien\/","comingSoon":"","openingSoon":"","dist":"","country":"US","npdevents":"","location_details":"Next door to the Darien Playhouse"},{"title":"Decatur","location":"yes","address":"1605 Church St, Suite 600","city":"Decatur","state":"GA","zip":"30033","lat":"33.793795","lng":"-84.2830496","ID":"7590","type":"cr","phone":"(404) 883-3397","url":"https:\/\/www.clubpilates.com\/decatur","comingSoon":"","openingSoon":"","dist":"","country":"US","npdevents":"","location_details":"No more information about this location."},{"title":"Del Mar","location":"yes","address":"12995 El Camino Real, Ste. 103","city":"San Diego","state":"CA","zip":"92130","lat":"32.9536434","lng":"-117.2332666","ID":"3088","type":"cr","phone":"(858) 914-1965","url":"https:\/\/www.clubpilates.com\/delmar\/","comingSoon":"","openingSoon":"","dist":"","country":"US","npdevents":"","location_details":"No more information about this location."},{"title":"Demo Alaska","location":"yes","address":"1313 Disneyland Dr","city":"Anaheim","state":"CA","zip":"92802","lat":"33.8153048","lng":"-117.9262072","ID":"3101","type":"cr","phone":"() -","url":"https:\/\/www.clubpilates.com\/demoalaska\/","comingSoon":"demo","openingSoon":"","dist":"","country":"","npdevents":"","location_details":""},{"title":"Demo Canada","location":"yes","address":"2246 160th St., Unit 20","city":"Surrey","state":"BC","zip":"V3Z9N6","lat":"49.0423852","lng":"-122.7791605","ID":"7163","type":"cr","phone":"() -","url":"https:\/\/www.clubpilates.com\/democanada\/","comingSoon":["Coming Soon"],"openingSoon":"","dist":"","country":"CA","npdevents":"","location_details":""},{"title":"Denville","location":"yes","address":"3056 Route 10 West","city":"Denville","state":"NJ","zip":"07834","lat":"40.8662681987","lng":"-74.5066320933","ID":"6714","type":"cr","phone":"(973) 920-2623","url":"https:\/\/www.clubpilates.com\/denville\/","comingSoon":"","openingSoon":"","dist":"","country":"US","npdevents":"","location_details":"No more information about this location."},{"title":"Desert Ridge","location":"yes","address":"20910 N. Tatum Blvd., Suite 110","city":"Phoenix","state":"AZ","zip":"85050","lat":"33.6748138777","lng":"-111.980132915","ID":"6823","type":"cr","phone":"(480) 795-3357","url":"https:\/\/www.clubpilates.com\/desertridge\/","comingSoon":"","openingSoon":"","dist":"","country":"US","npdevents":"","location_details":"No more information about this location."},{"title":"Dominion","location":"yes","address":"21803 IH-10 West","city":"San Antonio","state":"TX","zip":"78257","lat":"29.6448775","lng":"-98.6215846","ID":"8769","type":"cr","phone":"(210) 610-7878","url":"http:\/\/www.clubpilates.com\/dominion","comingSoon":"","openingSoon":"","dist":"","country":"US","npdevents":"","location_details":"Coming soon to the Dominion Crossing Shopping Center, Suite 104"},{"title":"Doral Midtown","location":"yes","address":"7835 NW 107th Ave., #3","city":"Doral","state":"FL","zip":"33178","lat":"25.8449495891","lng":"-80.3694975936","ID":"6512","type":"cr","phone":"(786) 233-5187","url":"https:\/\/www.clubpilates.com\/doralmidtown\/","comingSoon":"","openingSoon":"","dist":"","country":"US","npdevents":"","location_details":"Doral Midtown"},{"title":"Downtown Birmingham","location":"yes","address":"707 Richard Arrington Jr Blvd S, #106","city":"Birmingham","state":"AL","zip":"35233","lat":"33.5063738311","lng":"-86.7980057001","ID":"6324","type":"cr","phone":"(205) 502-2474","url":"https:\/\/www.clubpilates.com\/downtownbirmingham\/","comingSoon":"","openingSoon":"","dist":"","country":"US","npdevents":"","location_details":"No more information about this location."},{"title":"Downtown Indy","location":"yes","address":"530 Massachusetts Ave, Suite 160","city":"Indianapolis","state":"IN","zip":"46204","lat":"39.7748769","lng":"-86.1499074","ID":"8554","type":"cr","phone":"(317) 643-5330","url":"https:\/\/www.clubpilates.com\/downtownindy","comingSoon":"","openingSoon":"","dist":"","country":"US","npdevents":"","location_details":"Now Open on Mass Ave!!   The Club Pilates Downtown Indy studio opened on  April 1, 2019!  The new studio is located in the middle of the Mass Ave district on the 1st floor of the new \u201cPenrose on Mass\u201d Development (across the street from Nine Irish Brothers).  Club Pilates offers full body - low-impact workouts designed everyBODY."},{"title":"Downtown Jacksonville","location":"yes","address":"150 Riverside Ave., #307","city":"Jacksonville","state":"FL","zip":"32202","lat":"30.3236050681","lng":"-81.6722866749","ID":"7256","type":"cr","phone":"(904) 701-4967","url":"https:\/\/www.clubpilates.com\/downtownjacksonville","comingSoon":"","openingSoon":"","dist":"","country":"US","npdevents":"","location_details":"Located in the Brooklyn Station plaza next to Fresh Market"},{"title":"Downtown Los Angeles","location":"yes","address":"1119 S. Hope Street","city":"Los Angeles","state":"CA","zip":"90015","lat":"34.0418796","lng":"-118.2636484","ID":"3162","type":"cr","phone":"(213) 634-7070","url":"https:\/\/www.clubpilates.com\/dtla\/","comingSoon":"","openingSoon":"","dist":"","country":"US","npdevents":"","location_details":"No more information about this location."},{"title":"Downtown Phoenix","location":"yes","address":"111 W. Monroe St., Suite 128","city":"Phoenix","state":"AZ","zip":"85003","lat":"33.450013","lng":"-112.075625","ID":"3654","type":"cr","phone":"() -","url":"https:\/\/www.clubpilates.com\/dtphoenix\/","comingSoon":["Coming Soon"],"openingSoon":"","dist":"","country":"US","npdevents":"","location_details":"No more information about this location."},{"title":"Doylestown","location":"yes","address":"1745 S. Easton Rd., Ste. H4","city":"Doylestown","state":"PA","zip":"18901","lat":"40.2722458","lng":"-75.1267242","ID":"7928","type":"cr","phone":"(215) 874-0800","url":"https:\/\/www.clubpilates.com\/doylestown\/","comingSoon":"","openingSoon":"","dist":"","country":"US","npdevents":"","location_details":"Located in Barn Plaza between Kohls and Nail Bliss."},{"title":"Dr. Phillips","location":"yes","address":"7600 Dr. Philips Blvd, Ste. 86","city":"Orlando","state":"FL","zip":"32819","lat":"28.4520428","lng":"-81.4897131","ID":"6658","type":"cr","phone":"(407) 605-5885","url":"https:\/\/www.clubpilates.com\/drphillips\/","comingSoon":"","openingSoon":"","dist":"","country":"US","npdevents":"","location_details":"No more information about this location."},{"title":"Dublin","location":"yes","address":"5935 Dublin Blvd.","city":"Colorado Springs","state":"CO","zip":"80923","lat":"38.9232563","lng":"-104.7186149","ID":"7605","type":"cr","phone":"(719) 394-1313","url":"https:\/\/www.clubpilates.com\/dublin","comingSoon":"","openingSoon":"","dist":"","country":"US","npdevents":"","location_details":"No more information about this location."},{"title":"Dunwoody","location":"yes","address":"5552-B Chamblee Dunwoody Rd","city":"Dunwoody","state":"GA","zip":"30338","lat":"33.9500278","lng":"-84.3378294","ID":"6822","type":"cr","phone":"(770) 573-0241","url":"https:\/\/www.clubpilates.com\/dunwoody\/","comingSoon":"","openingSoon":"","dist":"","country":"US","npdevents":"May 4, 2019 \/ 8:00 AM - 1:00PM \/ Open house - Guests Welcome \/\nMay 4, 2019 \/ 1:00 PM \/ Intro Class \/ \nMay 5, 2019 \/ 1:30 PM \/ Intro Class","location_details":"Located in Dunwoody Hall shopping center on the left-hand side when facing Publix.\n5552-B Chamblee Dunwoody RD\nDunwoody, GA"},{"title":"Eagle","location":"yes","address":"3130 E. State St., Ste. 115","city":"Eagle","state":"ID","zip":"83616","lat":"43.6834612413","lng":"-116.314455953","ID":"5875","type":"cr","phone":"(208) 912-0071","url":"https:\/\/www.clubpilates.com\/eagle\/","comingSoon":"","openingSoon":"","dist":"","country":"US","npdevents":"","location_details":"No more information about this location."},{"title":"East 89th*","location":"yes","address":"1715 First Avenue","city":"New York","state":"NY","zip":"10128","lat":"40.7787321","lng":"-73.9483046","ID":"7557","type":"cr","phone":"(917) 685-0240","url":"https:\/\/www.clubpilates.com\/east89th","comingSoon":"","openingSoon":"","dist":"","country":"US","npdevents":"","location_details":"No more information about this location."},{"title":"East Austin","location":"yes","address":"1109 E 5th Street","city":"Austin","state":"TX","zip":"78702","lat":"30.2632213","lng":"-97.7316501","ID":"9122","type":"cr","phone":"(512) 878-3271","url":"http:\/\/www.clubpilates.com\/eastaustin","comingSoon":"","openingSoon":"","dist":"","country":"US","npdevents":"","location_details":"No more information about this location."},{"title":"East Cobb","location":"yes","address":"2960 Shallowford Rd., Suite 200","city":"Marietta","state":"GA","zip":"30066","lat":"34.0352062227","lng":"-84.4669564577","ID":"5374","type":"cr","phone":"(678) 647-6220","url":"https:\/\/www.clubpilates.com\/eastcobb\/","comingSoon":"","openingSoon":"","dist":"","country":"US","npdevents":"","location_details":"No more information about this location."},{"title":"East Greenwich","location":"yes","address":"1000 Division St, Suite 75","city":"East Greenwich","state":"RI","zip":"02818","lat":"41.6614825","lng":"-71.4946672","ID":"9307","type":"cr","phone":"(401) 234-0555","url":"http:\/\/www.clubpilates.com\/eastgreenwich","comingSoon":"","openingSoon":"","dist":"","country":"US","npdevents":"","location_details":"Located in the Dave's Marketplace shopping center."},{"title":"East Long Beach","location":"yes","address":"5939 E. Spring St.","city":"Long Beach","state":"CA","zip":"90808","lat":"33.8115413187","lng":"-118.11573565","ID":"5931","type":"cr","phone":"(562) 521-1800","url":"https:\/\/www.clubpilates.com\/eastlongbeach\/","comingSoon":"","openingSoon":"","dist":"","country":"US","npdevents":"","location_details":"No more information about this location."},{"title":"East Meadow","location":"yes","address":"1949 Front Street","city":"East Meadow","state":"NY","zip":"11554","lat":"40.7222224","lng":"-73.5637584","ID":"8675","type":"cr","phone":"(516) 744-1154","url":"https:\/\/www.clubpilates.com\/eastmeadow","comingSoon":"","openingSoon":"","dist":"","country":"US","npdevents":"","location_details":"Stew Leonard's Plaza"},{"title":"East Memphis","location":"yes","address":"6300 Poplar Ave., Ste. 103","city":"Memphis","state":"TN","zip":"38119","lat":"35.1020130555","lng":"-89.8529237509","ID":"4038","type":"cr","phone":"(901) 646-5054","url":"https:\/\/www.clubpilates.com\/eastmemphis","comingSoon":"","openingSoon":"","dist":"","country":"US","npdevents":"","location_details":"No more information about this location."},{"title":"East Mesa","location":"yes","address":"3130 N Recker Rd, Suite 103","city":"Mesa","state":"AZ","zip":"85215","lat":"33.4724363","lng":"-111.7017541","ID":"6460","type":"cr","phone":"(480) 562-3501","url":"https:\/\/www.clubpilates.com\/eastmesa\/","comingSoon":"","openingSoon":"","dist":"","country":"US","npdevents":"","location_details":"No more information about this location."},{"title":"East Montgomery","location":"yes","address":"8143 Vaughn Rd.","city":"Montgomery","state":"AL","zip":"36116","lat":"32.3394398815","lng":"-86.1725762486","ID":"6068","type":"cr","phone":"(334) 603-8055","url":"https:\/\/www.clubpilates.com\/eastmontgomery\/","comingSoon":"","openingSoon":"","dist":"","country":"US","npdevents":"","location_details":"If you want to increase your overall health through strength, flexibility, coordination and balance with little risk of injury, Club Pilates is the perfect place for you. Club Pilates East Montgomery opened in September 2017 and is located on Vaughn Road between Chappy's Deli and La Jolla Restaurants."},{"title":"Eastern NC","location":"yes","address":"703 Greenville Blvd. SE, Suite 105","city":"Greenville","state":"NC","zip":"27858","lat":"35.5860017384","lng":"-77.372431042","ID":"9079","type":"cr","phone":"(252) 652-3206","url":"http:\/\/www.clubpilates.com\/easternnc","comingSoon":"","openingSoon":"","dist":"","country":"US","npdevents":"","location_details":"Greenville Shopping Square near Publix, next to Party City"},{"title":"Echo Park","location":"yes","address":"1720 W Sunset Blvd","city":"Los Angeles","state":"CA","zip":"90026","lat":"34.0773766","lng":"-118.2591415","ID":"3414","type":"cr","phone":"(323) 505-4355","url":"https:\/\/www.clubpilates.com\/echopark","comingSoon":"","openingSoon":"","dist":"","country":"US","npdevents":"","location_details":"Located on Sunset Blvd. near Echo Park Lake and Dodger Stadium"},{"title":"Eden Prairie","location":"yes","address":"574 Prairie Center Drive, Suite 155","city":"Eden Prairie","state":"MN","zip":"55344","lat":"44.8523756","lng":"-93.4305946","ID":"7430","type":"cr","phone":"(952) 479-0844","url":"https:\/\/www.clubpilates.com\/edenprairie","comingSoon":"","openingSoon":"","dist":"","country":"US","npdevents":"","location_details":"No more information about this location."},{"title":"Edgewater","location":"yes","address":"1931 Sheridan Blvd, Unit V","city":"Edgewater","state":"CO","zip":"80214","lat":"39.7473352324","lng":"-105.055210199","ID":"3449","type":"cr","phone":"(720) 446-9777","url":"https:\/\/www.clubpilates.com\/edgewater\/","comingSoon":"","openingSoon":"","dist":"","country":"US","npdevents":"","location_details":"Sheridan Blvd. - Sloan Lake - Edgewood - Northwest Lakewood - Target Shopping Center - Edgewater Market Place"},{"title":"Edmond","location":"yes","address":"15124 Lleytons Court, Suite 105","city":"Edmond","state":"OK","zip":"73013","lat":"35.6246985","lng":"-97.5512131","ID":"7221","type":"cr","phone":"(405) 607-6737","url":"https:\/\/www.clubpilates.com\/edmond","comingSoon":"","openingSoon":"","dist":"","country":"US","npdevents":"","location_details":"No more information about this location."},{"title":"Elk Grove","location":"yes","address":"8235 Laguna Blvd., Ste. 120","city":"Elk Grove","state":"CA","zip":"95758","lat":"38.4223059252","lng":"-121.405180693","ID":"5599","type":"cr","phone":"(916) 936-2582","url":"https:\/\/www.clubpilates.com\/elkgrove\/","comingSoon":"","openingSoon":"","dist":"","country":"US","npdevents":"","location_details":"No more information about this location."},{"title":"Elmhurst","location":"yes","address":"538 W. St. Charles Rd.","city":"Elmhurst","state":"IL","zip":"60126","lat":"41.8902634","lng":"-87.9593795","ID":"9459","type":"cr","phone":"(630) 563-9730","url":"http:\/\/www.clubpilates.com\/Elmhurst","comingSoon":"","openingSoon":"","dist":"","country":"US","npdevents":"","location_details":"No more information about this location."},{"title":"Emerson","location":"yes","address":"437 Old Hook Road, Unit #5","city":"Emerson","state":"NJ","zip":"07630","lat":"40.9809348134","lng":"-74.0060091019","ID":"5466","type":"cr","phone":"(201) 949-7222","url":"https:\/\/www.clubpilates.com\/emerson\/","comingSoon":"","openingSoon":"","dist":"","country":"US","npdevents":"","location_details":"No more information about this location."},{"title":"Enchanted Hills","location":"yes","address":"3575 NM Hwy 528 NE, Suite H-100","city":"Rio Rancho","state":"NM","zip":"87144","lat":"35.3201189","lng":"-106.5771907","ID":"9220","type":"cr","phone":"(505) 675-1818","url":"http:\/\/www.clubpilates.com\/enchantedhills","comingSoon":"","openingSoon":"","dist":"","country":"US","npdevents":"","location_details":"No more information about this location."},{"title":"Encinitas","location":"yes","address":"555 2nd St., Suite 2","city":"Encinitas","state":"CA","zip":"92024","lat":"33.0452020417","lng":"-117.294403017","ID":"3147","type":"cr","phone":"(760) 783-3852","url":"https:\/\/www.clubpilates.com\/encinitas\/","comingSoon":"","openingSoon":"","dist":"","country":"US","npdevents":"","location_details":"No more information about this location."},{"title":"Englewood","location":"yes","address":"19 W. Palisade Ave.","city":"Englewood","state":"NJ","zip":"07631","lat":"40.894673","lng":"-73.9758058","ID":"5735","type":"cr","phone":"(201) 568-1700","url":"https:\/\/www.clubpilates.com\/englewood\/","comingSoon":"","openingSoon":"","dist":"","country":"US","npdevents":"","location_details":"No more information about this location."},{"title":"Eugene","location":"yes","address":"440 Coburg Road, Suite 100","city":"Eugene","state":"OR","zip":"97401","lat":"44.0673411","lng":"-123.0732061","ID":"9410","type":"cr","phone":"(541) 248-1406","url":"http:\/\/www.clubpilates.com\/eugene","comingSoon":"","openingSoon":"","dist":"","country":"US","npdevents":"","location_details":"No more information about this location."},{"title":"Evanston","location":"yes","address":"745 Chicago Avenue","city":"Evanston","state":"IL","zip":"60202","lat":"42.0318698291","lng":"-87.6784387521","ID":"7257","type":"cr","phone":"(847) 563-4362","url":"https:\/\/www.clubpilates.com\/evanston","comingSoon":"","openingSoon":"","dist":"","country":"US","npdevents":"","location_details":"No more information about this location."},{"title":"Evansville","location":"yes","address":"111 S. Green River Rd., Suite I","city":"Evansville","state":"IN","zip":"47715","lat":"37.9758966671","lng":"-87.4942902289","ID":"6889","type":"cr","phone":"(812) 618-2499","url":"https:\/\/www.clubpilates.com\/evansville\/","comingSoon":"","openingSoon":"","dist":"","country":"US","npdevents":"Sat. May 4 @ 1pm \u2013 Free Intro Classes\nCall studio to book","location_details":"No more information about this location."},{"title":"Exton","location":"yes","address":"812 N Pottstown Pike","city":"Exton","state":"PA","zip":"19341","lat":"40.0550921","lng":"-75.6492497","ID":"8801","type":"cr","phone":"(484) 879-4048","url":"http:\/\/www.clubpilates.com\/exton","comingSoon":"","openingSoon":"","dist":"","country":"US","npdevents":"","location_details":"Located on Route 100 South in the Old Village Plaza"},{"title":"Fair Lakes","location":"yes","address":"4467 Market Commons Drive","city":"Fairfax","state":"VA","zip":"22033","lat":"38.8582677871","lng":"-77.376594283","ID":"7372","type":"cr","phone":"(703) 646-1705","url":"https:\/\/www.clubpilates.com\/fairlakes","comingSoon":"","openingSoon":"","dist":"","country":"US","npdevents":"","location_details":"Located at the East Market at Fair Lakes shopping center near Whole Foods. Between ROY Salon and Modern Optometry. Plenty of free parking available behind the studio and 1-hour parking in front of the studio."},{"title":"Fair Oaks","location":"yes","address":"5317 Sunrise Blvd","city":"Fair Oaks","state":"CA","zip":"95628","lat":"38.6625884","lng":"-121.2722361","ID":"9105","type":"cr","phone":"(916) 500-4006","url":"http:\/\/www.clubpilates.com\/fairoaks","comingSoon":"","openingSoon":"","dist":"","country":"US","npdevents":"","location_details":"No more information about this location."},{"title":"Fairfield","location":"yes","address":"85 Mill Plain Rd., Sportsplex - Building V","city":"Fairfield","state":"CT","zip":"06824","lat":"41.1416438007","lng":"-73.2674085337","ID":"6869","type":"cr","phone":"(203) 659-0090","url":"https:\/\/www.clubpilates.com\/location\/fairfield\/","comingSoon":"","openingSoon":"","dist":"","country":"US","npdevents":"","location_details":"No more information about this location."},{"title":"Fishers","location":"yes","address":"11722 Allisonville Rd., Suite 102","city":"Fishers","state":"IN","zip":"46038","lat":"39.959257","lng":"-86.0397657288","ID":"7001","type":"cr","phone":"(317) 863-9470","url":"https:\/\/www.clubpilates.com\/fishers\/","comingSoon":"","openingSoon":"","dist":"","country":"US","npdevents":"","location_details":"Club Pilates Fishers is located just north of 116th Street and Allisonville Road at 11722 Allisonville Road (next to Kroger\u2019s).  Club Pilates offers full body - low-impact workouts for everybody.  With a variety of classes offered seven days a week, no matter your previous experience or fitness level, there's a perfect Club Pilates workout for you"},{"title":"Five Forks","location":"yes","address":"1939 Woodruff Rd.","city":"Greenville","state":"SC","zip":"29607","lat":"34.8206596146","lng":"-82.2637492884","ID":"7390","type":"cr","phone":"(864) 729-8100","url":"https:\/\/www.clubpilates.com\/fiveforks","comingSoon":"","openingSoon":"","dist":"","country":"US","npdevents":"","location_details":"No more information about this location."},{"title":"Five Points","location":"yes","address":"3951 State Street","city":"Santa Barbara","state":"CA","zip":"93105","lat":"34.438959773","lng":"-119.752617636","ID":"6878","type":"cr","phone":"(805) 618-1012","url":"https:\/\/www.clubpilates.com\/fivepoints\/","comingSoon":"","openingSoon":"","dist":"","country":"US","npdevents":"","location_details":"Inside the Five Points Shopping Center"},{"title":"Flemington","location":"yes","address":"100 Reaville Ave.","city":"Flemington","state":"NJ","zip":"08822","lat":"40.501475","lng":"-74.851255","ID":"6399","type":"cr","phone":"(908) 483-7888","url":"https:\/\/www.clubpilates.com\/flemington\/","comingSoon":"","openingSoon":"","dist":"","country":"US","npdevents":"","location_details":"We are located in the Shoppes at Flemington.  If you enter off Reaville Avenue, drive to the end of the strip mall.  We are located near the end of the strip mall, right next to Massage Envy."},{"title":"Flower Mound","location":"yes","address":"1221 Flower Mound Rd., Ste. 320","city":"Flower Mound","state":"TX","zip":"75028","lat":"33.010245","lng":"-97.047453","ID":"5782","type":"cr","phone":"(817) 668-0108","url":"https:\/\/www.clubpilates.com\/flowermound\/","comingSoon":"","openingSoon":"","dist":"","country":"US","npdevents":"","location_details":"No more information about this location."},{"title":"Folsom","location":"yes","address":"2766 E Bidwell St., Ste. 100","city":"Folsom","state":"CA","zip":"95630","lat":"38.6561814625","lng":"-121.121090502","ID":"6023","type":"cr","phone":"(916) 597-0799","url":"https:\/\/www.clubpilates.com\/folsom\/","comingSoon":"","openingSoon":"","dist":"","country":"US","npdevents":"","location_details":"No more information about this location."},{"title":"Foothill Ranch","location":"yes","address":"41 Auto Center Drive, 109B","city":"Foothill Ranch","state":"CA","zip":"92610","lat":"33.674666","lng":"-117.663327","ID":"6756","type":"cr","phone":"(949) 229-2103","url":"https:\/\/www.clubpilates.com\/foothillranch\/","comingSoon":"","openingSoon":"","dist":"","country":"US","npdevents":"","location_details":"In the shopping center at Towne Center Dr & Bake Pkwy next to the California Fish Grill"},{"title":"Forest Acres","location":"yes","address":"4701 Forest Drive, Building D","city":"Forest Acres","state":"SC","zip":"29206","lat":"34.020252","lng":"-80.970526","ID":"9190","type":"cr","phone":"(803) 485-1060","url":"http:\/\/www.clubpilates.com\/forestacres","comingSoon":"","openingSoon":"","dist":"","country":"US","npdevents":"","location_details":"No more information about this location."},{"title":"Fort Mill","location":"yes","address":"2373 Len Patterson Rd., Ste. 102","city":"Fort Mill","state":"SC","zip":"29708","lat":"35.0406197","lng":"-80.9833616","ID":"7062","type":"cr","phone":"(803) 399-0530","url":"https:\/\/www.clubpilates.com\/fortmill","comingSoon":"","openingSoon":"","dist":"","country":"US","npdevents":"","location_details":"Conveniently located across from the new Earth Fare grocery store on Len Patterson Rd. off of Highway 160 in Fort Mill."},{"title":"Fort Wright","location":"yes","address":"3420 Valley Plaza Parkway, Suite K","city":"Ft. Wright","state":"KY","zip":"41017","lat":"39.0371192","lng":"-84.536983","ID":"9053","type":"cr","phone":"(859) 349-0530","url":"http:\/\/www.clubpilates.com\/ftwright","comingSoon":"","openingSoon":"","dist":"","country":"US","npdevents":"","location_details":"No more information about this location."},{"title":"Framingham","location":"yes","address":"25 Prospect St.","city":"Framingham","state":"MA","zip":"01701","lat":"42.2989149422","lng":"-71.4220869541","ID":"5712","type":"cr","phone":"(774) 999-0209","url":"https:\/\/www.clubpilates.com\/framingham\/","comingSoon":"","openingSoon":"","dist":"","country":"US","npdevents":"","location_details":"No more information about this location."},{"title":"Frazer","location":"yes","address":"215 Lancaster Ave.","city":"Frazer","state":"PA","zip":"19355","lat":"40.0410864293","lng":"-75.5408120155","ID":"5997","type":"cr","phone":"(484) 787-3905","url":"https:\/\/www.clubpilates.com\/frazer\/","comingSoon":"","openingSoon":"","dist":"","country":"US","npdevents":"","location_details":"Lincoln Court Shopping Center - Where the DMV is located.  We are located out front by Pet Value and Bamboo"},{"title":"Fremont","location":"yes","address":"44047 Osgood Rd., Ste. 220","city":"Fremont","state":"CA","zip":"94539","lat":"37.5106813","lng":"-121.9405552","ID":"6230","type":"cr","phone":"(510) 585-3136","url":"https:\/\/www.clubpilates.com\/fremont\/","comingSoon":"","openingSoon":"","dist":"","country":"US","npdevents":"","location_details":"No more information about this location."},{"title":"Frisco","location":"yes","address":"6959 Lebanon Rd., Suite 121","city":"Frisco","state":"TX","zip":"75034","lat":"33.1216796897","lng":"-96.8246260285","ID":"5553","type":"cr","phone":"(469) 701-1252","url":"https:\/\/www.clubpilates.com\/frisco\/","comingSoon":"","openingSoon":"","dist":"","country":"US","npdevents":"","location_details":"No more information about this location."},{"title":"Front Range Village","location":"yes","address":"2720 Council Tree Ave, Suite 106","city":"Fort Collins","state":"CO","zip":"80525","lat":"40.5257522","lng":"-105.026256019","ID":"7168","type":"cr","phone":"(970) 999-0150","url":"https:\/\/www.clubpilates.com\/frontrangevillage","comingSoon":"","openingSoon":"","dist":"","country":"US","npdevents":"","location_details":"Council Tree Shopping Center"},{"title":"Ft. Myers Central","location":"yes","address":"6891 Daniels Parkway, Suite #145","city":"Fort Myers","state":"FL","zip":"33912","lat":"26.5479748108","lng":"-81.8410563644","ID":"6694","type":"cr","phone":"(239) 603-7222","url":"https:\/\/www.clubpilates.com\/ftmyerscentral\/","comingSoon":"","openingSoon":"","dist":"","country":"US","npdevents":"","location_details":"No more information about this location."},{"title":"Ft. Lauderdale East","location":"yes","address":"3802 N. Federal Hwy.","city":"Fort Lauderdale","state":"FL","zip":"33308","lat":"26.1744245995","lng":"-80.1186249153","ID":"6675","type":"cr","phone":"(954) 237-3737","url":"https:\/\/www.clubpilates.com\/ftlauderdaleeast\/","comingSoon":"","openingSoon":"","dist":"","country":"US","npdevents":"","location_details":"No more information about this location."},{"title":"Ft. Myers West","location":"yes","address":"13211 McGregor Blvd, Unit 102-2","city":"Fort Myers","state":"FL","zip":"33919","lat":"26.5495495","lng":"-81.9122661","ID":"6585","type":"cr","phone":"(239) 603-7300","url":"https:\/\/www.clubpilates.com\/ftmyerswest\/","comingSoon":"","openingSoon":"","dist":"","country":"US","npdevents":"","location_details":"No more information about this location."},{"title":"Fullerton","location":"yes","address":"1313 S. Harbor Blvd","city":"Fullerton","state":"CA","zip":"92832","lat":"33.8586793645","lng":"-117.924881727","ID":"3653","type":"cr","phone":"(714) 519-3842","url":"https:\/\/www.clubpilates.com\/fullerton\/","comingSoon":"","openingSoon":"","dist":"","country":"US","npdevents":"","location_details":"Located off Orangethorpe and Harbor Blvd."},{"title":"Gainey Ranch","location":"yes","address":"8787 N. Scottsdale Rd., Ste. 232","city":"Scottsdale","state":"AZ","zip":"85253","lat":"33.5654830545","lng":"-111.924462318","ID":"5847","type":"cr","phone":"(480) 462-1299","url":"https:\/\/www.clubpilates.com\/gaineyranch\/","comingSoon":"","openingSoon":"","dist":"","country":"US","npdevents":"","location_details":"No more information about this location."},{"title":"Gainesville","location":"yes","address":"2625 SW 91st Street","city":"Gainesville","state":"FL","zip":"32608","lat":"29.62929","lng":"-82.43768","ID":"9145","type":"cr","phone":"(352) 559-3144","url":"http:\/\/www.clubpilates.com\/gainesville","comingSoon":"","openingSoon":"","dist":"","country":"US","npdevents":"","location_details":"Located in Publix Market Square in Haile Plantation"},{"title":"Garden City","location":"yes","address":"181 Seventh Street","city":"Garden City","state":"NY","zip":"11530","lat":"40.7254458","lng":"-73.6348133","ID":"9146","type":"cr","phone":"(516) 203-7377","url":"http:\/\/www.clubpilates.com\/gardencity","comingSoon":"","openingSoon":"","dist":"","country":"US","npdevents":"","location_details":"Next to Chico's and across from Starbucks"},{"title":"Germantown","location":"yes","address":"20944 Frederick Road, Suite 140","city":"Germantown","state":"MD","zip":"20876","lat":"39.2032545","lng":"-77.2468017","ID":"8173","type":"cr","phone":"(301) 539-2252","url":"https:\/\/www.clubpilates.com\/germantown","comingSoon":"","openingSoon":"","dist":"","country":"US","npdevents":"","location_details":"COMING SOON!"},{"title":"Gilbert","location":"yes","address":"3131 S. Market St., Suite 103","city":"Gilbert","state":"AZ","zip":"85295","lat":"33.2967629076","lng":"-111.748546958","ID":"5573","type":"cr","phone":"(480) 999-3825","url":"https:\/\/www.clubpilates.com\/gilbert\/","comingSoon":"","openingSoon":"","dist":"","country":"US","npdevents":"Fri. May 3rd @ 12pm- FREE Intro Class, Sat May 4th @ 11am  FREE Intro class, Sat @1pm FREE Intro Class.","location_details":"We are located off Market St. and Pecos. In the Costco Center next to Egg and Joe Restaurant."},{"title":"Glastonbury","location":"yes","address":"35 Welles St.","city":"Glastonbury","state":"CT","zip":"06033","lat":"41.7149872","lng":"-72.6067001","ID":"8490","type":"cr","phone":"(860) 815-2920","url":"https:\/\/www.clubpilates.com\/glastonbury","comingSoon":"","openingSoon":"","dist":"","country":"US","npdevents":"","location_details":"Coming soon to The Shoppes at Fox Run shopping center!"},{"title":"Glen Ellyn","location":"yes","address":"277 Roosevelt Rd.","city":"Glen Ellyn","state":"IL","zip":"60137","lat":"41.8586044208","lng":"-88.0793747306","ID":"5982","type":"cr","phone":"(630) 403-8058","url":"https:\/\/www.clubpilates.com\/glenellyn\/","comingSoon":"","openingSoon":"","dist":"","country":"US","npdevents":"Fri. May 3 @ 12:30pm \u2013 Free Intro Class\nFri. May 3 @ 7:30pm \u2013 Olive Oil & Wine Tasting","location_details":"Located near Wheaton on Roosevelt Road!"},{"title":"Glendale","location":"yes","address":"1354 E Colorado St., Ste A","city":"Glendale","state":"CA","zip":"91205","lat":"34.1425404099","lng":"-118.235472143","ID":"3426","type":"cr","phone":"(818) 724-9977","url":"https:\/\/www.clubpilates.com\/glendale","comingSoon":"","openingSoon":"","dist":"","country":"US","npdevents":"","location_details":"No more information about this location."},{"title":"Glenview","location":"yes","address":"1442 Waukegan Rd.","city":"Glenview","state":"IL","zip":"60025","lat":"42.081651","lng":"-87.79974","ID":"7077","type":"cr","phone":"(847) 920-8892","url":"https:\/\/www.clubpilates.com\/glenview","comingSoon":"","openingSoon":"","dist":"","country":"US","npdevents":"","location_details":"No more information about this location."},{"title":"Goodyear","location":"yes","address":"783 South Cotton Lane, Suite C-2","city":"Goodyear","state":"AZ","zip":"85338","lat":"33.4394467","lng":"-112.4238178","ID":"8795","type":"cr","phone":"(623) 562-3344","url":"http:\/\/www.clubpilates.com\/goodyear","comingSoon":"","openingSoon":"","dist":"","country":"US","npdevents":"","location_details":"No more information about this location."},{"title":"Gramercy*","location":"yes","address":"381 Second Avenue","city":"New York","state":"NY","zip":"10010","lat":"40.7374544","lng":"-73.9815705","ID":"8597","type":"cr","phone":"(212) 601-2667","url":"https:\/\/www.clubpilates.com\/gramercy","comingSoon":"","openingSoon":"","dist":"","country":"US","npdevents":"","location_details":"No more information about this location."},{"title":"Granada Hills","location":"yes","address":"18037 Chatsworth Street","city":"Granada Hills","state":"CA","zip":"91344","lat":"34.2658774114","lng":"-118.52619946","ID":"3265","type":"cr","phone":"(818) 210-3288","url":"https:\/\/www.clubpilates.com\/granadahills\/","comingSoon":"","openingSoon":"","dist":"","country":"US","npdevents":"","location_details":"No more information about this location."},{"title":"Grandview Yard","location":"yes","address":"1080 Yard St.","city":"Grandview Heights","state":"OH","zip":"43212","lat":"39.9805156","lng":"-83.0269394","ID":"7606","type":"cr","phone":"(614) 776-0282","url":"https:\/\/www.clubpilates.com\/GrandviewYard","comingSoon":"","openingSoon":"","dist":"","country":"US","npdevents":"Join us at Club Pilates Grandview Yard this weekend to celebrate Pilates Day!  All weekend long we will be offering 20% off the first three months of our memberships, 20% off retail, and will have some awesome health and wellness vendors onsite!  See you on the Reformer!","location_details":"Club Pilates Grandview Yard is located in the Manchester building within the Yard (one block South of Third Ave. on Yard St.), in between the Brekkie Shack and MySalon Suites!  Free, 2-hour parking is available on the first level of the garage attached to the back of the Manchester building - garage can be accessed from the North and South sides of the building."},{"title":"Granite Hills","location":"yes","address":"747 Jamacha Rd.","city":"El Cajon","state":"CA","zip":"92019","lat":"32.7866659803","lng":"-116.927199572","ID":"5713","type":"cr","phone":"(619) 329-1180","url":"https:\/\/www.clubpilates.com\/granitehills\/","comingSoon":"","openingSoon":"","dist":"","country":"US","npdevents":"","location_details":"No more information about this location."},{"title":"Great Bridge","location":"yes","address":"237 Hanbury Rd. East, Suite 12","city":"Chesapeake","state":"VA","zip":"23322","lat":"36.6860220035","lng":"-76.2244611815","ID":"6983","type":"cr","phone":"(757) 304-3101","url":"https:\/\/www.clubpilates.com\/greatbridge","comingSoon":"","openingSoon":"","dist":"","country":"US","npdevents":"","location_details":"Register NOW for your Complimentary Intro Class!  Space is Limited!"},{"title":"Green Valley","location":"yes","address":"4140 East Sunset Road","city":"Henderson","state":"NV","zip":"89014","lat":"36.071293528","lng":"-115.084136915","ID":"7322","type":"cr","phone":"(702) 852-2600","url":"https:\/\/www.clubpilates.com\/greenvalley","comingSoon":"","openingSoon":"","dist":"","country":"US","npdevents":"","location_details":"On the Northwest corner of Sunset Rd and Green Valley Parkway in the Green Valley neighborhood of Henderson, NV."},{"title":"Greenville","location":"yes","address":"2107-A Augusta St.","city":"Greenville","state":"SC","zip":"29605","lat":"34.8247207293","lng":"-82.3938828707","ID":"6559","type":"cr","phone":"(864) 236-7432","url":"https:\/\/www.clubpilates.com\/greenville\/","comingSoon":"","openingSoon":"","dist":"","country":"US","npdevents":"","location_details":"No more information about this location."},{"title":"Greenwood","location":"yes","address":"1675 West Smith Valley Rd., Ste. D4A","city":"Greenwood","state":"IN","zip":"46142","lat":"39.6045633583","lng":"-86.1564812625","ID":"7102","type":"cr","phone":"(317) 886-7153","url":"https:\/\/www.clubpilates.com\/greenwood","comingSoon":"","openingSoon":"","dist":"","country":"US","npdevents":"Fri. May 3 Free class @ 9, Free reflexology and member appreciation 3-7pm\nSat. May 4 Free class @ 12:30, 1:30, 2:30; Live music, Health, beauty vendors\nSun. May 5 Free class @ 2,3 & 4; Free reflexology 12:30-4:30","location_details":"Located in the Centre at Smith Valley Shopping Center on the Southeast corner at the intersction of State Road 135 and Smith Valley Road."},{"title":"Greenwood Village","location":"yes","address":"7600 Landmark Way, B 106","city":"Greenwood Village","state":"CO","zip":"80111","lat":"39.6173257722","lng":"-104.900186062","ID":"6129","type":"cr","phone":"(720) 546-2100","url":"https:\/\/www.clubpilates.com\/greenwoodvillage\/","comingSoon":"","openingSoon":"","dist":"","country":"US","npdevents":"","location_details":"No more information about this location."},{"title":"Hampton","location":"yes","address":"4655 William Flynn Highway, Suite 113","city":"Allison Park","state":"PA","zip":"15101","lat":"40.5917801652","lng":"-79.9491907442","ID":"7237","type":"cr","phone":"(412) 385-4482","url":"https:\/\/www.clubpilates.com\/hampton","comingSoon":"","openingSoon":"","dist":"","country":"US","npdevents":"","location_details":"Conveniently located in the Hampton Shoppes at the corner of Route 8 and Wildwood"},{"title":"Happy Valley","location":"yes","address":"12900 SE 162nd Ave., Ste. 101","city":"Happy Valley","state":"OR","zip":"97086","lat":"45.4290345","lng":"-122.4966194","ID":"6660","type":"cr","phone":"(971) 236-7634","url":"https:\/\/www.clubpilates.com\/happyvalley\/","comingSoon":"","openingSoon":"","dist":"","country":"US","npdevents":"","location_details":"No more information about this location."},{"title":"Hazel Dell","location":"yes","address":"7901 NE 6th Ave., Suite 109","city":"Vancouver","state":"WA","zip":"98665","lat":"45.6800355041","lng":"-122.665501983","ID":"6818","type":"cr","phone":"(360) 836-0264","url":"https:\/\/www.clubpilates.com\/hazeldell\/","comingSoon":"","openingSoon":"","dist":"","country":"US","npdevents":"","location_details":"No more information about this location."},{"title":"Henderson","location":"yes","address":"10525 S. Eastern Ave., Suite 140","city":"Henderson","state":"NV","zip":"89052","lat":"35.9991619409","lng":"-115.107457191","ID":"5508","type":"cr","phone":"(702) 907-2758","url":"https:\/\/www.clubpilates.com\/henderson\/","comingSoon":"","openingSoon":"","dist":"","country":"US","npdevents":"","location_details":"No more information about this location."},{"title":"Highland Park","location":"yes","address":"1849 Green Bay Rd., Ste. 109","city":"Highland Park","state":"IL","zip":"60035","lat":"42.1862510148","lng":"-87.8022113442","ID":"6006","type":"cr","phone":"(224) 707-0171","url":"https:\/\/www.clubpilates.com\/highlandpark\/","comingSoon":"","openingSoon":"","dist":"","country":"US","npdevents":"","location_details":"No more information about this location."},{"title":"Highland Village","location":"yes","address":"2540 Justin Rd., Ste. 177","city":"Highland Village","state":"TX","zip":"75077","lat":"33.0743086918","lng":"-97.0683771372","ID":"5678","type":"cr","phone":"(972) 597-4275","url":"https:\/\/www.clubpilates.com\/highlandvillage","comingSoon":"","openingSoon":"","dist":"","country":"US","npdevents":"","location_details":"No more information about this location."},{"title":"Hoboken","location":"yes","address":"1400 Hudson St., Ste. 3C","city":"Hoboken","state":"NJ","zip":"07030","lat":"40.7542020836","lng":"-74.0252459049","ID":"6203","type":"cr","phone":"(201) 839-6648","url":"https:\/\/www.clubpilates.com\/hoboken\/","comingSoon":"","openingSoon":"","dist":"","country":"US","npdevents":"","location_details":"Located on 15th St. between Washington and Hudson St."},{"title":"Holly Springs","location":"yes","address":"317 Matthews Drive","city":"Holly Springs","state":"NC","zip":"27540","lat":"35.6641208","lng":"-78.7943167","ID":"7883","type":"cr","phone":"(919) 355-9810","url":"https:\/\/www.clubpilates.com\/hollysprings","comingSoon":"","openingSoon":"","dist":"","country":"US","npdevents":"","location_details":"No more information about this location."},{"title":"Hollywood Beach","location":"yes","address":"3309 Sheridan St","city":"Hollywood","state":"FL","zip":"33021","lat":"26.0338403","lng":"-80.1759865","ID":"9189","type":"cr","phone":"(954) 505-4169","url":"http:\/\/www.clubpilates.com\/hollywoodbeach","comingSoon":"","openingSoon":"","dist":"","country":"US","npdevents":"","location_details":"No more information about this location."},{"title":"Highlands Ranch West","location":"yes","address":"2229 Wildcat Reserve Parkway","city":"Highlands Ranch","state":"CO","zip":"80129","lat":"39.5355733085","lng":"-105.015086532","ID":"3427","type":"cr","phone":"(720) 557-9606","url":"https:\/\/www.clubpilates.com\/hrwest","comingSoon":"","openingSoon":"","dist":"","country":"US","npdevents":"","location_details":"Located across from King Soopers"},{"title":"Hudson","location":"yes","address":"118 W Streetsboro St, Room 25","city":"Hudson","state":"OH","zip":"44236","lat":"41.2390331","lng":"-81.4463565","ID":"7193","type":"cr","phone":"(330) 475-7771","url":"https:\/\/www.clubpilates.com\/hudson","comingSoon":"","openingSoon":"","dist":"","country":"US","npdevents":"","location_details":"No more information about this location."},{"title":"Hunt Valley","location":"yes","address":"100 Shawan Rd., Ste. C, Hunt Valley Towne Centre","city":"Hunt Valley","state":"MD","zip":"21030","lat":"39.498603","lng":"-76.652172","ID":"6158","type":"cr","phone":"(443) 541-5505","url":"https:\/\/www.clubpilates.com\/huntvalley\/","comingSoon":"","openingSoon":"","dist":"","country":"US","npdevents":"","location_details":"No more information about this location."},{"title":"Huntersville","location":"yes","address":"9525 Birkdale Crossing Dr., Ste. 102","city":"Huntersville","state":"NC","zip":"28078","lat":"35.4427359629","lng":"-80.8858108521","ID":"6509","type":"cr","phone":"(704) 631-5600","url":"https:\/\/www.clubpilates.com\/huntersville\/","comingSoon":"","openingSoon":"","dist":"","country":"US","npdevents":"Fri, May 3 @ 11 am - Intro Class\nSat, May 4 @ 8:30 am - Intro Class\nSat, May 4 - @ 12:30 - 1:30 pm - Pilates on the Green, \nfree to the public. We will also have mimosas and \nhealthy snacks. Join us and receive \na free intro class during the week!","location_details":"Conveniently located on Birkdale Crossing Dr., across from Birkdale Village in the same plaza as the Hickory Tavern."},{"title":"Huntington Beach","location":"yes","address":"7012 Edinger, #103","city":"Huntington Beach","state":"CA","zip":"92647","lat":"33.7296310569","lng":"-118.006204963","ID":"3634","type":"cr","phone":"(714) 375-1400","url":"https:\/\/www.clubpilates.com\/huntingtonbeach","comingSoon":"","openingSoon":"","dist":"","country":"US","npdevents":"","location_details":"No more information about this location."},{"title":"Indian Lake","location":"yes","address":"217 Indian Lake Blvd., Ste. 1002","city":"Hendersonville","state":"TN","zip":"37075","lat":"36.322437705","lng":"-86.6005465102","ID":"5689","type":"cr","phone":"(615) 270-2470","url":"https:\/\/www.clubpilates.com\/indianlake","comingSoon":"","openingSoon":"","dist":"","country":"US","npdevents":"","location_details":"Conveniently located in the new Michaels \/ Marshalls \/ Juice Bar \/ Trendy Trunk shopping center in the heart of Indian Lake!"},{"title":"James Island","location":"yes","address":"1739 Maybank Hwy., Ste. L","city":"Charleston","state":"SC","zip":"29412","lat":"32.7615785094","lng":"-79.9763193727","ID":"6515","type":"cr","phone":"(843) 800-8986","url":"https:\/\/www.clubpilates.com\/jamesisland\/","comingSoon":"","openingSoon":"","dist":"","country":"US","npdevents":"","location_details":"No more information about this location."},{"title":"Jax Beach","location":"yes","address":"14035 Beach Blvd., Ste. 105","city":"Jacksonville","state":"FL","zip":"32224","lat":"30.2884213853","lng":"-81.4478451403","ID":"5781","type":"cr","phone":"(904) 475-2165","url":"https:\/\/www.clubpilates.com\/jaxbeach\/","comingSoon":"","openingSoon":"","dist":"","country":"US","npdevents":"","location_details":"No more information about this location."},{"title":"Jenks Landing","location":"yes","address":"11476 S. Union Ave, Ste. 102","city":"Jenks","state":"OK","zip":"74037","lat":"35.9934545072","lng":"-96.0126865429","ID":"6538","type":"cr","phone":"(918) 291-1420","url":"https:\/\/www.clubpilates.com\/jenkslanding\/","comingSoon":"","openingSoon":"","dist":"","country":"US","npdevents":"","location_details":"No more information about this location."},{"title":"Jordan Creek","location":"yes","address":"140 S Jordan Creek Parkway, Suite 140","city":"West Des Moines","state":"IA","zip":"50266","lat":"41.5691609","lng":"-93.8112862","ID":"7427","type":"cr","phone":"(515) 212-5252","url":"https:\/\/www.clubpilates.com\/jordancreek","comingSoon":"","openingSoon":"","dist":"","country":"US","npdevents":"","location_details":"No more information about this location."},{"title":"Juan Tabo","location":"yes","address":"11000 Montgomery Blvd. NE","city":"Albuquerque","state":"NM","zip":"87111","lat":"35.1298156774","lng":"-106.516831219","ID":"6294","type":"cr","phone":"(505) 395-9511","url":"https:\/\/www.clubpilates.com\/juantabo\/","comingSoon":"","openingSoon":"","dist":"","country":"US","npdevents":"","location_details":"No more information about this location."},{"title":"Katy","location":"yes","address":"10705 Spring Green Blvd., Ste. 200","city":"Katy","state":"TX","zip":"77494","lat":"29.7159940929","lng":"-95.815642029","ID":"3981","type":"cr","phone":"(832) 913-1847","url":"https:\/\/www.clubpilates.com\/katy\/","comingSoon":"","openingSoon":"","dist":"","country":"US","npdevents":"","location_details":"No more information about this location."},{"title":"Keller","location":"yes","address":"242 Rufe Snow Drive, Suite 160","city":"Keller","state":"TX","zip":"76248","lat":"32.9313605","lng":"-97.2305454","ID":"7588","type":"cr","phone":"(817) 668-0007","url":"https:\/\/www.clubpilates.com\/keller","comingSoon":"","openingSoon":"","dist":"","country":"US","npdevents":"","location_details":"No more information about this location."},{"title":"Kelowna","location":"yes","address":"1455 Harvey Avenue","city":"Kelowna","state":"BC","zip":"V1Y 6E9","lat":"49.8812782","lng":"-119.4676119","ID":"9276","type":"cr","phone":"(778) 946-0009","url":"http:\/\/clubpilates.com\/kelowna","comingSoon":"","openingSoon":"","dist":"","country":"CA","npdevents":"","location_details":"No more information about this location."},{"title":"Ken Caryl","location":"yes","address":"11757 West Ken Caryl Ave., Suite G","city":"Littleton","state":"CO","zip":"80127","lat":"39.5818241685","lng":"-105.131751895","ID":"3428","type":"cr","phone":"(720) 579-7285","url":"https:\/\/www.clubpilates.com\/kencaryl\/","comingSoon":"","openingSoon":"","dist":"","country":"US","npdevents":"","location_details":"No more information about this location."},{"title":"Kendall","location":"yes","address":"11774 SW 104th St","city":"Miami","state":"FL","zip":"33186","lat":"25.6708685","lng":"-80.3859302","ID":"6584","type":"cr","phone":"(786) 405-7079","url":"https:\/\/www.clubpilates.com\/kendall\/","comingSoon":"","openingSoon":"","dist":"","country":"US","npdevents":"","location_details":"No more information about this location."},{"title":"Kennett Square","location":"yes","address":"823 East Baltimore Pike","city":"Kennett Square","state":"PA","zip":"19348","lat":"39.8636071352","lng":"-75.6829021463","ID":"9364","type":"cr","phone":"(610) 624-3350","url":"http:\/\/www.clubpilates.com\/kennettsquare","comingSoon":"","openingSoon":"","dist":"","country":"US","npdevents":"","location_details":"Located in the Shoppes at Longwood Village"},{"title":"Kent","location":"yes","address":"124 4th Ave South, Ste 130","city":"Kent","state":"WA","zip":"98032","lat":"47.3811274287","lng":"-122.237145603","ID":"3216","type":"cr","phone":"(253) 277-8586","url":"https:\/\/www.clubpilates.com\/kent","comingSoon":"","openingSoon":"","dist":"","country":"US","npdevents":"","location_details":"No more information about this location."},{"title":"Kings Highway","location":"yes","address":"485 Kings Highway","city":"Brooklyn","state":"NY","zip":"11223","lat":"40.604439","lng":"-73.971552","ID":"6692","type":"cr","phone":"(718) 701-0109","url":"https:\/\/www.clubpilates.com\/kingshighway\/","comingSoon":"","openingSoon":"","dist":"","country":"US","npdevents":"","location_details":"No more information about this location."},{"title":"Kingwood","location":"yes","address":"730 Kingwood Drive","city":"Kingwood","state":"TX","zip":"77339","lat":"30.0496021","lng":"-95.2451581","ID":"6917","type":"cr","phone":"(832) 592-7953","url":"https:\/\/www.clubpilates.com\/kingwood","comingSoon":"","openingSoon":"","dist":"","country":"US","npdevents":"","location_details":"Same plaza as Carrabba's. Between Franchescas and Massage Envy."},{"title":"Kirkland","location":"yes","address":"213 Park Ln.","city":"Kirkland","state":"WA","zip":"98033","lat":"47.6761680346","lng":"-122.204171531","ID":"7058","type":"cr","phone":"(425) 588-8726","url":"https:\/\/www.clubpilates.com\/kirkland\/","comingSoon":"","openingSoon":"","dist":"","country":"US","npdevents":"","location_details":"No more information about this location."},{"title":"Kitsilano","location":"yes","address":"2682 West Broadway","city":"Vancouver","state":"BC","zip":"V6K 4K4","lat":"49.263866","lng":"-123.165905","ID":"7327","type":"cr","phone":"(604) 336-9676","url":"https:\/\/www.clubpilates.com\/Kitsilano","comingSoon":"","openingSoon":"","dist":"","country":"CA","npdevents":"","location_details":"We are so excited to bring Club Pilates to Vancouver. Follow us on Facebook and Instagram for special event announcements, retail sales and more :\nhttps:\/\/www.facebook.com\/clubpilateskitsilano\/"},{"title":"Klein","location":"yes","address":"7316 Louetta Road, #B302","city":"Spring","state":"TX","zip":"77379","lat":"30.0202819887","lng":"-95.5270978681","ID":"3769","type":"cr","phone":"(281) 607-2485","url":"https:\/\/www.clubpilates.com\/klein\/","comingSoon":"","openingSoon":"","dist":"","country":"US","npdevents":"May 4th - FREE Intro class at 12:00pm\n                  Muffins & Mimosas served after all classes!","location_details":"Located 3 doors down from Starbucks in the HEB Plaza on Louetta"},{"title":"La Canada Flintridge","location":"yes","address":"637 Foothill Blvd.","city":"La Ca\u00f1ada Flintridge","state":"CA","zip":"91011","lat":"34.2020827","lng":"-118.1924379","ID":"8278","type":"cr","phone":"(747) 334-2469","url":"https:\/\/www.clubpilates.com\/lcf","comingSoon":"","openingSoon":"","dist":"","country":"US","npdevents":"","location_details":"No more information about this location."},{"title":"La Grange","location":"yes","address":"18 W. Burlington Ave., First Floor West","city":"La Grange","state":"IL","zip":"60525","lat":"41.8155216602","lng":"-87.8705540299","ID":"6354","type":"cr","phone":"(708) 340-0080","url":"https:\/\/www.clubpilates.com\/lagrange\/","comingSoon":"","openingSoon":"","dist":"","country":"US","npdevents":"","location_details":"No more information about this location."},