"locator_domain","location_name","street_address","city","state","zip","country_code","store_number","phone","location_type","latitude","longitude","hours_of_operation","page_url"
"https://www.napaonline.com","<MISSING>","<MISSING>","<MISSING>","<MISSING>","<MISSING>","<MISSING>","<MISSING>","<MISSING>","<MISSING>","<MISSING>","<MISSING>","<MISSING>","https://www.napaonline.com/en/auto-parts-stores-near-me/az/ajo"
"https://www.napaonline.com","NAPA Auto Parts - Bisbee Auto Parts","782 W Highway 92","Bisbee","AZ","85603","US","39298","(520) 432-5312","<MISSING>","31.4033162","-109.9152532","Mon 7:00 AM - 5:30 PM, Tues 7:00 AM - 5:30 PM, Wed 7:00 AM - 5:30 PM, Thurs 7:00 AM - 5:30 PM, Fri 7:00 AM - 5:30 PM, Sat 8:00 AM - 4:30 PM, Sun Closed","https://www.napaonline.com/en/auto-parts-stores-near-me/az/bisbee"
"https://www.napaonline.com","NAPA Auto Parts - Vans Auto Parts","126 S 4th St","Buckeye","AZ","85326","US","<MISSING>","(623) 386-5616","AutoPartsStore","33.369526","-112.586066","Monday: 07:00:00-18:00:00Tuesday: 07:00:00-18:00:00Wednesday: 07:00:00-18:00:00Thursday: 07:00:00-18:00:00Friday: 07:00:00-18:00:00Saturday: 08:00:00-16:00:00Sunday: 00:00:00-00:00:00","https://www.napaonline.com/en/auto-parts-stores-near-me/az/buckeye"
"https://www.napaonline.com","NAPA Auto Parts - Day Auto Supply","2071 N Arizona Ave Suite 119","Chandler","AZ","85225","US","27113","(480) 963-6402","<MISSING>","33.337325942976165","-111.84023791473254","Mon 7:00 AM - 5:30 PM, Tues 7:00 AM - 5:30 PM, Wed 7:00 AM - 5:30 PM, Thurs 7:00 AM - 5:30 PM, Fri 7:00 AM - 5:30 PM, Sat 8:00 AM - 5:00 PM, Sun Closed","https://www.napaonline.com/en/auto-parts-stores-near-me/az/chandler"
"https://www.napaonline.com","NAPA Auto Parts - RKS Auto Parts","522 Finnie Flat Rd","Camp Verde","AZ","86322","US","23131","(928) 567-3356","<MISSING>","34.567107034040276","-111.86361451849935","Mon 7:30 AM - 5:30 PM, Tues 7:30 AM - 5:30 PM, Wed 7:30 AM - 5:30 PM, Thurs 7:30 AM - 5:30 PM, Fri 7:30 AM - 5:30 PM, Sat 7:30 AM - 3:00 PM, Sun Closed","https://www.napaonline.com/en/auto-parts-stores-near-me/az/camp-verde"
"https://www.napaonline.com","NAPA Auto Parts - Grand Canyon Auto Supply","1865 E Butler Ave","Flagstaff","AZ","86001","US","26763","(928) 774-2733","<MISSING>","35.1911729384","-111.629096120595","Mon 6:00 AM - 8:00 PM, Tues 6:00 AM - 8:00 PM, Wed 6:00 AM - 8:00 PM, Thurs 6:00 AM - 8:00 PM, Fri 6:00 AM - 8:00 PM, Sat 7:00 AM - 8:00 PM, Sun 8:00 AM - 5:00 PM","https://www.napaonline.com/en/auto-parts-stores-near-me/az/flagstaff"
"https://www.napaonline.com","NAPA Auto Parts - Day Auto Supply","1041 N Arizona Blvd","Coolidge","AZ","85128","US","26540","(520) 723-9551","<MISSING>","32.9874188","-111.5236188","Mon 7:00 AM - 6:00 PM, Tues 7:00 AM - 6:00 PM, Wed 7:00 AM - 6:00 PM, Thurs 7:00 AM - 6:00 PM, Fri 7:00 AM - 6:00 PM, Sat 8:00 AM - 5:00 PM, Sun Closed","https://www.napaonline.com/en/auto-parts-stores-near-me/az/coolidge"
"https://www.napaonline.com","NAPA Auto Parts - Mack's Auto Parts, Inc.","253 S Coronado Blvd","Clifton","AZ","85533","US","40132","(928) 865-3333","<MISSING>","33.04790046559318","-109.29440877253643","Mon 8:00 AM - 5:00 PM, Tues 8:00 AM - 5:00 PM, Wed 8:00 AM - 5:00 PM, Thurs 8:00 AM - 5:00 PM, Fri 8:00 AM - 5:00 PM, Sat Closed Sun Closed","https://www.napaonline.com/en/auto-parts-stores-near-me/az/clifton"
"https://www.napaonline.com","NAPA Auto Parts - First Call Automotive & Industrial Supply","393 Alden Road","Kearny","AZ","85137","US","31259","(520) 363-5557","<MISSING>","33.0601735662661","-110.907130613923","Mon 8:00 AM - 5:00 PM, Tues 8:00 AM - 5:00 PM, Wed 8:00 AM - 5:00 PM, Thurs 8:00 AM - 5:00 PM, Fri 8:00 AM - 5:00 PM, Sat 9:00 AM - 1:30 PM, Sun Closed","https://www.napaonline.com/en/auto-parts-stores-near-me/az/kearny"
"https://www.napaonline.com","NAPA Auto Parts - Gilbert - 1022 N Gilbert Rd","1022 N Gilbert Rd","Gilbert","AZ","85234","US","26451","(480) 892-9866","<MISSING>","33.3684773414963","-111.790471896529","Mon 7:00 AM - 7:00 PM, Tues 7:00 AM - 7:00 PM, Wed 7:00 AM - 7:00 PM, Thurs 7:00 AM - 7:00 PM, Fri 7:00 AM - 7:00 PM, Sat 8:00 AM - 5:00 PM, Sun 9:00 AM - 5:00 PM","https://www.napaonline.com/en/auto-parts-stores-near-me/az/gilbert"
"https://www.napaonline.com","NAPA Auto Parts - Mohave Auto Parts","2545 E Andy Devine Ave","Kingman","AZ","86401","US","24379","(928) 753-2188","<MISSING>","35.2076134034657","-114.019932746887","Mon 7:00 AM - 6:00 PM, Tues 7:00 AM - 6:00 PM, Wed 7:00 AM - 6:00 PM, Thurs 7:00 AM - 6:00 PM, Fri 7:00 AM - 6:00 PM, Sat 8:00 AM - 5:00 PM, Sun 9:00 AM - 2:00 PM","https://www.napaonline.com/en/auto-parts-stores-near-me/az/kingman"
"https://www.napaonline.com","NAPA Auto Parts - Vans Auto Parts, Inc.","619 W Pima","Gila Bend","AZ","85337","US","21655","(928) 683-9990","<MISSING>","32.9448174066832","-112.72668287158","Mon 7:00 AM - 6:00 PM, Tues 7:00 AM - 6:00 PM, Wed 7:00 AM - 6:00 PM, Thurs 7:00 AM - 6:00 PM, Fri 7:00 AM - 6:00 PM, Sat 7:00 AM - 4:00 PM, Sun Closed","https://www.napaonline.com/en/auto-parts-stores-near-me/az/gila-bend"
"https://www.napaonline.com","NAPA Auto Parts - Auto Parts of Benson","693 E 4th St","Benson","AZ","85602","US","23305","(520) 586-2272","<MISSING>","31.966729066005783","-110.28785069080735","Mon 7:30 AM - 5:30 PM, Tues 7:30 AM - 5:30 PM, Wed 7:30 AM - 5:30 PM, Thurs 7:30 AM - 5:30 PM, Fri 7:30 AM - 5:30 PM, Sat 8:00 AM - 3:30 PM, Sun Closed","https://www.napaonline.com/en/auto-parts-stores-near-me/az/benson"
"https://www.napaonline.com","NAPA Auto Parts - Automotive Supply Co","217 E 2nd St","Casa Grande","AZ","85122","US","24721","(520) 836-7487","<MISSING>","32.8761474550235","-111.752272546291","Mon 7:00 AM - 5:30 PM, Tues 7:00 AM - 5:30 PM, Wed 7:00 AM - 5:30 PM, Thurs 7:00 AM - 5:30 PM, Fri 7:00 AM - 5:30 PM, Sat 8:00 AM - 2:00 PM, Sun Closed","https://www.napaonline.com/en/auto-parts-stores-near-me/az/casa-grande"
"https://www.napaonline.com","NAPA Auto Parts - Valley Auto Parts","451 S Sunshine Blvd","Eloy","AZ","85131","US","21434","(520) 466-9231","<MISSING>","32.7424584224979","-111.550111770629","Mon 8:00 AM - 5:00 PM, Tues 8:00 AM - 5:00 PM, Wed 8:00 AM - 5:00 PM, Thurs 8:00 AM - 5:00 PM, Fri 8:00 AM - 5:00 PM, Sat 8:00 AM - 1:00 PM, Sun Closed","https://www.napaonline.com/en/auto-parts-stores-near-me/az/eloy"
"https://www.napaonline.com","NAPA Auto Parts - RKS Auto Parts","420 S Main St","Cottonwood","AZ","86326","US","23219","(928) 634-4213","<MISSING>","34.7313695938848","-112.010385764115","Mon 7:00 AM - 6:00 PM, Tues 7:00 AM - 6:00 PM, Wed 7:00 AM - 6:00 PM, Thurs 7:00 AM - 6:00 PM, Fri 7:00 AM - 6:00 PM, Sat 8:00 AM - 4:00 PM, Sun Closed","https://www.napaonline.com/en/auto-parts-stores-near-me/az/cottonwood"
"https://www.napaonline.com","NAPA Auto Parts - El Mirage NAPA","12555 NW Grand Ave","El Mirage","AZ","85335","US","<MISSING>","(623) 583-0888","AutoPartsStore","33.623053","-112.331257","Monday: 07:00:00-19:00:00Tuesday: 07:00:00-19:00:00Wednesday: 07:00:00-19:00:00Thursday: 07:00:00-19:00:00Friday: 07:00:00-19:00:00Saturday: 08:00:00-17:00:00Sunday: 08:00:00-16:00:00","https://www.napaonline.com/en/auto-parts-stores-near-me/az/el-mirage"
"https://www.napaonline.com","NAPA Auto Parts - L & L Auto","SE Corner Hwy160&163","Kayenta","AZ","86033","US","35907","(928) 697-3040","<MISSING>","36.72741995354434","-110.254971855701","Mon 9:00 AM - 6:00 PM, Tues 9:00 AM - 6:00 PM, Wed 9:00 AM - 6:00 PM, Thurs 9:00 AM - 6:00 PM, Fri 9:00 AM - 6:00 PM, Sat 9:00 AM - 1:00 PM, Sun Closed","https://www.napaonline.com/en/auto-parts-stores-near-me/az/kayenta"
"https://www.napaonline.com","NAPA Auto Parts - Florence Auto Supply","440 S Main St","Florence","AZ","85132","US","23526","(520) 868-5839","<MISSING>","33.0277431024618","-111.387896463274","Mon 7:00 AM - 5:30 PM, Tues 7:00 AM - 5:30 PM, Wed 7:00 AM - 5:30 PM, Thurs 7:00 AM - 5:30 PM, Fri 7:00 AM - 5:30 PM, Sat 8:00 AM - 2:00 PM, Sun Closed","https://www.napaonline.com/en/auto-parts-stores-near-me/az/florence"
"https://www.napaonline.com","NAPA Auto Parts - County Motor Parts","1990 McCulloch Blvd N suite 104","Lake Havasu City","AZ","86403","US","39145","(928) 208-4090","<MISSING>","34.475998","-114.333432","Mon 7:00 AM - 6:00 PM, Tues 7:00 AM - 6:00 PM, Wed 7:00 AM - 6:00 PM, Thurs 7:00 AM - 6:00 PM, Fri 7:00 AM - 6:00 PM, Sat 8:00 AM - 4:00 PM, Sun Closed","https://www.napaonline.com/en/auto-parts-stores-near-me/az/lake-havasu-city"
"https://www.napaonline.com","NAPA Auto Parts - Green Valley Marana Auto Supply","13750 N Sandario Rd","Marana","AZ","85653","US","22062","(520) 682-3031","<MISSING>","32.4561011","-111.2166174","Mon 7:30 AM - 6:00 PM, Tues 7:30 AM - 6:00 PM, Wed 7:30 AM - 6:00 PM, Thurs 7:30 AM - 6:00 PM, Fri 7:30 AM - 6:00 PM, Sat 8:00 AM - 5:00 PM, Sun Closed","https://www.napaonline.com/en/auto-parts-stores-near-me/az/marana"
"https://www.napaonline.com","NAPA Auto Parts - Nogales - 340 N Grand Ave","340 N Grand Ave","Nogales","AZ","85621","US","23692","(520) 761-1602","<MISSING>","31.338367276069338","-110.9388082514879","Mon 8:00 AM - 7:00 PM, Tues 8:00 AM - 7:00 PM, Wed 8:00 AM - 7:00 PM, Thurs 8:00 AM - 7:00 PM, Fri 8:00 AM - 7:00 PM, Sat 8:00 AM - 3:00 PM, Sun Closed","https://www.napaonline.com/en/auto-parts-stores-near-me/az/nogales"
"https://www.napaonline.com","NAPA Auto Parts - Mack's Auto Parts","106 Plaza Loop, Ste 5","Morenci","AZ","85540","US","<MISSING>","(928) 865-3720","AutoPartsStore","33.051549","-109.325461","Monday: 08:00:00-17:30:00Tuesday: 08:00:00-17:30:00Wednesday: 08:00:00-17:30:00Thursday: 08:00:00-17:30:00Friday: 08:00:00-17:30:00Saturday: 09:00:00-14:00:00Sunday: 00:00:00-00:00:00","https://www.napaonline.com/en/auto-parts-stores-near-me/az/morenci"
"https://www.napaonline.com","NAPA Auto Parts - Automotive Care Center of Overgaard","2828 Hwy 260","Overgaard","AZ","85933","US","39391","(928) 535-4898","<MISSING>","34.4043189965376","-110.565853938569","Mon 8:00 AM - 5:00 PM, Tues 8:00 AM - 5:00 PM, Wed 8:00 AM - 5:00 PM, Thurs 8:00 AM - 5:00 PM, Fri 8:00 AM - 5:00 PM, Sat 8:00 AM - 5:00 PM, Sun 10:00 AM - 2:00 PM","https://www.napaonline.com/en/auto-parts-stores-near-me/az/overgaard"
"https://www.napaonline.com","NAPA Auto Parts - Lake Powell Automotive Supply Inc","837 Vista Ave","Page","AZ","86040","US","23717","(928) 645-5596","<MISSING>","36.921798","-111.4608515","Mon 8:00 AM - 6:00 PM, Tues 8:00 AM - 6:00 PM, Wed 8:00 AM - 6:00 PM, Thurs 8:00 AM - 6:00 PM, Fri 8:00 AM - 6:00 PM, Sat 8:00 AM - 4:00 PM, Sun 9:00 AM - 3:00 PM","https://www.napaonline.com/en/auto-parts-stores-near-me/az/page"
"https://www.napaonline.com","NAPA Auto Parts - County Motor Parts","1300 S California Ave","Parker","AZ","85344","US","<MISSING>","(928) 669-6300","AutoPartsStore","34.147082","-114.287597","Monday: 07:00:00-18:00:00Tuesday: 07:00:00-18:00:00Wednesday: 07:00:00-18:00:00Thursday: 07:00:00-18:00:00Friday: 07:00:00-18:00:00Saturday: 08:00:00-16:00:00Sunday: 00:00:00-00:00:00","https://www.napaonline.com/en/auto-parts-stores-near-me/az/parker"
"https://www.napaonline.com","NAPA Auto Parts - RKS Auto Parts","513 E Granite Dells Rd","Payson","AZ","85541","US","20892","(928) 474-5221","<MISSING>","34.2399253","-111.3152847","Mon 8:00 AM - 5:30 PM, Tues 8:00 AM - 5:30 PM, Wed 8:00 AM - 5:30 PM, Thurs 8:00 AM - 5:30 PM, Fri 8:00 AM - 5:30 PM, Sat 7:30 AM - 4:00 PM, Sun Closed","https://www.napaonline.com/en/auto-parts-stores-near-me/az/payson"
"https://www.napaonline.com","NAPA Auto Parts - Peoria - 9786 W Peoria Ave","9786 W Peoria Ave","Peoria","AZ","85345","US","21897","(623) 979-3363","<MISSING>","33.58134045078419","-112.2706613928724","Mon 7:00 AM - 6:00 PM, Tues 7:00 AM - 6:00 PM, Wed 7:00 AM - 6:00 PM, Thurs 7:00 AM - 6:00 PM, Fri 7:00 AM - 6:00 PM, Sat 8:00 AM - 5:00 PM, Sun Closed","https://www.napaonline.com/en/auto-parts-stores-near-me/az/peoria"
"https://www.napaonline.com","NAPA Auto Parts - R & R Auto & Truck Parts, Inc.","533 Madison Ave","Prescott","AZ","86301","US","27656","(928) 445-2240","<MISSING>","34.5474968772235","-112.4759298563","Mon 7:00 AM - 6:00 PM, Tues 7:00 AM - 6:00 PM, Wed 7:00 AM - 6:00 PM, Thurs 7:00 AM - 6:00 PM, Fri 7:00 AM - 6:00 PM, Sat 8:00 AM - 5:00 PM, Sun 9:00 AM - 3:00 PM","https://www.napaonline.com/en/auto-parts-stores-near-me/az/prescott"
"https://www.napaonline.com","NAPA Auto Parts - R & R Auto & Truck Parts Inc","7563 E Hwy 69 Suite A","Prescott Valley","AZ","86314","US","<MISSING>","(928) 772-9455","AutoPartsStore","34.61127","-112.32443","Monday: 07:00:00-19:00:00Tuesday: 07:00:00-19:00:00Wednesday: 07:00:00-19:00:00Thursday: 07:00:00-19:00:00Friday: 07:00:00-19:00:00Saturday: 08:00:00-17:00:00Sunday: 09:00:00-16:00:00","https://www.napaonline.com/en/auto-parts-stores-near-me/az/prescott-valley"
"https://www.napaonline.com","NAPA Auto Parts - Mack's Auto Parts, Inc.","1575 W Highway 70","Safford","AZ","85546","US","24157","(928) 428-3873","<MISSING>","32.834255","-109.727286","Mon 6:30 AM - 6:00 PM, Tues 6:30 AM - 6:00 PM, Wed 6:30 AM - 6:00 PM, Thurs 6:30 AM - 6:00 PM, Fri 6:30 AM - 6:00 PM, Sat 7:00 AM - 5:00 PM, Sun 8:00 AM - 5:00 PM","https://www.napaonline.com/en/auto-parts-stores-near-me/az/safford"
"https://www.napaonline.com","<MISSING>","<MISSING>","<MISSING>","<MISSING>","<MISSING>","<MISSING>","<MISSING>","<MISSING>","<MISSING>","<MISSING>","<MISSING>","<MISSING>","https://www.napaonline.com/en/auto-parts-stores-near-me/az/queen-creek"
"https://www.napaonline.com","NAPA Auto Parts - Growers Oil Co","66253 Hwy 60","Salome","AZ","85348","US","28503","(928) 859-3405","<MISSING>","33.77923","-113.618999","Mon 8:00 AM - 5:00 PM, Tues 8:00 AM - 5:00 PM, Wed 8:00 AM - 5:00 PM, Thurs 8:00 AM - 5:00 PM, Fri 8:00 AM - 5:00 PM, Sat 8:00 AM - 3:00 PM, Sun Closed","https://www.napaonline.com/en/auto-parts-stores-near-me/az/salome"
"https://www.napaonline.com","NAPA Auto Parts - White Mountain Auto Supply","330 W Deuce Of Clubs","Show Low","AZ","85901","US","28006","(928) 537-4317","<MISSING>","34.2488516776486","-110.046698749065","Mon 7:00 AM - 6:00 PM, Tues 7:00 AM - 6:00 PM, Wed 7:00 AM - 6:00 PM, Thurs 7:00 AM - 6:00 PM, Fri 7:00 AM - 6:00 PM, Sat 8:00 AM - 5:00 PM, Sun 9:00 AM - 4:00 PM","https://www.napaonline.com/en/auto-parts-stores-near-me/az/show-low"
"https://www.napaonline.com","NAPA Auto Parts - Sierra Vista","4880 E Mediterranean Dr","Sierra Vista","AZ","85635","US","27255","(520) 458-1713","<MISSING>","31.5551428636096","-110.246865302324","Mon 7:30 AM - 5:30 PM, Tues 7:30 AM - 5:30 PM, Wed 7:30 AM - 5:30 PM, Thurs 7:30 AM - 5:30 PM, Fri 7:30 AM - 5:30 PM, Sat 8:00 AM - 4:00 PM, Sun Closed","https://www.napaonline.com/en/auto-parts-stores-near-me/az/sierra-vista"
"https://www.napaonline.com","NAPA Auto Parts - Northend Auto Parts Inc (LA-180)","102 Congress Street","Somerton","AZ","85350","US","26296","(928) 627-2013","<MISSING>","32.5963915","-114.7160222","Mon 7:00 AM - 6:00 PM, Tues 7:00 AM - 6:00 PM, Wed 7:00 AM - 6:00 PM, Thurs 7:00 AM - 6:00 PM, Fri 7:00 AM - 6:00 PM, Sat 7:00 AM - 2:00 PM, Sun Closed","https://www.napaonline.com/en/auto-parts-stores-near-me/az/somerton"
"https://www.napaonline.com","NAPA Auto Parts - White Mountain Auto Supply","821 S Main St","Snowflake","AZ","85937","US","20692","(928) 536-4251","<MISSING>","34.4981491578894","-110.07850861226848","Mon 7:00 AM - 6:00 PM, Tues 7:00 AM - 6:00 PM, Wed 7:00 AM - 6:00 PM, Thurs 7:00 AM - 6:00 PM, Fri 7:00 AM - 6:00 PM, Sat 8:00 AM - 5:00 PM, Sun 9:00 AM - 4:00 PM","https://www.napaonline.com/en/auto-parts-stores-near-me/az/snowflake"
"https://www.napaonline.com","NAPA Auto Parts - Mel's Auto L L C","36650 N Hwy 84","Stanfield","AZ","85172","US","20990","(520) 424-3321","<MISSING>","32.8798146808172","-111.961400359869","Mon 6:30 AM - 6:00 PM, Tues 6:30 AM - 6:00 PM, Wed 6:30 AM - 6:00 PM, Thurs 6:30 AM - 6:00 PM, Fri 6:30 AM - 6:00 PM, Sat 6:30 AM - 5:00 PM, Sun 9:00 AM - 5:00 PM","https://www.napaonline.com/en/auto-parts-stores-near-me/az/stanfield"
"https://www.napaonline.com","NAPA Auto Parts - White Mountain Auto Supply","98 S Mountain Ave","Springerville","AZ","85938","US","27956","(928) 333-2688","<MISSING>","34.1328277288843","-109.285560250282","Mon 7:30 AM - 5:30 PM, Tues 7:30 AM - 5:30 PM, Wed 7:30 AM - 5:30 PM, Thurs 7:30 AM - 5:30 PM, Fri 7:30 AM - 5:30 PM, Sat 8:00 AM - 4:00 PM, Sun 9:00 AM - 4:00 PM","https://www.napaonline.com/en/auto-parts-stores-near-me/az/springerville"
"https://www.napaonline.com","NAPA Auto Parts - Vans Auto Parts","9897 W McDowell Rd","Tolleson","AZ","85353","US","801837","(623) 440-6854","<MISSING>","33.4634094","-112.2705383","Mon 7:30 AM - 7:00 PM, Tues 7:30 AM - 7:00 PM, Wed 7:30 AM - 7:00 PM, Thurs 7:30 AM - 7:00 PM, Fri 7:30 AM - 7:00 PM, Sat 8:00 AM - 5:00 PM, Sun 9:00 AM - 3:00 PM","https://www.napaonline.com/en/auto-parts-stores-near-me/az/tolleson"
"https://www.napaonline.com","NAPA Auto Parts - Northend Auto Parts Inc (LA-176)","28642 Los Angeles Street","Wellton","AZ","85356","US","26834","(928) 785-4602","<MISSING>","32.6729206742048","-114.147774204611","Mon 7:00 AM - 5:00 PM, Tues 7:00 AM - 5:00 PM, Wed 7:00 AM - 5:00 PM, Thurs 7:00 AM - 5:00 PM, Fri 7:00 AM - 5:00 PM, Sat 7:00 AM - 1:00 PM, Sun Closed","https://www.napaonline.com/en/auto-parts-stores-near-me/az/wellton"
"https://www.napaonline.com","NAPA Auto Parts - Van's Auto Parts","457 W Wickenburg Way","Wickenburg","AZ","85390","US","22279","(928) 684-2861","<MISSING>","33.9655950274937","-112.736645936965","Mon 7:00 AM - 6:00 PM, Tues 7:00 AM - 6:00 PM, Wed 7:00 AM - 6:00 PM, Thurs 7:00 AM - 6:00 PM, Fri 7:00 AM - 6:00 PM, Sat 8:00 AM - 4:00 PM, Sun 8:00 AM - 2:00 PM","https://www.napaonline.com/en/auto-parts-stores-near-me/az/wickenburg"
"https://www.napaonline.com","NAPA Auto Parts - Mack's Auto Parts","908 W Rex Allen Dr","Willcox","AZ","85643","US","39297","(520) 384-2208","<MISSING>","32.26352838573501","-109.83823333053505","Mon 6:30 AM - 6:30 PM, Tues 6:30 AM - 6:30 PM, Wed 6:30 AM - 6:30 PM, Thurs 6:30 AM - 6:30 PM, Fri 6:30 AM - 6:30 PM, Sat 7:00 AM - 5:00 PM, Sun 7:00 AM - 4:00 PM","https://www.napaonline.com/en/auto-parts-stores-near-me/az/willcox"
"https://www.napaonline.com","NAPA Auto Parts - Northend Auto Parts Inc (LA-177)","1091 S 4th Ave","Yuma","AZ","85364","US","26987","(928) 782-4721","<MISSING>","32.7082064","-114.6238693","Mon 7:00 AM - 7:00 PM, Tues 7:00 AM - 7:00 PM, Wed 7:00 AM - 7:00 PM, Thurs 7:00 AM - 7:00 PM, Fri 7:00 AM - 7:00 PM, Sat 7:00 AM - 7:00 PM, Sun 8:00 AM - 5:00 PM","https://www.napaonline.com/en/auto-parts-stores-near-me/az/yuma"
"https://www.napaonline.com","NAPA Auto Parts - Grand Canyon Auto Parts","1507 N Park Dr","Winslow","AZ","86047","US","26139","(928) 289-2043","<MISSING>","35.0356605110762","-110.698989853262","Mon 7:30 AM - 7:30 PM, Tues 7:30 AM - 7:30 PM, Wed 7:30 AM - 7:30 PM, Thurs 7:30 AM - 7:30 PM, Fri 7:30 AM - 7:30 PM, Sat 8:00 AM - 6:00 PM, Sun 9:00 AM - 4:00 PM","https://www.napaonline.com/en/auto-parts-stores-near-me/az/winslow"
"https://www.napaonline.com","NAPA Auto Parts - First Call Automotive & Industrial Supply","2204 W Apache Trail","Apache Junction","AZ","85120","US","23264","(480) 986-7800","<MISSING>","33.4159","-111.57016","Mon 7:00 AM - 6:00 PM, Tues 7:00 AM - 6:00 PM, Wed 7:00 AM - 6:00 PM, Thurs 7:00 AM - 6:00 PM, Fri 7:00 AM - 6:00 PM, Sat 8:00 AM - 4:00 PM, Sun 10:00 AM - 2:00 PM","https://www.napaonline.com/en/auto-parts-stores-near-me/az/apache-junction"
"https://www.napaonline.com","NAPA Auto Parts - Trimble's Auto Parts","106 N Main St","Adairville","KY","42202","US","25000","(270) 539-5871","<MISSING>","36.6679563637469","-86.851982474327","Mon 7:00 AM - 5:00 PM, Tues 7:00 AM - 5:00 PM, Wed 7:00 AM - 5:00 PM, Thurs 7:00 AM - 5:00 PM, Fri 7:00 AM - 5:00 PM, Sat 7:00 AM - 3:00 PM, Sun Closed","https://www.napaonline.com/en/auto-parts-stores-near-me/ky/adairville"
"https://www.napaonline.com","NAPA Auto Parts - South Glendale","6020 W Myrtle Ave","Glendale","AZ","85301","US","27643","(623) 939-8383","<MISSING>","33.542394417238","-112.189572528004","Mon 7:00 AM - 7:00 PM, Tues 7:00 AM - 7:00 PM, Wed 7:00 AM - 7:00 PM, Thurs 7:00 AM - 7:00 PM, Fri 7:00 AM - 7:00 PM, Sat 8:00 AM - 5:00 PM, Sun 8:00 AM - 4:00 PM","https://www.napaonline.com/stores/az/glendale/6020-w-myrtle-ave?sdref=footer"
"https://www.napaonline.com","NAPA Auto Parts - Glendale - 16680 N 51st Ave","16680 N 51st Ave","Glendale","AZ","85306","US","35848","(602) 993-5700","<MISSING>","33.635971703290835","-112.1693915689923","Mon 7:00 AM - 7:00 PM, Tues 7:00 AM - 7:00 PM, Wed 7:00 AM - 7:00 PM, Thurs 7:00 AM - 7:00 PM, Fri 7:00 AM - 7:00 PM, Sat 8:00 AM - 5:00 PM, Sun 8:00 AM - 4:00 PM","https://www.napaonline.com/stores/az/glendale/16680-n-51st-ave?sdref=footer"
"https://www.napaonline.com","NAPA Auto Parts - Byles Auto Parts","2257 Greenup Ave","Ashland","KY","41101","US","27111","(606) 324-6127","<MISSING>","38.4755699336577","-82.6301251351833","Mon 7:00 AM - 6:00 PM, Tues 7:00 AM - 6:00 PM, Wed 7:00 AM - 6:00 PM, Thurs 7:00 AM - 6:00 PM, Fri 7:00 AM - 6:00 PM, Sat 7:00 AM - 5:00 PM, Sun Closed","https://www.napaonline.com/en/auto-parts-stores-near-me/ky/ashland"
"https://www.napaonline.com","NAPA Auto Parts - Alexandria Auto Parts","207 Washington St","Alexandria","KY","41001","US","31427","(859) 694-6272","<MISSING>","38.9615204949989","-84.3898943066596","Mon 8:00 AM - 6:00 PM, Tues 8:00 AM - 6:00 PM, Wed 8:00 AM - 6:00 PM, Thurs 8:00 AM - 6:00 PM, Fri 8:00 AM - 6:00 PM, Sat 8:00 AM - 3:00 PM, Sun 10:00 AM - 2:00 PM","https://www.napaonline.com/en/auto-parts-stores-near-me/ky/alexandria"
"https://www.napaonline.com","NAPA Auto Parts - Epp's Auto Parts","403 Cumberland Ave","Barbourville","KY","40906","US","39719","(606) 546-8932","<MISSING>","36.8621328082207","-83.87981001154","Mon 8:00 AM - 6:00 PM, Tues 8:00 AM - 6:00 PM, Wed 8:00 AM - 6:00 PM, Thurs 8:00 AM - 6:00 PM, Fri 8:00 AM - 6:00 PM, Sat 8:00 AM - 4:00 PM, Sun 8:00 AM - 3:00 PM","https://www.napaonline.com/en/auto-parts-stores-near-me/ky/barbourville"
"https://www.napaonline.com","NAPA Auto Parts - Auto Parts Express Inc","230 6th Avenue","Bowling Green","KY","42101","US","24558","(270) 843-4384","<MISSING>","36.9979691881167","-86.4387117141268","Mon 7:30 AM - 5:30 PM, Tues 7:30 AM - 5:30 PM, Wed 7:30 AM - 5:30 PM, Thurs 7:30 AM - 5:30 PM, Fri 7:30 AM - 5:30 PM, Sat 7:30 AM - 2:00 PM, Sun Closed","https://www.napaonline.com/en/auto-parts-stores-near-me/ky/bowling-green"
"https://www.napaonline.com","NAPA Auto Parts - Genuine Parts Company","6827 E Main St","Mesa","AZ","85207","US","<MISSING>","(480) 294-6999","AutoPartsStore","33.4139","-111.68347","Monday: 07:00:00-18:00:00Tuesday: 07:00:00-18:00:00Wednesday: 07:00:00-18:00:00Thursday: 07:00:00-18:00:00Friday: 07:00:00-18:00:00Saturday: 08:00:00-17:00:00Sunday: 08:00:00-16:00:00","https://www.napaonline.com/en/az/mesa/store/31765?sdref=footer"
"https://www.napaonline.com","NAPA Auto Parts - Mesa - 2330 W Broadway Rd","2330 W Broadway Rd","Mesa","AZ","85202","US","31665","(480) 281-0140","<MISSING>","33.408144","-111.881573","Mon 7:00 AM - 7:00 PM, Tues 7:00 AM - 7:00 PM, Wed 7:00 AM - 7:00 PM, Thurs 7:00 AM - 7:00 PM, Fri 7:00 AM - 7:00 PM, Sat 8:00 AM - 5:00 PM, Sun 8:00 AM - 4:00 PM","https://www.napaonline.com/stores/az/mesa/2330-w-broadway-rd?sdref=footer"
"https://www.napaonline.com","NAPA Auto Parts - Smith Auto Supply LLC","716 High St","Brandenburg","KY","40108","US","39591","(270) 422-2127","<MISSING>","37.999353","-86.1741516736107","Mon 8:00 AM - 6:00 PM, Tues 8:00 AM - 6:00 PM, Wed 8:00 AM - 6:00 PM, Thurs 8:00 AM - 6:00 PM, Fri 8:00 AM - 6:00 PM, Sat 8:00 AM - 3:00 PM, Sun Closed","https://www.napaonline.com/en/auto-parts-stores-near-me/ky/brandenburg"
"https://www.napaonline.com","NAPA Auto Parts - Green River Auto Parts","680 Main St","Calhoun","KY","42327","US","39754","(270) 273-5271","<MISSING>","37.5419912108704","-87.2582412890915","Mon 7:00 AM - 5:00 PM, Tues 7:00 AM - 5:00 PM, Wed 7:00 AM - 5:00 PM, Thurs 7:00 AM - 5:00 PM, Fri 7:00 AM - 5:00 PM, Sat 7:00 AM - 12:00 PM, Sun Closed","https://www.napaonline.com/en/auto-parts-stores-near-me/ky/calhoun"
"https://www.napaonline.com","NAPA Auto Parts - BURKESVILLE AUTO PARTS","225 Keen St","Burkesville","KY","42717","US","<MISSING>","(270) 864-5986","AutoPartsStore","36.782779","-85.372678","Monday: 07:00:00-17:00:00Tuesday: 07:00:00-17:00:00Wednesday: 07:00:00-17:00:00Thursday: 07:00:00-17:00:00Friday: 07:00:00-17:00:00Saturday: 07:00:00-15:00:00Sunday: 00:00:00-00:00:00","https://www.napaonline.com/en/auto-parts-stores-near-me/ky/burkesville"
"https://www.napaonline.com","NAPA Auto Parts - Campbellsville Auto Parts","1050 New Columbia Rd","Campbellsville","KY","42718","US","27475","(270) 465-5671","<MISSING>","37.322606681528","-85.3570264577865","Mon 7:00 AM - 6:00 PM, Tues 7:00 AM - 6:00 PM, Wed 7:00 AM - 6:00 PM, Thurs 7:00 AM - 6:00 PM, Fri 7:00 AM - 6:00 PM, Sat 7:00 AM - 2:00 PM, Sun Closed","https://www.napaonline.com/en/auto-parts-stores-near-me/ky/campbellsville"
"https://www.napaonline.com","NAPA Auto Parts - Auto Tire & Parts","1077 South Main Street","Calvert City","KY","42029","US","24040","(270) 395-4104","<MISSING>","37.0163627266464","-88.3527471274192","Mon 7:00 AM - 5:00 PM, Tues 7:00 AM - 5:00 PM, Wed 7:00 AM - 5:00 PM, Thurs 7:00 AM - 5:00 PM, Fri 7:00 AM - 5:00 PM, Sat 7:30 AM - 1:00 PM, Sun Closed","https://www.napaonline.com/en/auto-parts-stores-near-me/ky/calvert-city"
"https://www.napaonline.com","<MISSING>","<MISSING>","<MISSING>","<MISSING>","<MISSING>","<MISSING>","<MISSING>","<MISSING>","<MISSING>","<MISSING>","<MISSING>","<MISSING>","https://www.napaonline.com/en/auto-parts-stores-near-me/ky/campton"
"https://www.napaonline.com","NAPA Auto Parts - Carrollton Auto Parts Inc","618 Highland Ave","Carrollton","KY","41008","US","22077","(502) 732-4245","<MISSING>","38.6811243677763","-85.1767310500144","Mon 7:00 AM - 5:00 PM, Tues 7:00 AM - 5:00 PM, Wed 7:00 AM - 5:00 PM, Thurs 7:00 AM - 5:00 PM, Fri 7:00 AM - 5:00 PM, Sat 8:00 AM - 2:00 PM, Sun Closed","https://www.napaonline.com/en/auto-parts-stores-near-me/ky/carrollton"
"https://www.napaonline.com","NAPA Auto Parts - Adair Automotive Supply","411 Campbellsville St","Columbia","KY","42728","US","27764","(270) 384-2141","<MISSING>","37.1079190838894","-85.3034211695194","Mon 6:00 AM - 6:00 PM, Tues 6:00 AM - 6:00 PM, Wed 6:00 AM - 6:00 PM, Thurs 6:00 AM - 6:00 PM, Fri 6:00 AM - 6:00 PM, Sat 6:00 AM - 2:00 PM, Sun Closed","https://www.napaonline.com/en/auto-parts-stores-near-me/ky/columbia"
"https://www.napaonline.com","NAPA Auto Parts - Scottsdale - 2318 N. Scottsdale Rd.","2318 N. Scottsdale Rd.","Scottsdale","AZ","85257","US","24099","(480) 949-8808","<MISSING>","33.4738605","-111.9268462","Mon 7:00 AM - 7:00 PM, Tues 7:00 AM - 7:00 PM, Wed 7:00 AM - 7:00 PM, Thurs 7:00 AM - 7:00 PM, Fri 7:00 AM - 7:00 PM, Sat 8:00 AM - 5:00 PM, Sun 8:00 AM - 4:00 PM","https://www.napaonline.com/stores/az/scottsdale/2318-n.-scottsdale-rd.?sdref=footer"
"https://www.napaonline.com","NAPA Auto Parts - Scottsdale - 8241 E Evans Rd","8241 E Evans Rd Ste 101","Scottsdale","AZ","85260","US","26446","(480) 991-0161","<MISSING>","33.616379","-111.9033146","Mon 7:00 AM - 7:00 PM, Tues 7:00 AM - 7:00 PM, Wed 7:00 AM - 7:00 PM, Thurs 7:00 AM - 7:00 PM, Fri 7:00 AM - 7:00 PM, Sat 8:00 AM - 5:00 PM, Sun 8:00 AM - 4:00 PM","https://www.napaonline.com/stores/az/scottsdale/8241-e-evans-rd?sdref=footer"
"https://www.napaonline.com","NAPA Auto Parts - SCA Danville","151 South Danville Bypass","Danville","KY","40422","US","30056","(859) 236-5800","<MISSING>","37.64619893714866","-84.80451102847161","Mon 8:00 AM - 5:00 PM, Tues 8:00 AM - 5:00 PM, Wed 8:00 AM - 5:00 PM, Thurs 8:00 AM - 5:00 PM, Fri 8:00 AM - 5:00 PM, Sat 8:00 AM - 5:00 PM, Sun 8:00 AM - 5:00 PM","https://www.napaonline.com/en/auto-parts-stores-near-me/ky/danville"
"https://www.napaonline.com","NAPA Auto Parts - Cynthiana Auto Parts","994 US Hwy 27 S","Cynthiana","KY","41031","US","24547","(859) 234-6200","<MISSING>","38.37862045329239","-84.31187438411143","Mon 7:00 AM - 6:00 PM, Tues 7:00 AM - 6:00 PM, Wed 7:00 AM - 6:00 PM, Thurs 7:00 AM - 6:00 PM, Fri 7:00 AM - 6:00 PM, Sat 8:00 AM - 4:00 PM, Sun 12:00 PM, - 3:00 PM","https://www.napaonline.com/en/auto-parts-stores-near-me/ky/cynthiana"
"https://www.napaonline.com","NAPA Auto Parts - Auto Tire & Parts","747 Fairview Avenue","Eddyville","KY","42038","US","<MISSING>","(270) 388-9477","AutoPartsStore","37.088344","-88.087672","Monday: 07:00:00-17:00:00Tuesday: 07:00:00-17:00:00Wednesday: 07:00:00-17:00:00Thursday: 07:00:00-17:00:00Friday: 07:00:00-17:00:00Saturday: 07:30:00-13:00:00Sunday: 00:00:00-00:00:00","https://www.napaonline.com/en/auto-parts-stores-near-me/ky/eddyville"
"https://www.napaonline.com","NAPA Auto Parts - E-Town Auto Parts","202 S Mulberry St","Elizabethtown","KY","42701","US","30245","(270) 765-2173","<MISSING>","37.6927798","-85.860879","Mon 7:00 AM - 5:00 PM, Tues 7:00 AM - 5:00 PM, Wed 7:00 AM - 5:00 PM, Thurs 7:00 AM - 5:00 PM, Fri 7:00 AM - 5:00 PM, Sat 8:00 AM - 12:00 PM, Sun Closed","https://www.napaonline.com/en/auto-parts-stores-near-me/ky/elizabethtown"
"https://www.napaonline.com","NAPA Auto Parts - Elkton Auto Parts","204 N Main St","Elkton","KY","42220","US","20207","(270) 265-2527","<MISSING>","36.8107158","-87.1535926","Mon 7:00 AM - 5:00 PM, Tues 7:00 AM - 5:00 PM, Wed 7:00 AM - 5:00 PM, Thurs 7:00 AM - 5:00 PM, Fri 7:00 AM - 5:00 PM, Sat 7:00 AM - 1:00 PM, Sun Closed","https://www.napaonline.com/en/auto-parts-stores-near-me/ky/elkton"
"https://www.napaonline.com","NAPA Auto Parts - Carson's Auyto & Tractor Supply","567 Ridgeway Ave","Falmouth","KY","41040","US","21908","(859) 654-8833","<MISSING>","38.6718627176979","-84.3367914957008","Mon 8:00 AM - 5:30 PM, Tues 8:00 AM - 5:30 PM, Wed 8:00 AM - 5:30 PM, Thurs 8:00 AM - 5:30 PM, Fri 8:00 AM - 5:30 PM, Sat 8:00 AM - 5:00 PM, Sun 12:00 PM, - 3:00 PM","https://www.napaonline.com/en/auto-parts-stores-near-me/ky/falmouth"
"https://www.napaonline.com","NAPA Auto Parts - Auto & Farm Supply","1231 Elizaville Rd","Flemingsburg","KY","41041","US","22854","(606) 845-2911","<MISSING>","38.4199661456658","-83.7569078432716","Mon 8:00 AM - 7:00 PM, Tues 8:00 AM - 7:00 PM, Wed 8:00 AM - 7:00 PM, Thurs 8:00 AM - 7:00 PM, Fri 8:00 AM - 7:00 PM, Sat 8:00 AM - 5:00 PM, Sun 10:00 AM - 4:00 PM","https://www.napaonline.com/en/auto-parts-stores-near-me/ky/flemingsburg"
"https://www.napaonline.com","NAPA Auto Parts - Tempe - 1848 E University Dr","1848 E University Dr","Tempe","AZ","85281","US","27102","(480) 968-7282","<MISSING>","33.422554","-111.9066601","Mon 7:00 AM - 7:00 PM, Tues 7:00 AM - 7:00 PM, Wed 7:00 AM - 7:00 PM, Thurs 7:00 AM - 7:00 PM, Fri 7:00 AM - 7:00 PM, Sat 8:00 AM - 5:00 PM, Sun 8:00 AM - 4:00 PM","https://www.napaonline.com/stores/az/tempe/1848-e-university-dr?sdref=footer"
"https://www.napaonline.com","<MISSING>","<MISSING>","<MISSING>","<MISSING>","<MISSING>","<MISSING>","<MISSING>","<MISSING>","<MISSING>","<MISSING>","<MISSING>","<MISSING>","https://www.napaonline.com/stores/az/tempe/720-w-elliot-rd?sdref=footer"
"https://www.napaonline.com","NAPA Auto Parts - Cain Auto Supply","1060 US 127 South","Frankfort","KY","40601","US","40164","(502) 699-2600","<MISSING>","38.1761925659145","-84.8969004957008","Mon 7:30 AM - 5:30 PM, Tues 7:30 AM - 5:30 PM, Wed 7:30 AM - 5:30 PM, Thurs 7:30 AM - 5:30 PM, Fri 7:30 AM - 5:30 PM, Sat 8:00 AM - 12:00 PM, Sun Closed","https://www.napaonline.com/en/auto-parts-stores-near-me/ky/frankfort"
"https://www.napaonline.com","NAPA Auto Parts - Georgetown Auto Parts","1002 Lexington Rd Ste 10","Georgetown","KY","40324","US","802116","(502) 642-4780","<MISSING>","38.18999692306908","-84.55964693750101","Mon 7:00 AM - 6:00 PM, Tues 7:00 AM - 6:00 PM, Wed 7:00 AM - 6:00 PM, Thurs 7:00 AM - 6:00 PM, Fri 7:00 AM - 6:00 PM, Sat 8:00 AM - 5:00 PM, Sun Closed","https://www.napaonline.com/en/auto-parts-stores-near-me/ky/georgetown"
"https://www.napaonline.com","NAPA Auto Parts - Carman's Auto & Farm Supply","304 Old Highway 60","Hardinsburg","KY","40143","US","21837","(270) 756-5258","<MISSING>","37.776642582524694","-86.44816517829895","Mon 7:00 AM - 5:00 PM, Tues 7:00 AM - 5:00 PM, Wed 7:00 AM - 5:00 PM, Thurs 7:00 AM - 5:00 PM, Fri 7:00 AM - 5:00 PM, Sat 7:00 AM - 12:00 PM, Sun Closed","https://www.napaonline.com/en/auto-parts-stores-near-me/ky/hardinsburg"
"https://www.napaonline.com","NAPA Auto Parts - TAZ Automotive Inc","103 Shane Dr","Glasgow","KY","42141","US","24536","(270) 651-7200","<MISSING>","37.005335735227","-85.9263394587833","Mon 7:00 AM - 5:00 PM, Tues 7:00 AM - 5:00 PM, Wed 7:00 AM - 5:00 PM, Thurs 7:00 AM - 5:00 PM, Fri 7:00 AM - 5:00 PM, Sat Closed Sun Closed","https://www.napaonline.com/en/auto-parts-stores-near-me/ky/glasgow"
"https://www.napaonline.com","NAPA Auto Parts - Total Auto Parts","101 N Cumberland Ave","Harlan","KY","40831","US","21614","(606) 573-9700","<MISSING>","36.84713410969635","-83.32397460369987","Mon 8:00 AM - 5:00 PM, Tues 8:00 AM - 5:00 PM, Wed 8:00 AM - 5:00 PM, Thurs 8:00 AM - 5:00 PM, Fri 8:00 AM - 5:00 PM, Sat 8:00 AM - 12:00 PM, Sun Closed","https://www.napaonline.com/en/auto-parts-stores-near-me/ky/harlan"
"https://www.napaonline.com","NAPA Auto Parts - Martt Enterprises","1050 N College St","Harrodsburg","KY","40330","US","39757","(859) 734-2141","<MISSING>","37.7812538","-84.8464584","Mon 7:30 AM - 5:00 PM, Tues 7:30 AM - 5:00 PM, Wed 7:30 AM - 5:00 PM, Thurs 7:30 AM - 5:00 PM, Fri 7:30 AM - 5:00 PM, Sat 8:00 AM - 12:00 PM, Sun Closed","https://www.napaonline.com/en/auto-parts-stores-near-me/ky/harrodsburg"
"https://www.napaonline.com","NAPA Auto Parts - M&B Auto Parts Inc","1340 S Main St","Hartford","KY","42347","US","29741","(270) 298-4900","<MISSING>","37.4380445654532","-86.8894207477569","Mon 7:00 AM - 5:00 PM, Tues 7:00 AM - 5:00 PM, Wed 7:00 AM - 5:00 PM, Thurs 7:00 AM - 5:00 PM, Fri 7:00 AM - 5:00 PM, Sat 7:00 AM - 3:00 PM, Sun Closed","https://www.napaonline.com/en/auto-parts-stores-near-me/ky/hartford"
"https://www.napaonline.com","NAPA Auto Parts - Quality Automotive Distributors Corp","365 Hawes Blvd","Hawesville","KY","42348","US","801225","(270) 927-8821","<MISSING>","37.8953191","-86.7537075","Mon 7:30 AM - 5:30 PM, Tues 7:30 AM - 5:30 PM, Wed 7:30 AM - 5:30 PM, Thurs 7:30 AM - 5:30 PM, Fri 7:30 AM - 5:30 PM, Sat 8:00 AM - 1:00 PM, Sun Closed","https://www.napaonline.com/en/auto-parts-stores-near-me/ky/hawesville"
"https://www.napaonline.com","NAPA Auto Parts - Hazard Auto Parts Inc","146 Willies Way","Hazard","KY","41701","US","28701","(606) 435-2345","<MISSING>","37.27842920000001","-83.2155379","Mon 7:00 AM - 5:30 PM, Tues 7:00 AM - 5:30 PM, Wed 7:00 AM - 5:30 PM, Thurs 7:00 AM - 5:30 PM, Fri 7:00 AM - 5:30 PM, Sat 7:00 AM - 1:00 PM, Sun Closed","https://www.napaonline.com/en/auto-parts-stores-near-me/ky/hazard"
"https://www.napaonline.com","NAPA Auto Parts - Quality Automotive Distributors, Corp.","400 N Green St","Henderson","KY","42420","US","40151","(270) 212-0305","<MISSING>","37.8420715","-87.5864868","Mon 7:30 AM - 5:30 PM, Tues 7:30 AM - 5:30 PM, Wed 7:30 AM - 5:30 PM, Thurs 7:30 AM - 5:30 PM, Fri 7:30 AM - 5:30 PM, Sat 8:00 AM - 3:00 PM, Sun 10:00 AM - 2:00 PM","https://www.napaonline.com/en/auto-parts-stores-near-me/ky/henderson"
"https://www.napaonline.com","NAPA Auto Parts - Hindman Tire & Auto Parts Inc","66 Highway 80 E","Hindman","KY","41822","US","<MISSING>","(606) 785-3505","AutoPartsStore","37.381451","-82.971066","Monday: 07:00:00-17:00:00Tuesday: 07:00:00-17:00:00Wednesday: 07:00:00-17:00:00Thursday: 07:00:00-17:00:00Friday: 07:00:00-17:00:00Saturday: 07:00:00-13:00:00Sunday: 00:00:00-00:00:00","https://www.napaonline.com/en/auto-parts-stores-near-me/ky/hindman"
"https://www.napaonline.com","NAPA Auto Parts - Clark's Auto Parts Inc","22899 Highway 421","Hyden","KY","41749","US","24490","(606) 672-3795","<MISSING>","37.1551583844635","-83.3844092488288","Mon 7:30 AM - 5:30 PM, Tues 7:30 AM - 5:30 PM, Wed 7:30 AM - 5:30 PM, Thurs 7:30 AM - 5:30 PM, Fri 7:30 AM - 5:30 PM, Sat 7:30 AM - 2:00 PM, Sun Closed","https://www.napaonline.com/en/auto-parts-stores-near-me/ky/hyden"
"https://www.napaonline.com","NAPA Auto Parts - Buyrite Parts & Supply Inc","950 Skyline Dr","Hopkinsville","KY","42240","US","20213","(270) 886-3976","<MISSING>","36.8484938000126","-87.4742034701194","Mon 7:00 AM - 5:00 PM, Tues 7:00 AM - 5:00 PM, Wed 7:00 AM - 5:00 PM, Thurs 7:00 AM - 5:00 PM, Fri 7:00 AM - 5:00 PM, Sat 7:00 AM - 1:00 PM, Sun Closed","https://www.napaonline.com/en/auto-parts-stores-near-me/ky/hopkinsville"
"https://www.napaonline.com","NAPA Auto Parts - NAPA Auto Parts NTN014","10210 Taylorsville Rd","Jeffersontown","KY","40299","US","27011","(502) 267-8388","<MISSING>","38.1961609103734","-85.5679714679719","Mon 7:00 AM - 7:30 PM, Tues 7:00 AM - 7:30 PM, Wed 7:00 AM - 7:30 PM, Thurs 7:00 AM - 7:30 PM, Fri 7:00 AM - 7:30 PM, Sat 8:00 AM - 5:00 PM, Sun 10:00 AM - 4:00 PM","https://www.napaonline.com/en/auto-parts-stores-near-me/ky/jeffersontown"
"https://www.napaonline.com","NAPA Auto Parts - Baker's Auto Parts Inc","363 Highway 15 S","Jackson","KY","41339","US","20659","(606) 666-2460","<MISSING>","37.5592286265044","-83.374895453453","Mon 7:00 AM - 7:00 PM, Tues 7:00 AM - 7:00 PM, Wed 7:00 AM - 7:00 PM, Thurs 7:00 AM - 7:00 PM, Fri 7:00 AM - 7:00 PM, Sat 7:00 AM - 5:00 PM, Sun Closed","https://www.napaonline.com/en/auto-parts-stores-near-me/ky/jackson"
"https://www.napaonline.com","NAPA Auto Parts - SCA Lagrange","405 Yager Ave","La Grange","KY","40031","US","<MISSING>","(502) 222-7166","AutoPartsStore","38.404212","-85.378606","Monday: 07:30:00-17:30:00Tuesday: 07:30:00-17:30:00Wednesday: 07:30:00-17:30:00Thursday: 07:30:00-17:30:00Friday: 07:30:00-17:30:00Saturday: 08:00:00-12:00:00Sunday: 00:00:00-00:00:00","https://www.napaonline.com/en/auto-parts-stores-near-me/ky/la-grange"
"https://www.napaonline.com","NAPA Auto Parts - Cain Auto Supply","512 W Broadway St","Lawrenceburg","KY","40342","US","27128","(502) 839-5156","<MISSING>","38.0269502475406","-84.900993322999","Mon 7:00 AM - 7:00 PM, Tues 7:00 AM - 7:00 PM, Wed 7:00 AM - 7:00 PM, Thurs 7:00 AM - 7:00 PM, Fri 7:00 AM - 7:00 PM, Sat 8:00 AM - 3:00 PM, Sun Closed","https://www.napaonline.com/en/auto-parts-stores-near-me/ky/lawrenceburg"
"https://www.napaonline.com","NAPA Auto Parts - Ranger's Auto Supply","114 N Main St","Lewisburg","KY","42256","US","28233","(270) 755-4600","<MISSING>","36.9865156856118","-86.9552802450789","Mon 6:30 AM - 5:30 PM, Tues 6:30 AM - 5:30 PM, Wed 6:30 AM - 5:30 PM, Thurs 6:30 AM - 5:30 PM, Fri 6:30 AM - 5:30 PM, Sat 6:30 AM - 4:00 PM, Sun Closed","https://www.napaonline.com/en/auto-parts-stores-near-me/ky/lewisburg"
"https://www.napaonline.com","NAPA Auto Parts - Dan Powers Auto Parts LLC","1499 Elizabethtown Rd","Leitchfield","KY","42754","US","24900","(270) 397-6272","<MISSING>","37.4850211656204","-86.2724499999999","Mon 7:00 AM - 5:00 PM, Tues 7:00 AM - 5:00 PM, Wed 7:00 AM - 5:00 PM, Thurs 7:00 AM - 5:00 PM, Fri 7:00 AM - 5:00 PM, Sat 7:30 AM - 1:30 PM, Sun Closed","https://www.napaonline.com/en/auto-parts-stores-near-me/ky/leitchfield"
"https://www.napaonline.com","NAPA Auto Parts - Genuine Parts Company","4751 E Speedway Blvd","Tucson","AZ","85712","US","<MISSING>","(602) 790-7008","AutoPartsStore","32.236621","-110.891087","Monday: 08:00:00-17:00:00Tuesday: 08:00:00-17:00:00Wednesday: 08:00:00-17:00:00Thursday: 08:00:00-17:00:00Friday: 08:00:00-17:00:00Saturday: 08:00:00-17:00:00Sunday: 00:00:00-00:00:00","https://www.napaonline.com/en/az/tucson/store/93911?sdref=footer"
"https://www.napaonline.com","NAPA Auto Parts - Genuine Parts Company","880 E 20th St","Tucson","AZ","85719","US","<MISSING>","(520) 623-8621","AutoPartsStore","32.2091","-110.956654","Monday: 07:30:00-18:00:00Tuesday: 07:30:00-18:00:00Wednesday: 07:30:00-18:00:00Thursday: 07:30:00-18:00:00Friday: 07:30:00-18:00:00Saturday: 08:00:00-17:00:00Sunday: 00:00:00-00:00:00","https://www.napaonline.com/en/az/tucson/store/27694?sdref=footer"
"https://www.napaonline.com","NAPA Auto Parts - Genuine Parts Company","4015 S Dodge Blvd","Tucson","AZ","85714","US","<MISSING>","(520) 889-7202","AutoPartsStore","32.174978","-110.913736","Monday: 08:00:00-17:00:00Tuesday: 08:00:00-17:00:00Wednesday: 08:00:00-17:00:00Thursday: 08:00:00-17:00:00Friday: 08:00:00-17:00:00Saturday: 08:00:00-17:00:00Sunday: 00:00:00-00:00:00","https://www.napaonline.com/en/az/tucson/store/93910?sdref=footer"
"https://www.napaonline.com","NAPA Auto Parts - B&K Auto & Truck Parts","700 N Wallace Wilkinson Blvd","Liberty","KY","42539","US","801239","(606) 303-9048","<MISSING>","37.32280799999999","-84.9242733","Mon 8:00 AM - 6:00 PM, Tues 8:00 AM - 6:00 PM, Wed 8:00 AM - 6:00 PM, Thurs 8:00 AM - 6:00 PM, Fri 8:00 AM - 6:00 PM, Sat 8:00 AM - 5:00 PM, Sun Closed","https://www.napaonline.com/en/auto-parts-stores-near-me/ky/liberty"
"https://www.napaonline.com","NAPA Auto Parts - NAPA Auto Parts NTN028","667 E New Circle Rd Suite 4","Lexington","KY","40505","US","20916","(859) 294-9509","<MISSING>","38.05001477058291","-84.45427920181146","Mon 8:00 AM - 6:00 PM, Tues 8:00 AM - 6:00 PM, Wed 8:00 AM - 6:00 PM, Thurs 8:00 AM - 6:00 PM, Fri 8:00 AM - 6:00 PM, Sat 8:00 AM - 5:00 PM, Sun Closed","https://www.napaonline.com/en/auto-parts-stores-near-me/ky/lexington"
"https://www.napaonline.com","NAPA Auto Parts - Douglas Auto Parts LLC","606B Henton St","Livermore","KY","42352","US","37562","(270) 278-9032","<MISSING>","37.491434","-87.1288304","Mon 8:00 AM - 5:00 PM, Tues 8:00 AM - 5:00 PM, Wed 8:00 AM - 5:00 PM, Thurs 8:00 AM - 5:00 PM, Fri 8:00 AM - 5:00 PM, Sat 8:00 AM - 5:00 PM, Sun 8:00 AM - 5:00 PM","https://www.napaonline.com/en/auto-parts-stores-near-me/ky/livermore"
"https://www.napaonline.com","NAPA Auto Parts - Krisnick Auto Parts INC","589 Highway 192 W","London","KY","40741","US","31047","(606) 878-6272","<MISSING>","37.1060302","-84.0824031","Mon 7:30 AM - 6:00 PM, Tues 7:30 AM - 6:00 PM, Wed 7:30 AM - 6:00 PM, Thurs 7:30 AM - 6:00 PM, Fri 7:30 AM - 6:00 PM, Sat 7:30 AM - 6:00 PM, Sun Closed","https://www.napaonline.com/en/auto-parts-stores-near-me/ky/london"
"https://www.napaonline.com","NAPA Auto Parts - Madisonville Auto Parts","55 N Scott St","Madisonville","KY","42431","US","24047","(270) 821-4261","<MISSING>","37.3290040834097","-87.4955605566992","Mon 7:00 AM - 5:00 PM, Tues 7:00 AM - 5:00 PM, Wed 7:00 AM - 5:00 PM, Thurs 7:00 AM - 5:00 PM, Fri 7:00 AM - 5:00 PM, Sat 7:00 AM - 12:00 PM, Sun Closed","https://www.napaonline.com/en/auto-parts-stores-near-me/ky/madisonville"
"https://www.napaonline.com","NAPA Auto Parts - M & Mac Auto Parts","426 S Main St","Marion","KY","42064","US","22305","(270) 965-3104","<MISSING>","37.3289151454756","-88.0816391855478","Mon 7:30 AM - 5:00 PM, Tues 7:30 AM - 5:00 PM, Wed 7:30 AM - 5:00 PM, Thurs 7:30 AM - 5:00 PM, Fri 7:30 AM - 5:00 PM, Sat 7:30 AM - 2:00 PM, Sun Closed","https://www.napaonline.com/en/auto-parts-stores-near-me/ky/marion"
"https://www.napaonline.com","NAPA Auto Parts - Krisnick Auto Parts INC","333 Highway 80","Manchester","KY","40962","US","40232","(606) 598-6166","<MISSING>","37.13460096807767","-83.76805322713767","Mon 7:30 AM - 6:00 PM, Tues 7:30 AM - 6:00 PM, Wed 7:30 AM - 6:00 PM, Thurs 7:30 AM - 6:00 PM, Fri 7:30 AM - 6:00 PM, Sat 7:30 AM - 6:00 PM, Sun Closed","https://www.napaonline.com/en/auto-parts-stores-near-me/ky/manchester"
"https://www.napaonline.com","NAPA Auto Parts - Mason Auto Parts","510 Tucker Dr","Maysville","KY","41056","US","26153","(606) 759-5511","<MISSING>","38.6262280299535","-83.7984712421894","Mon 7:00 AM - 7:00 PM, Tues 7:00 AM - 7:00 PM, Wed 7:00 AM - 7:00 PM, Thurs 7:00 AM - 7:00 PM, Fri 7:00 AM - 7:00 PM, Sat 8:00 AM - 6:00 PM, Sun 10:00 AM - 4:00 PM","https://www.napaonline.com/en/auto-parts-stores-near-me/ky/maysville"
"https://www.napaonline.com","<MISSING>","<MISSING>","<MISSING>","<MISSING>","<MISSING>","<MISSING>","<MISSING>","<MISSING>","<MISSING>","<MISSING>","<MISSING>","<MISSING>","https://www.napaonline.com/en/auto-parts-stores-near-me/ky/mayfield"
"https://www.napaonline.com","NAPA Auto Parts - Morehead Auto Parts","722 W 1st St","Morehead","KY","40351","US","26822","(606) 784-4213","<MISSING>","38.1741167","-83.4381915","Mon 8:00 AM - 6:00 PM, Tues 8:00 AM - 6:00 PM, Wed 8:00 AM - 6:00 PM, Thurs 8:00 AM - 6:00 PM, Fri 8:00 AM - 6:00 PM, Sat 8:00 AM - 5:00 PM, Sun 9:00 AM - 3:00 PM","https://www.napaonline.com/en/auto-parts-stores-near-me/ky/morehead"
"https://www.napaonline.com","NAPA Auto Parts - Morgantown Auto Parts","427 W Gl Smith St","Morgantown","KY","42261","US","28451","(270) 526-3202","<MISSING>","37.22827","-86.688598","Mon 8:00 AM - 5:00 PM, Tues 8:00 AM - 5:00 PM, Wed 8:00 AM - 5:00 PM, Thurs 8:00 AM - 5:00 PM, Fri 8:00 AM - 5:00 PM, Sat 8:00 AM - 4:00 PM, Sun Closed","https://www.napaonline.com/en/auto-parts-stores-near-me/ky/morgantown"
"https://www.napaonline.com","NAPA Auto Parts - H & S Farm Supply","1075 US Highway 60 W","Morganfield","KY","42437","US","37990","(270) 389-3593","<MISSING>","37.6706562133959","-87.9269195850064","Mon 7:00 AM - 5:00 PM, Tues 7:00 AM - 5:00 PM, Wed 7:00 AM - 5:00 PM, Thurs 7:00 AM - 5:00 PM, Fri 7:00 AM - 5:00 PM, Sat 7:00 AM - 3:00 PM, Sun Closed","https://www.napaonline.com/en/auto-parts-stores-near-me/ky/morganfield"
"https://www.napaonline.com","NAPA Auto Parts - Auto Tire & Parts","5 US Highway 68 W","Benton","KY","42025","US","25084","(270) 527-1368","<MISSING>","36.925281652431","-88.3445419371128","Mon 7:00 AM - 5:00 PM, Tues 7:00 AM - 5:00 PM, Wed 7:00 AM - 5:00 PM, Thurs 7:00 AM - 5:00 PM, Fri 7:00 AM - 5:00 PM, Sat 7:30 AM - 1:00 PM, Sun Closed","https://www.napaonline.com/stores/ky/benton/5-us-highway-68-w?sdref=footer"
"https://www.napaonline.com","NAPA Auto Parts - Auto Tire & Parts","311 N Main Street","Benton","KY","42025","US","28281","(270) 527-3188","<MISSING>","36.8673744","-88.3488922","Mon 7:00 AM - 5:00 PM, Tues 7:00 AM - 5:00 PM, Wed 7:00 AM - 5:00 PM, Thurs 7:00 AM - 5:00 PM, Fri 7:00 AM - 5:00 PM, Sat 7:30 AM - 1:00 PM, Sun Closed","https://www.napaonline.com/stores/ky/benton/311-n-main-street?sdref=footer"
"https://www.napaonline.com","NAPA Auto Parts - Munfordville Automotive Supply","51 Main St","Munfordville","KY","42765","US","25923","(270) 524-4535","<MISSING>","37.2700644621002","-85.8883619067459","Mon 6:30 AM - 5:00 PM, Tues 6:30 AM - 5:00 PM, Wed 6:30 AM - 5:00 PM, Thurs 6:30 AM - 5:00 PM, Fri 6:30 AM - 5:00 PM, Sat 7:00 AM - 3:00 PM, Sun Closed","https://www.napaonline.com/en/auto-parts-stores-near-me/ky/munfordville"
"https://www.napaonline.com","NAPA Auto Parts - Mt Vernon Automotive","260 E Main St","Mount Vernon","KY","40456","US","23780","(606) 256-2147","<MISSING>","37.3526906715422","-84.3370990455151","Mon 7:30 AM - 6:00 PM, Tues 7:30 AM - 6:00 PM, Wed 7:30 AM - 6:00 PM, Thurs 7:30 AM - 6:00 PM, Fri 7:30 AM - 6:00 PM, Sat 7:30 AM - 5:00 PM, Sun Closed","https://www.napaonline.com/en/auto-parts-stores-near-me/ky/mount-vernon"
"https://www.napaonline.com","NAPA Auto Parts - Murray Auto Parts","1300 N 12th St","Murray","KY","42071","US","27779","(270) 753-4424","<MISSING>","36.6299420404352","-88.3119115233421","Mon 7:00 AM - 5:00 PM, Tues 7:00 AM - 5:00 PM, Wed 7:00 AM - 5:00 PM, Thurs 7:00 AM - 5:00 PM, Fri 7:00 AM - 5:00 PM, Sat 7:30 AM - 3:00 PM, Sun Closed","https://www.napaonline.com/en/auto-parts-stores-near-me/ky/murray"
"https://www.napaonline.com","NAPA Auto Parts - Quality Automotive Distributors, Corp.","114 E 14th St","Owensboro","KY","42303","US","36396","(270) 683-4567","<MISSING>","37.7626058875085","-87.109848326063","Mon 7:00 AM - 7:30 PM, Tues 7:00 AM - 7:30 PM, Wed 7:00 AM - 7:30 PM, Thurs 7:00 AM - 7:30 PM, Fri 7:00 AM - 7:30 PM, Sat 7:30 AM - 3:00 PM, Sun 10:00 AM - 3:00 PM","https://www.napaonline.com/en/auto-parts-stores-near-me/ky/owensboro"
"https://www.napaonline.com","NAPA Auto Parts - Champman Enterprises of KY","116 Edgewood Plaza Dr","Nicholasville","KY","40356","US","30410","(859) 885-3318","<MISSING>","37.869702","-84.578504","Mon 7:30 AM - 6:00 PM, Tues 7:30 AM - 6:00 PM, Wed 7:30 AM - 6:00 PM, Thurs 7:30 AM - 6:00 PM, Fri 7:30 AM - 6:00 PM, Sat 8:00 AM - 4:00 PM, Sun Closed","https://www.napaonline.com/en/auto-parts-stores-near-me/ky/nicholasville"
"https://www.napaonline.com","NAPA Auto Parts - Auto Tire & Parts","910 Old Mayfield Road","Paducah","KY","42003","US","21282","(270) 442-6800","<MISSING>","37.0694746","-88.6121942","Mon 7:30 AM - 5:00 PM, Tues 7:30 AM - 5:00 PM, Wed 7:30 AM - 5:00 PM, Thurs 7:30 AM - 5:00 PM, Fri 7:30 AM - 5:00 PM, Sat 8:00 AM - 3:00 PM, Sun Closed","https://www.napaonline.com/en/auto-parts-stores-near-me/ky/paducah"
"https://www.napaonline.com","NAPA Auto Parts - Pikeville Auto & Industrial Supply","45 Zebulon Heights","Pikeville","KY","41501","US","801420","(606) 637-1869","<MISSING>","37.5145874","-82.4870452","Mon 7:00 AM - 6:00 PM, Tues 7:00 AM - 6:00 PM, Wed 7:00 AM - 6:00 PM, Thurs 7:00 AM - 6:00 PM, Fri 7:00 AM - 6:00 PM, Sat 7:00 AM - 3:00 PM, Sun Closed","https://www.napaonline.com/en/auto-parts-stores-near-me/ky/pikeville"
"https://www.napaonline.com","NAPA Auto Parts - Pine Knot Auto Parts","170 East 92","Pine Knot","KY","42635","US","22645","(606) 354-2000","<MISSING>","36.6637698484569","-84.4369140233135","Mon 8:00 AM - 6:00 PM, Tues 8:00 AM - 6:00 PM, Wed 8:00 AM - 6:00 PM, Thurs 8:00 AM - 6:00 PM, Fri 8:00 AM - 6:00 PM, Sat 8:00 AM - 5:00 PM, Sun Closed","https://www.napaonline.com/en/auto-parts-stores-near-me/ky/pine-knot"
"https://www.napaonline.com","NAPA Auto Parts - Coleman Auto Parts","106 N Plum St","Princeton","KY","42445","US","25110","(270) 365-5573","<MISSING>","37.1109436588051","-87.8862020373344","Mon 7:00 AM - 5:00 PM, Tues 7:00 AM - 5:00 PM, Wed 7:00 AM - 5:00 PM, Thurs 7:00 AM - 5:00 PM, Fri 7:00 AM - 5:00 PM, Sat 7:00 AM - 5:00 PM, Sun Closed","https://www.napaonline.com/en/auto-parts-stores-near-me/ky/princeton"
"https://www.napaonline.com","NAPA Auto Parts - Madison County Auto Parts","930 Commercial Dr","Richmond","KY","40475","US","23803","(859) 624-1044","<MISSING>","37.7361622372441","-84.2693746089935","Mon 7:30 AM - 5:30 PM, Tues 7:30 AM - 5:30 PM, Wed 7:30 AM - 5:30 PM, Thurs 7:30 AM - 5:30 PM, Fri 7:30 AM - 5:30 PM, Sat Closed Sun 9:00 AM - 5:00 PM","https://www.napaonline.com/en/auto-parts-stores-near-me/ky/richmond"
"https://www.napaonline.com","NAPA Auto Parts - McKinney & McKinney INC","2185 S Highway 127","Russell Springs","KY","42642","US","23753","(270) 866-4787","<MISSING>","37.0353051","-85.0763034","Mon 7:00 AM - 6:00 PM, Tues 7:00 AM - 6:00 PM, Wed 7:00 AM - 6:00 PM, Thurs 7:00 AM - 6:00 PM, Fri 7:00 AM - 6:00 PM, Sat 7:00 AM - 2:00 PM, Sun Closed","https://www.napaonline.com/en/auto-parts-stores-near-me/ky/russell-springs"
"https://www.napaonline.com","NAPA Auto Parts - C&M Auto Supply","320 N Main St","Russellville","KY","42276","US","28234","(270) 726-6272","<MISSING>","36.8483123","-86.888326","Mon 7:00 AM - 6:00 PM, Tues 7:00 AM - 6:00 PM, Wed 7:00 AM - 6:00 PM, Thurs 7:00 AM - 6:00 PM, Fri 7:00 AM - 6:00 PM, Sat 8:00 AM - 2:00 PM, Sun Closed","https://www.napaonline.com/en/auto-parts-stores-near-me/ky/russellville"
"https://www.napaonline.com","NAPA Auto Parts - TAMBCO Auto Parts","354 W Main St","Salem","KY","42078","US","802147","(270) 988-2706","<MISSING>","37.26137934173335","-88.25629718218802","Mon 7:00 AM - 5:00 PM, Tues 7:00 AM - 5:00 PM, Wed 7:00 AM - 5:00 PM, Thurs 7:00 AM - 5:00 PM, Fri 7:00 AM - 5:00 PM, Sat 8:00 AM - 12:00 PM, Sun Closed","https://www.napaonline.com/en/auto-parts-stores-near-me/ky/salem"
"https://www.napaonline.com","NAPA Auto Parts - Howard's West Liberty Auto Parts","261 W Maple St","Salyersville","KY","41465","US","26421","(606) 349-3030","<MISSING>","37.752154","-83.071847","Mon 8:00 AM - 5:00 PM, Tues 8:00 AM - 5:00 PM, Wed 8:00 AM - 5:00 PM, Thurs 8:00 AM - 5:00 PM, Fri 8:00 AM - 5:00 PM, Sat 8:00 AM - 3:00 PM, Sun 11:00 AM - 4:00 PM","https://www.napaonline.com/en/auto-parts-stores-near-me/ky/salyersville"
"https://www.napaonline.com","NAPA Auto Parts - SCA Shelbyville","114 Main St","Shelbyville","KY","40065","US","<MISSING>","(502) 633-6272","AutoPartsStore","38.210089","-85.210459","Monday: 07:30:00-17:30:00Tuesday: 07:30:00-17:30:00Wednesday: 07:30:00-17:30:00Thursday: 07:30:00-17:30:00Friday: 07:30:00-17:30:00Saturday: 08:00:00-12:00:00Sunday: 00:00:00-00:00:00","https://www.napaonline.com/en/auto-parts-stores-near-me/ky/shelbyville"
"https://www.napaonline.com","NAPA Auto Parts - NAPA Auto Parts NTN013","299 Highway 44 E","Shepherdsville","KY","40165","US","39191","(502) 543-6895","<MISSING>","37.990090749293","-85.7121581740921","Mon 7:00 AM - 7:30 PM, Tues 7:00 AM - 7:30 PM, Wed 7:00 AM - 7:30 PM, Thurs 7:00 AM - 7:30 PM, Fri 7:00 AM - 7:30 PM, Sat 8:00 AM - 5:00 PM, Sun 10:00 AM - 4:00 PM","https://www.napaonline.com/en/auto-parts-stores-near-me/ky/shepherdsville"
"https://www.napaonline.com","NAPA Auto Parts - Somerset Automotive Inc","1651 S Highway 27","Somerset","KY","42501","US","<MISSING>","(606) 679-6354","AutoPartsStore","37.070831","-84.620742","Monday: 08:00:00-17:00:00Tuesday: 08:00:00-17:00:00Wednesday: 08:00:00-17:00:00Thursday: 08:00:00-17:00:00Friday: 08:00:00-17:00:00Saturday: 08:00:00-12:00:00Sunday: 00:00:00-00:00:00","https://www.napaonline.com/en/auto-parts-stores-near-me/ky/somerset"
"https://www.napaonline.com","NAPA Auto Parts - South Williamson - 202 Appalachian Plz","202 Appalachian Plz","South Williamson","KY","41503","US","22139","(606) 237-9740","<MISSING>","37.6681914368624","-82.2755035758018","Mon 7:30 AM - 6:00 PM, Tues 7:30 AM - 6:00 PM, Wed 7:30 AM - 6:00 PM, Thurs 7:30 AM - 6:00 PM, Fri 7:30 AM - 6:00 PM, Sat 9:00 AM - 5:00 PM, Sun 9:00 AM - 5:00 PM","https://www.napaonline.com/en/auto-parts-stores-near-me/ky/south-williamson"
"https://www.napaonline.com","NAPA Auto Parts - Springfield Auto & Farm Supply","104 E Depot St","Springfield","KY","40069","US","23931","(859) 336-9063","<MISSING>","37.6834191371999","-85.2221998572349","Mon 8:00 AM - 5:30 PM, Tues 8:00 AM - 5:30 PM, Wed 8:00 AM - 5:30 PM, Thurs 8:00 AM - 5:30 PM, Fri 8:00 AM - 5:30 PM, Sat 8:00 AM - 3:00 PM, Sun Closed","https://www.napaonline.com/en/auto-parts-stores-near-me/ky/springfield"
"https://www.napaonline.com","NAPA Auto Parts - King Auto Parts LLC","1209 N Main St","Tompkinsville","KY","42167","US","21359","(270) 487-9226","<MISSING>","36.7174963521788","-85.6872881948947","Mon 8:00 AM - 6:00 PM, Tues 8:00 AM - 6:00 PM, Wed 8:00 AM - 6:00 PM, Thurs 8:00 AM - 6:00 PM, Fri 8:00 AM - 6:00 PM, Sat 8:00 AM - 3:00 PM, Sun Closed","https://www.napaonline.com/en/auto-parts-stores-near-me/ky/tompkinsville"
"https://www.napaonline.com","NAPA Auto Parts - Vanceburg Auto Parts","386 Clarksburg Rd","Vanceburg","KY","41179","US","30223","(606) 796-3733","<MISSING>","38.5989746224311","-83.3312761597222","Mon 8:00 AM - 5:30 PM, Tues 8:00 AM - 5:30 PM, Wed 8:00 AM - 5:30 PM, Thurs 8:00 AM - 5:30 PM, Fri 8:00 AM - 5:30 PM, Sat 8:00 AM - 2:00 PM, Sun Closed","https://www.napaonline.com/en/auto-parts-stores-near-me/ky/vanceburg"
"https://www.napaonline.com","NAPA Auto Parts - Chapman Enterprises","255 N Main St","Versailles","KY","40383","US","<MISSING>","(859) 879-0344","AutoPartsStore","38.056621","-84.730112","Monday: 07:30:00-18:00:00Tuesday: 07:30:00-18:00:00Wednesday: 07:30:00-18:00:00Thursday: 07:30:00-18:00:00Friday: 07:30:00-18:00:00Saturday: 08:00:00-16:00:00Sunday: 00:00:00-00:00:00","https://www.napaonline.com/en/auto-parts-stores-near-me/ky/versailles"
"https://www.napaonline.com","NAPA Auto Parts - Howard's West Liberty","1097 W Main St","West Liberty","KY","41472","US","31325","(606) 743-3597","<MISSING>","37.9029981","-83.2780039","Mon 8:00 AM - 6:00 PM, Tues 8:00 AM - 6:00 PM, Wed 8:00 AM - 6:00 PM, Thurs 8:00 AM - 6:00 PM, Fri 8:00 AM - 6:00 PM, Sat 8:00 AM - 4:00 PM, Sun 11:00 AM - 3:00 PM","https://www.napaonline.com/en/auto-parts-stores-near-me/ky/west-liberty"
"https://www.napaonline.com","NAPA Auto Parts - B&H Auto Sales","1326 North Highway 27","Whitley City","KY","42653","US","21500","(606) 376-8929","<MISSING>","36.7386185","-84.4715652","Mon 8:00 AM - 6:00 PM, Tues 8:00 AM - 6:00 PM, Wed 8:00 AM - 6:00 PM, Thurs 8:00 AM - 6:00 PM, Fri 8:00 AM - 6:00 PM, Sat 8:00 AM - 5:00 PM, Sun Closed","https://www.napaonline.com/en/auto-parts-stores-near-me/ky/whitley-city"
"https://www.napaonline.com","NAPA Auto Parts - Childers Tire Co","37 Highway 2034","Whitesburg","KY","41858","US","27474","(606) 633-0141","<MISSING>","37.1131177","-82.8024281","Mon 7:00 AM - 7:00 PM, Tues 7:00 AM - 7:00 PM, Wed 7:00 AM - 7:00 PM, Thurs 7:00 AM - 7:00 PM, Fri 7:00 AM - 7:00 PM, Sat 7:00 AM - 7:00 PM, Sun 9:00 AM - 6:00 PM","https://www.napaonline.com/en/auto-parts-stores-near-me/ky/whitesburg"
"https://www.napaonline.com","NAPA Auto Parts - Auto Tire And Parts","435 Green St","Wickliffe","KY","42087","US","30668","(270) 335-5146","<MISSING>","36.968460291865156","-89.08791818356616","Mon 7:30 AM - 5:00 PM, Tues 7:30 AM - 5:00 PM, Wed 7:30 AM - 5:00 PM, Thurs 7:30 AM - 5:00 PM, Fri 7:30 AM - 5:00 PM, Sat 7:30 AM - 12:00 PM, Sun Closed","https://www.napaonline.com/en/auto-parts-stores-near-me/ky/wickliffe"
"https://www.napaonline.com","NAPA Auto Parts - AUTO PARTS OF WILLIAMSBURG","1625 S. HWY 25W","Williamsburg","KY","40769","US","<MISSING>","(606) 549-2000","AutoPartsStore","36.722567","-84.162347","Monday: 08:00:00-18:00:00Tuesday: 08:00:00-18:00:00Wednesday: 08:00:00-18:00:00Thursday: 08:00:00-18:00:00Friday: 08:00:00-18:00:00Saturday: 08:00:00-16:00:00Sunday: 00:00:00-00:00:00","https://www.napaonline.com/en/auto-parts-stores-near-me/ky/williamsburg"
"https://www.napaonline.com","NAPA Auto Parts - SCA Winchester","20 S Highland St","Winchester","KY","40391","US","23720","(859) 744-3232","<MISSING>","37.9924752022571","-84.1758774966001","Mon 7:00 AM - 5:30 PM, Tues 7:00 AM - 5:30 PM, Wed 7:00 AM - 5:30 PM, Thurs 7:00 AM - 5:30 PM, Fri 7:00 AM - 5:30 PM, Sat 8:00 AM - 12:00 PM, Sun Closed","https://www.napaonline.com/en/auto-parts-stores-near-me/ky/winchester"
"https://www.napaonline.com","NAPA Auto Parts - County Motor Parts Alpine","1347 Tavern Rd Ste 6-7","Alpine","CA","91901","US","801300","(619) 445-6242","<MISSING>","32.8367363","-116.7758764","Mon 8:00 AM - 6:00 PM, Tues 8:00 AM - 6:00 PM, Wed 8:00 AM - 6:00 PM, Thurs 8:00 AM - 6:00 PM, Fri 8:00 AM - 6:00 PM, Sat 8:00 AM - 4:00 PM, Sun 9:00 AM - 3:00 PM","https://www.napaonline.com/en/auto-parts-stores-near-me/ca/alpine"
"https://www.napaonline.com","NAPA Auto Parts - Alturas Auto Parts","303 W 12th St","Alturas","CA","96101","US","24438","(530) 233-3556","<MISSING>","41.494063610423","-120.545865297317","Mon 8:00 AM - 5:00 PM, Tues 8:00 AM - 5:00 PM, Wed 8:00 AM - 5:00 PM, Thurs 8:00 AM - 5:00 PM, Fri 8:00 AM - 5:00 PM, Sat 9:00 AM - 3:00 PM, Sun Closed","https://www.napaonline.com/en/auto-parts-stores-near-me/ca/alturas"
"https://www.napaonline.com","NAPA Auto Parts - Taylor Auto Parts #1","2500 Balls Ferry Rd","Anderson","CA","96007","US","26695","(530) 365-9141","<MISSING>","40.4532272","-122.2904355","Mon 7:30 AM - 6:00 PM, Tues 7:30 AM - 6:00 PM, Wed 7:30 AM - 6:00 PM, Thurs 7:30 AM - 6:00 PM, Fri 7:30 AM - 6:00 PM, Sat 8:00 AM - 5:00 PM, Sun Closed","https://www.napaonline.com/en/auto-parts-stores-near-me/ca/anderson"
"https://www.napaonline.com","NAPA Auto Parts - NAPA Auto Parts Anaheim","2911 E la Palma Ave","Anaheim","CA","92806","US","<MISSING>","(714) 630-4200","AutoPartsStore","33.84955","-117.865208","Monday: 07:30:00-18:00:00Tuesday: 07:30:00-18:00:00Wednesday: 07:30:00-18:00:00Thursday: 07:30:00-18:00:00Friday: 07:30:00-18:00:00Saturday: 08:00:00-16:00:00Sunday: 00:00:00-00:00:00","https://www.napaonline.com/en/auto-parts-stores-near-me/ca/anaheim"
"https://www.napaonline.com","NAPA Auto Parts - Antioch Automotive Supply","801 Sunset Dr","Antioch","CA","94509","US","23234","(925) 757-3590","<MISSING>","37.9985828493561","-121.793610155582","Mon 8:00 AM - 7:00 PM, Tues 8:00 AM - 7:00 PM, Wed 8:00 AM - 7:00 PM, Thurs 8:00 AM - 7:00 PM, Fri 8:00 AM - 7:00 PM, Sat 8:30 AM - 5:00 PM, Sun 9:00 AM - 5:00 PM","https://www.napaonline.com/en/auto-parts-stores-near-me/ca/antioch"
"https://www.napaonline.com","NAPA Auto Parts - Frontier Auto Supply","1056 S Main Street","Angels Camp","CA","95222","US","27667","(209) 736-4546","<MISSING>","38.0715899972334","-120.542183294892","Mon 7:00 AM - 7:00 PM, Tues 7:00 AM - 7:00 PM, Wed 7:00 AM - 7:00 PM, Thurs 7:00 AM - 7:00 PM, Fri 7:00 AM - 7:00 PM, Sat 7:30 AM - 5:00 PM, Sun 8:00 AM - 4:00 PM","https://www.napaonline.com/en/auto-parts-stores-near-me/ca/angels-camp"
"https://www.napaonline.com","NAPA Auto Parts - Auto Parts of Anza","56040 US Highway 371","Anza","CA","92539","US","31074","(951) 763-1400","<MISSING>","33.5553994799031","-116.682636067271","Mon 8:00 AM - 5:00 PM, Tues 8:00 AM - 5:00 PM, Wed 8:00 AM - 5:00 PM, Thurs 8:00 AM - 5:00 PM, Fri 8:00 AM - 5:00 PM, Sat 8:00 AM - 4:00 PM, Sun Closed","https://www.napaonline.com/en/auto-parts-stores-near-me/ca/anza"
"https://www.napaonline.com","NAPA Auto Parts - Apple Valley Auto Parts","21745 US Highway 18","Apple Valley","CA","92307","US","21803","(760) 247-6632","<MISSING>","34.5000635983248","-117.189301997423","Mon 8:00 AM - 6:00 PM, Tues 8:00 AM - 6:00 PM, Wed 8:00 AM - 6:00 PM, Thurs 8:00 AM - 6:00 PM, Fri 8:00 AM - 6:00 PM, Sat 8:00 AM - 5:00 PM, Sun 9:00 AM - 5:00 PM","https://www.napaonline.com/en/auto-parts-stores-near-me/ca/apple-valley"
"https://www.napaonline.com","NAPA Auto Parts - Auto Parts of Arcata","1225 Giuntoli Ln","Arcata","CA","95521","US","26134","(707) 822-4685","<MISSING>","40.9046988415808","-124.080576896667","Mon 8:00 AM - 6:00 PM, Tues 8:00 AM - 6:00 PM, Wed 8:00 AM - 6:00 PM, Thurs 8:00 AM - 6:00 PM, Fri 8:00 AM - 6:00 PM, Sat 9:00 AM - 5:00 PM, Sun 9:00 AM - 4:00 PM","https://www.napaonline.com/en/auto-parts-stores-near-me/ca/arcata"
"https://www.napaonline.com","NAPA Auto Parts - Boyds Auto Parts","409 Hall Street","Arbuckle","CA","95912","US","28073","(530) 476-2258","<MISSING>","39.0176874323763","-122.056045532226","Mon 7:30 AM - 5:00 PM, Tues 7:30 AM - 5:00 PM, Wed 7:30 AM - 5:00 PM, Thurs 7:30 AM - 5:00 PM, Fri 7:30 AM - 5:00 PM, Sat 8:00 AM - 5:00 PM, Sun Closed","https://www.napaonline.com/en/auto-parts-stores-near-me/ca/arbuckle"
"https://www.napaonline.com","NAPA Auto Parts - Latta's Auto Supplies","748 Broadway Ave","Atwater","CA","95301","US","25112","(209) 358-5675","<MISSING>","37.3451201605432","-120.604684799909","Mon 8:00 AM - 5:30 PM, Tues 8:00 AM - 5:30 PM, Wed 8:00 AM - 5:30 PM, Thurs 8:00 AM - 5:30 PM, Fri 8:00 AM - 5:30 PM, Sat 8:00 AM - 2:00 PM, Sun Closed","https://www.napaonline.com/en/auto-parts-stores-near-me/ca/atwater"
"https://www.napaonline.com","NAPA Auto Parts - Arnold Auto Supply","1801 Hwy 4","Arnold","CA","95223","US","31410","(209) 795-2722","<MISSING>","38.2467219733238","-120.359481275081","Mon 8:00 AM - 5:00 PM, Tues 8:00 AM - 5:00 PM, Wed 8:00 AM - 5:00 PM, Thurs 8:00 AM - 5:00 PM, Fri 8:00 AM - 5:00 PM, Sat 8:00 AM - 4:00 PM, Sun Closed","https://www.napaonline.com/en/auto-parts-stores-near-me/ca/arnold"
"https://www.napaonline.com","NAPA Auto Parts - CenCal","31958 Lodge Rd","Auberry","CA","93602","US","21854","(559) 855-2516","<MISSING>","37.045892042087644","-119.4746735269245","Mon 8:00 AM - 5:30 PM, Tues 8:00 AM - 5:30 PM, Wed 8:00 AM - 5:30 PM, Thurs 8:00 AM - 5:30 PM, Fri 8:00 AM - 5:30 PM, Sat 8:00 AM - 4:00 PM, Sun 9:00 AM - 3:00 PM","https://www.napaonline.com/en/auto-parts-stores-near-me/ca/auberry"
"https://www.napaonline.com","NAPA Auto Parts - Dills Auto Supply Co","821 Skyline Blvd","Avenal","CA","93204","US","21428","(559) 386-5141","<MISSING>","36.0060195","-120.125885","Mon 8:00 AM - 6:00 PM, Tues 8:00 AM - 6:00 PM, Wed 8:00 AM - 6:00 PM, Thurs 8:00 AM - 6:00 PM, Fri 8:00 AM - 6:00 PM, Sat 8:00 AM - 1:00 PM, Sun Closed","https://www.napaonline.com/en/auto-parts-stores-near-me/ca/avenal"
"https://www.napaonline.com","NAPA Auto Parts - Mojave Auto Parts Inc","1420 W Main St","Barstow","CA","92311","US","26228","(760) 256-6841","<MISSING>","34.8946589","-117.0442101","Mon 7:00 AM - 5:30 PM, Tues 7:00 AM - 5:30 PM, Wed 7:00 AM - 5:30 PM, Thurs 7:00 AM - 5:30 PM, Fri 7:00 AM - 5:30 PM, Sat 8:00 AM - 4:30 PM, Sun 9:00 AM - 3:00 PM","https://www.napaonline.com/en/auto-parts-stores-near-me/ca/barstow"
"https://www.napaonline.com","NAPA Auto Parts - Auto Parts of Big Bear","41506 Big Bear Blvd","Big Bear Lake","CA","92315","US","28183","(909) 866-7533","<MISSING>","34.2438785378872","-116.896548271179","Mon 8:30 AM - 5:00 PM, Tues 8:30 AM - 5:00 PM, Wed 8:30 AM - 5:00 PM, Thurs 8:30 AM - 5:00 PM, Fri 8:30 AM - 5:00 PM, Sat 9:00 AM - 4:00 PM, Sun 9:00 AM - 3:00 PM","https://www.napaonline.com/en/auto-parts-stores-near-me/ca/big-bear-lake"
"https://www.napaonline.com","NAPA Auto Parts - Auto Of Beaumont","636 Beaumont Ave","Beaumont","CA","92223","US","<MISSING>","(951) 845-2644","AutoPartsStore","33.930095","-116.976943","Monday: 07:30:00-18:00:00Tuesday: 07:30:00-18:00:00Wednesday: 07:30:00-18:00:00Thursday: 07:30:00-18:00:00Friday: 07:30:00-18:00:00Saturday: 08:00:00-17:00:00Sunday: 09:00:00-16:00:00","https://www.napaonline.com/en/auto-parts-stores-near-me/ca/beaumont"
"https://www.napaonline.com","NAPA Auto Parts - Steves Auto & Truck Parts","555 S Main St","Bishop","CA","93514","US","22093","(760) 873-7131","<MISSING>","37.3560974","-118.3954623","Mon 7:30 AM - 6:00 PM, Tues 7:30 AM - 6:00 PM, Wed 7:30 AM - 6:00 PM, Thurs 7:30 AM - 6:00 PM, Fri 7:30 AM - 6:00 PM, Sat 8:00 AM - 4:30 PM, Sun Closed","https://www.napaonline.com/en/auto-parts-stores-near-me/ca/bishop"
"https://www.napaonline.com","NAPA Auto Parts - Pine Mountain Auto Supply","11239 Wards Ferry Road","Big Oak Flat","CA","95305","US","31559","(209) 962-4877","<MISSING>","37.8279108","-120.2527309","Mon 8:00 AM - 5:00 PM, Tues 8:00 AM - 5:00 PM, Wed 8:00 AM - 5:00 PM, Thurs 8:00 AM - 5:00 PM, Fri 8:00 AM - 5:00 PM, Sat 10:00 AM - 2:00 PM, Sun Closed","https://www.napaonline.com/en/auto-parts-stores-near-me/ca/big-oak-flat"
"https://www.napaonline.com","NAPA Auto Parts - County Motor Parts","301 N Main St","Blythe","CA","92225","US","<MISSING>","(760) 922-2141","AutoPartsStore","33.614382","-114.600077","Monday: 06:30:00-17:30:00Tuesday: 06:30:00-17:30:00Wednesday: 06:30:00-17:30:00Thursday: 06:30:00-17:30:00Friday: 06:30:00-17:30:00Saturday: 07:00:00-13:00:00Sunday: 00:00:00-00:00:00","https://www.napaonline.com/en/auto-parts-stores-near-me/ca/blythe"
"https://www.napaonline.com","NAPA Auto Parts - County Motor Parts Brawley","1045 Main St","Brawley","CA","92227","US","29724","(760) 351-8880","<MISSING>","32.9790117997341","-115.525685995817","Mon 7:00 AM - 6:00 PM, Tues 7:00 AM - 6:00 PM, Wed 7:00 AM - 6:00 PM, Thurs 7:00 AM - 6:00 PM, Fri 7:00 AM - 6:00 PM, Sat 7:00 AM - 5:00 PM, Sun 8:00 AM - 3:00 PM","https://www.napaonline.com/en/auto-parts-stores-near-me/ca/brawley"
"https://www.napaonline.com","NAPA Auto Parts - Borrengo Auto Parts & Supply","2476 Stirrup Rd","Borrego Springs","CA","92004","US","26345","(760) 767-5316","<MISSING>","33.2574958","-116.3715744","Mon 8:00 AM - 5:30 PM, Tues 8:00 AM - 5:30 PM, Wed 8:00 AM - 5:30 PM, Thurs 8:00 AM - 5:30 PM, Fri 8:00 AM - 5:30 PM, Sat 8:00 AM - 12:00 PM, Sun Closed","https://www.napaonline.com/en/auto-parts-stores-near-me/ca/borrego-springs"
"https://www.napaonline.com","NAPA Auto Parts - Jacksons Auto Supply","231 N puente St","Brea","CA","92821","US","<MISSING>","(714) 529-3987","AutoPartsStore","33.921488","-117.916232","Monday: 07:30:00-19:00:00Tuesday: 07:30:00-19:00:00Wednesday: 07:30:00-19:00:00Thursday: 07:30:00-19:00:00Friday: 07:30:00-19:00:00Saturday: 08:00:00-18:00:00Sunday: 09:00:00-17:00:00","https://www.napaonline.com/en/auto-parts-stores-near-me/ca/brea"
"https://www.napaonline.com","NAPA Auto Parts - Brentwood Auto Parts Inc","7881 Brentwood Blvd","Brentwood","CA","94513","US","<MISSING>","(925) 634-3952","AutoPartsStore","37.944601","-121.696208","Monday: 07:30:00-19:00:00Tuesday: 07:30:00-19:00:00Wednesday: 07:30:00-19:00:00Thursday: 07:30:00-19:00:00Friday: 07:30:00-19:00:00Saturday: 08:00:00-19:00:00Sunday: 09:00:00-17:00:00","https://www.napaonline.com/en/auto-parts-stores-near-me/ca/brentwood"
"https://www.napaonline.com","NAPA Auto Parts - Annett & Sons Auto Parts","Highway 395 & Hayes Street","Bridgeport","CA","93517","US","<MISSING>","(760) 932-7043","AutoPartsStore","38.256166","-119.224715","Monday: 08:00:00-16:00:00Tuesday: 08:00:00-16:00:00Wednesday: 08:00:00-16:00:00Thursday: 08:00:00-16:00:00Friday: 08:00:00-16:00:00Saturday: 10:00:00-13:00:00Sunday: 00:00:00-00:00:00","https://www.napaonline.com/en/auto-parts-stores-near-me/ca/bridgeport"
"https://www.napaonline.com","NAPA Auto Parts - Burbank - 736 N Victory Blvd","736 N Victory Blvd","Burbank","CA","91502","US","39685","(818) 842-2900","<MISSING>","34.1819036254998","-118.320168256759","Mon 7:30 AM - 7:00 PM, Tues 7:30 AM - 7:00 PM, Wed 7:30 AM - 7:00 PM, Thurs 7:30 AM - 7:00 PM, Fri 7:30 AM - 7:00 PM, Sat 8:00 AM - 5:00 PM, Sun 8:00 AM - 4:00 PM","https://www.napaonline.com/en/auto-parts-stores-near-me/ca/burbank"
"https://www.napaonline.com","NAPA Auto Parts - Burlingame Auto Supply","127 California Dr","Burlingame","CA","94010","US","22047","(650) 342-6661","<MISSING>","37.5782476347954","-122.342906445264","Mon 8:00 AM - 5:00 PM, Tues 8:00 AM - 5:00 PM, Wed 8:00 AM - 5:00 PM, Thurs 8:00 AM - 5:00 PM, Fri 8:00 AM - 5:00 PM, Sat 9:00 AM - 4:00 PM, Sun Closed","https://www.napaonline.com/en/auto-parts-stores-near-me/ca/burlingame"
"https://www.napaonline.com","NAPA Auto Parts - Mountain Motor Parts","37325 State Highway 299 E","Burney","CA","96013","US","27025","(530) 335-4544","<MISSING>","40.885522","-121.656703","Mon 8:00 AM - 5:00 PM, Tues 8:00 AM - 5:00 PM, Wed 8:00 AM - 5:00 PM, Thurs 8:00 AM - 5:00 PM, Fri 8:00 AM - 5:00 PM, Sat 9:00 AM - 3:00 PM, Sun Closed","https://www.napaonline.com/en/auto-parts-stores-near-me/ca/burney"
"https://www.napaonline.com","NAPA Auto Parts - Auto Parts of Buttonwillow","42914 Highway 58","Buttonwillow","CA","93206","US","31820","(661) 764-6505","<MISSING>","35.3995018","-119.4788131","Mon 7:00 AM - 6:00 PM, Tues 7:00 AM - 6:00 PM, Wed 7:00 AM - 6:00 PM, Thurs 7:00 AM - 6:00 PM, Fri 7:00 AM - 6:00 PM, Sat 7:00 AM - 5:00 PM, Sun 8:00 AM - 3:00 PM","https://www.napaonline.com/en/auto-parts-stores-near-me/ca/buttonwillow"
"https://www.napaonline.com","NAPA Auto Parts - County Motor Parts Calexico","839 Emerson Ave","Calexico","CA","92231","US","31484","(760) 357-4430","<MISSING>","32.6757360969665","-115.50023317337","Mon 7:00 AM - 6:00 PM, Tues 7:00 AM - 6:00 PM, Wed 7:00 AM - 6:00 PM, Thurs 7:00 AM - 6:00 PM, Fri 7:00 AM - 6:00 PM, Sat 7:00 AM - 4:00 PM, Sun Closed","https://www.napaonline.com/en/auto-parts-stores-near-me/ca/calexico"
"https://www.napaonline.com","NAPA Auto Parts - County Motor Parts Calipatria","235 Main St","Calipatria","CA","92233","US","24528","(760) 348-5031","<MISSING>","33.1255658450374","-115.510487258434","Mon 7:00 AM - 5:00 PM, Tues 7:00 AM - 5:00 PM, Wed 7:00 AM - 5:00 PM, Thurs 7:00 AM - 5:00 PM, Fri 7:00 AM - 5:00 PM, Sat 7:00 AM - 3:00 PM, Sun Closed","https://www.napaonline.com/en/auto-parts-stores-near-me/ca/calipatria"
"https://www.napaonline.com","NAPA Auto Parts - AV Auto Parts Inc","8401 California City Blvd #2","California City","CA","93505","US","28217","(760) 373-4835","<MISSING>","35.126342250087994","-117.97848727055225","Mon 8:00 AM - 6:00 PM, Tues 8:00 AM - 6:00 PM, Wed 8:00 AM - 6:00 PM, Thurs 8:00 AM - 6:00 PM, Fri 8:00 AM - 6:00 PM, Sat 8:00 AM - 4:00 PM, Sun Closed","https://www.napaonline.com/en/auto-parts-stores-near-me/ca/california-city"
"https://www.napaonline.com","NAPA Auto Parts - V. C. Auto Parts - Camarillo","2221 Pickwick Dr","Camarillo","CA","93010","US","28181","(805) 484-4848","<MISSING>","34.2231181050885","-119.040055721998","Mon 8:00 AM - 6:00 PM, Tues 8:00 AM - 6:00 PM, Wed 8:00 AM - 6:00 PM, Thurs 8:00 AM - 6:00 PM, Fri 8:00 AM - 6:00 PM, Sat 8:00 AM - 5:00 PM, Sun 9:00 AM - 3:00 PM","https://www.napaonline.com/en/auto-parts-stores-near-me/ca/camarillo"
"https://www.napaonline.com","NAPA Auto Parts - Cambria Auto Supply LP","2501 Village Ln Ste G","Cambria","CA","93428","US","25790","(805) 927-8642","<MISSING>","35.5634406","-121.0791693","Mon 8:00 AM - 5:00 PM, Tues 8:00 AM - 5:00 PM, Wed 8:00 AM - 5:00 PM, Thurs 8:00 AM - 5:00 PM, Fri 8:00 AM - 5:00 PM, Sat 8:00 AM - 5:00 PM, Sun Closed","https://www.napaonline.com/en/auto-parts-stores-near-me/ca/cambria"
"https://www.napaonline.com","NAPA Auto Parts - Canoga Auto Parts","21400 Roscoe Blvd","Canoga Park","CA","91304","US","30135","(818) 888-4811","<MISSING>","34.2194985867302","-118.598009571433","Mon 8:00 AM - 7:00 PM, Tues 8:00 AM - 7:00 PM, Wed 8:00 AM - 7:00 PM, Thurs 8:00 AM - 7:00 PM, Fri 8:00 AM - 7:00 PM, Sat 8:00 AM - 5:00 PM, Sun 9:00 AM - 4:00 PM","https://www.napaonline.com/en/auto-parts-stores-near-me/ca/canoga-park"
"https://www.napaonline.com","NAPA Auto Parts - Jaco Santa Clarita Auto Parts","20541 Soledad Canyon Rd","Canyon Country","CA","91351","US","26188","(661) 252-8011","<MISSING>","34.4213817964892","-118.495573326945","Mon 7:30 AM - 6:00 PM, Tues 7:30 AM - 6:00 PM, Wed 7:30 AM - 6:00 PM, Thurs 7:30 AM - 6:00 PM, Fri 7:30 AM - 6:00 PM, Sat 8:00 AM - 5:00 PM, Sun 9:00 AM - 4:00 PM","https://www.napaonline.com/en/auto-parts-stores-near-me/ca/canyon-country"
"https://www.napaonline.com","NAPA Auto Parts - Coast Auto Parts","901 Linden Ave Ste C","Carpinteria","CA","93013","US","22108","(805) 684-6688","<MISSING>","34.3985806","-119.5193338","Mon 8:00 AM - 5:00 PM, Tues 8:00 AM - 5:00 PM, Wed 8:00 AM - 5:00 PM, Thurs 8:00 AM - 5:00 PM, Fri 8:00 AM - 5:00 PM, Sat 8:00 AM - 3:00 PM, Sun Closed","https://www.napaonline.com/en/auto-parts-stores-near-me/ca/carpinteria"
"https://www.napaonline.com","NAPA Auto Parts - Carson Auto Parts","518 E Sepulveda Blvd","Carson","CA","90745","US","22711","(310) 835-8307","<MISSING>","33.8079586","-118.2656439","Mon 8:00 AM - 5:00 PM, Tues 8:00 AM - 5:00 PM, Wed 8:00 AM - 5:00 PM, Thurs 8:00 AM - 5:00 PM, Fri 8:00 AM - 5:00 PM, Sat Closed Sun Closed","https://www.napaonline.com/en/auto-parts-stores-near-me/ca/carson"
"https://www.napaonline.com","NAPA Auto Parts - Genuine Parts Company","5025 Marconi Ave, Suite D","Carmichael","CA","95608","US","<MISSING>","(916) 883-3516","AutoPartsStore","38.618685","-121.346713","Monday: 07:30:00-21:00:00Tuesday: 07:30:00-21:00:00Wednesday: 07:30:00-21:00:00Thursday: 07:30:00-21:00:00Friday: 07:30:00-21:00:00Saturday: 07:30:00-21:00:00Sunday: 08:00:00-20:00:00","https://www.napaonline.com/en/auto-parts-stores-near-me/ca/carmichael"
"https://www.napaonline.com","NAPA Auto Parts - Castroville Auto & Truck Parts","11501 Merritt St","Castroville","CA","95012","US","28096","(831) 633-6272","<MISSING>","36.7606376877845","-121.750763207674","Mon 7:00 AM - 6:00 PM, Tues 7:00 AM - 6:00 PM, Wed 7:00 AM - 6:00 PM, Thurs 7:00 AM - 6:00 PM, Fri 7:00 AM - 6:00 PM, Sat 7:30 AM - 3:00 PM, Sun Closed","https://www.napaonline.com/en/auto-parts-stores-near-me/ca/castroville"
"https://www.napaonline.com","NAPA Auto Parts - Caruthers Auto Supply","2318 W Tahoe Ave","Caruthers","CA","93609","US","23980","(559) 864-9454","<MISSING>","36.54242091548945","-119.83324861226845","Mon 7:00 AM - 5:30 PM, Tues 7:00 AM - 5:30 PM, Wed 7:00 AM - 5:30 PM, Thurs 7:00 AM - 5:30 PM, Fri 7:00 AM - 5:30 PM, Sat 8:00 AM - 5:00 PM, Sun Closed","https://www.napaonline.com/en/auto-parts-stores-near-me/ca/caruthers"
"https://www.napaonline.com","NAPA Auto Parts - Desert Area Corporation","68733 E Palm Canyon Dr","Cathedral City","CA","92234","US","23539","(760) 328-8804","<MISSING>","33.778886489108","-116.462684869766","Mon 7:30 AM - 6:00 PM, Tues 7:30 AM - 6:00 PM, Wed 7:30 AM - 6:00 PM, Thurs 7:30 AM - 6:00 PM, Fri 7:30 AM - 6:00 PM, Sat 8:00 AM - 4:00 PM, Sun Closed","https://www.napaonline.com/en/auto-parts-stores-near-me/ca/cathedral-city"
"https://www.napaonline.com","NAPA Auto Parts - Chester Auto Parts","445 Main Street","Chester","CA","96020","US","26321","(530) 258-3151","<MISSING>","40.3020143695697","-121.234824210405","Mon 8:00 AM - 5:00 PM, Tues 8:00 AM - 5:00 PM, Wed 8:00 AM - 5:00 PM, Thurs 8:00 AM - 5:00 PM, Fri 8:00 AM - 5:00 PM, Sat 8:00 AM - 3:00 PM, Sun Closed","https://www.napaonline.com/en/auto-parts-stores-near-me/ca/chester"
"https://www.napaonline.com","NAPA Auto Parts - Riebe's Auto Parts -  Auburn","200 Palm Ave","Auburn","CA","95603","US","24356","(530) 885-5134","<MISSING>","38.9078550820581","-121.076345999999","Mon 7:00 AM - 7:00 PM, Tues 7:00 AM - 7:00 PM, Wed 7:00 AM - 7:00 PM, Thurs 7:00 AM - 7:00 PM, Fri 7:00 AM - 7:00 PM, Sat 8:00 AM - 6:00 PM, Sun 8:00 AM - 5:00 PM","https://www.napaonline.com/stores/ca/auburn/200-palm-ave?sdref=footer"
"https://www.napaonline.com","NAPA Auto Parts - Riebe's Auto Parts - Auburn North","2345 Grass Valley Hwy","Auburn","CA","95603","US","27590","(530) 885-2496","<MISSING>","38.9355945","-121.0946952","Mon 8:00 AM - 6:00 PM, Tues 8:00 AM - 6:00 PM, Wed 8:00 AM - 6:00 PM, Thurs 8:00 AM - 6:00 PM, Fri 8:00 AM - 6:00 PM, Sat 8:00 AM - 4:00 PM, Sun 9:00 AM - 4:00 PM","https://www.napaonline.com/stores/ca/auburn/2345-grass-valley-hwy?sdref=footer"
"https://www.napaonline.com","NAPA Auto Parts - NAPA Auto Parts NTN003","717 Lyndon Ln","Louisville","KY","40222","US","24437","(502) 425-8131","<MISSING>","38.261274565999","-85.6055410248428","Mon 7:00 AM - 7:30 PM, Tues 7:00 AM - 7:30 PM, Wed 7:00 AM - 7:30 PM, Thurs 7:00 AM - 7:30 PM, Fri 7:00 AM - 7:30 PM, Sat 8:00 AM - 5:00 PM, Sun 10:00 AM - 4:00 PM","https://www.napaonline.com/stores/ky/louisville/717-lyndon-ln?sdref=footer"
"https://www.napaonline.com","NAPA Auto Parts - NAPA Auto Parts NTN010","4101 Taylor Blvd","Louisville","KY","40215","US","<MISSING>","(502) 361-8828","AutoPartsStore","38.182952","-85.783282","Monday: 07:00:00-18:00:00Tuesday: 07:00:00-18:00:00Wednesday: 07:00:00-18:00:00Thursday: 07:00:00-18:00:00Friday: 07:00:00-18:00:00Saturday: 08:00:00-17:00:00Sunday: 10:00:00-16:00:00","https://www.napaonline.com/en/ky/louisville/store/23485?sdref=footer"
"https://www.napaonline.com","NAPA Auto Parts - NAPA Auto Parts NTN002","211 E College St","Louisville","KY","40203","US","<MISSING>","(502) 582-3841","AutoPartsStore","38.243199","-85.750853","Monday: 07:00:00-19:30:00Tuesday: 07:00:00-19:30:00Wednesday: 07:00:00-19:30:00Thursday: 07:00:00-19:30:00Friday: 07:00:00-19:30:00Saturday: 08:00:00-17:00:00Sunday: 10:00:00-16:00:00","https://www.napaonline.com/en/ky/louisville/store/27473?sdref=footer"
"https://www.napaonline.com","NAPA Auto Parts - Bishop Lane District Hub NTN030","3901 Bishop Ln","Louisville","KY","40218","US","<MISSING>","(502) 665-0712","AutoPartsStore","38.187587","-85.695742","Monday: 07:00:00-19:30:00Tuesday: 07:00:00-19:30:00Wednesday: 07:00:00-19:30:00Thursday: 07:00:00-19:30:00Friday: 07:00:00-19:30:00Saturday: 08:00:00-15:00:00Sunday: 10:00:00-16:00:00","https://www.napaonline.com/en/ky/louisville/store/802603?sdref=footer"
"https://www.napaonline.com","NAPA Auto Parts - NAPA Auto Parts NTN019","3612 Fern Valley Rd","Louisville","KY","40219","US","26941","(502) 968-2323","<MISSING>","38.1569394422248","-85.6948855519294","Mon 7:00 AM - 7:30 PM, Tues 7:00 AM - 7:30 PM, Wed 7:00 AM - 7:30 PM, Thurs 7:00 AM - 7:30 PM, Fri 7:00 AM - 7:30 PM, Sat 8:00 AM - 5:00 PM, Sun 10:00 AM - 4:00 PM","https://www.napaonline.com/stores/ky/louisville/3612-fern-valley-rd?sdref=footer"
"https://www.napaonline.com","NAPA Auto Parts - Phoenix - 2711 E Bell Rd","2711 E Bell Rd","Phoenix","AZ","85032","US","31364","(602) 344-2000","<MISSING>","33.6399992078223","-112.02365309","Mon 7:00 AM - 7:00 PM, Tues 7:00 AM - 7:00 PM, Wed 7:00 AM - 7:00 PM, Thurs 7:00 AM - 7:00 PM, Fri 7:00 AM - 7:00 PM, Sat 8:00 AM - 5:00 PM, Sun 8:00 AM - 4:00 PM","https://www.napaonline.com/stores/az/phoenix/2711-e-bell-rd?sdref=footer"
"https://www.napaonline.com","NAPA Auto Parts - Phoenix - 9425 N 7th St","9425 N 7th St","Phoenix","AZ","85020","US","36406","(602) 331-2437","<MISSING>","33.5720726385122","-112.064811587333","Mon 7:00 AM - 7:00 PM, Tues 7:00 AM - 7:00 PM, Wed 7:00 AM - 7:00 PM, Thurs 7:00 AM - 7:00 PM, Fri 7:00 AM - 7:00 PM, Sat 8:00 AM - 5:00 PM, Sun 8:00 AM - 4:00 PM","https://www.napaonline.com/stores/az/phoenix/9425-n-7th-st?sdref=footer"
"https://www.napaonline.com","NAPA Auto Parts - Van's Auto Parts","7622 W Indian School Rd","Phoenix","AZ","85033","US","31382","(623) 850-6272","<MISSING>","33.4949038","-112.2244161","Mon 7:30 AM - 6:00 PM, Tues 7:30 AM - 6:00 PM, Wed 7:30 AM - 6:00 PM, Thurs 7:30 AM - 6:00 PM, Fri 7:30 AM - 6:00 PM, Sat 8:00 AM - 5:00 PM, Sun Closed","https://www.napaonline.com/stores/az/phoenix/7622-w-indian-school-rd?sdref=footer"
"https://www.napaonline.com","NAPA Auto Parts - Genuine Parts Company","2811 W Thomas Rd","Phoenix","AZ","85017","US","<MISSING>","(602) 272-5611","AutoPartsStore","33.480411","-112.119717","Monday: 06:30:00-20:00:00Tuesday: 06:30:00-20:00:00Wednesday: 06:30:00-20:00:00Thursday: 06:30:00-20:00:00Friday: 06:30:00-20:00:00Saturday: 08:00:00-17:00:00Sunday: 09:00:00-17:00:00","https://www.napaonline.com/en/az/phoenix/store/26596?sdref=footer"
"https://www.napaonline.com","NAPA Auto Parts - Phoenix - 2150 E Thomas Rd","2150 E Thomas Rd","Phoenix","AZ","85016","US","26735","(602) 667-8176","<MISSING>","33.4807443195282","-112.035108804702","Mon 7:00 AM - 7:00 PM, Tues 7:00 AM - 7:00 PM, Wed 7:00 AM - 7:00 PM, Thurs 7:00 AM - 7:00 PM, Fri 7:00 AM - 7:00 PM, Sat 8:00 AM - 5:00 PM, Sun 8:00 AM - 4:00 PM","https://www.napaonline.com/stores/az/phoenix/2150-e-thomas-rd?sdref=footer"
"https://www.napaonline.com","NAPA Auto Parts - Phoenix - 3707 E Broadway Rd","3707 E Broadway Rd","Phoenix","AZ","85040","US","27072","(602) 437-3028","<MISSING>","33.4067992","-112.0013574","Mon 6:00 AM - 6:00 PM, Tues 6:00 AM - 6:00 PM, Wed 6:00 AM - 6:00 PM, Thurs 6:00 AM - 6:00 PM, Fri 6:00 AM - 6:00 PM, Sat 7:00 AM - 4:00 PM, Sun 9:00 AM - 3:00 PM","https://www.napaonline.com/stores/az/phoenix/3707-e-broadway-rd?sdref=footer"
"https://www.napaonline.com","NAPA Auto Parts - Genuine Parts Company","4327 W Van Buren St","Phoenix","AZ","85043","US","<MISSING>","(602) 272-2341","AutoPartsStore","33.450949","-112.153392","Monday: 06:00:00-18:00:00Tuesday: 06:00:00-18:00:00Wednesday: 06:00:00-18:00:00Thursday: 06:00:00-18:00:00Friday: 06:00:00-18:00:00Saturday: 08:00:00-17:00:00Sunday: 09:00:00-15:00:00","https://www.napaonline.com/en/az/phoenix/store/26867?sdref=footer"
"https://www.napaonline.com","NAPA Auto Parts - JRRS Auto & Truck Parts","22840 N 19th Ave","Phoenix","AZ","85027","US","39188","(623) 869-0912","<MISSING>","33.6947156569419","-112.100517153739","Mon 7:00 AM - 6:00 PM, Tues 7:00 AM - 6:00 PM, Wed 7:00 AM - 6:00 PM, Thurs 7:00 AM - 6:00 PM, Fri 7:00 AM - 6:00 PM, Sat 8:00 AM - 5:00 PM, Sun 9:00 AM - 3:00 PM","https://www.napaonline.com/stores/az/phoenix/22840-n-19th-ave?sdref=footer"
"https://www.napaonline.com","NAPA Auto Parts - Phoenix - 424 E Buckeye Rd","424 E Buckeye Rd","Phoenix","AZ","85004","US","26929","(602) 254-6643","<MISSING>","33.4371046","-112.0675948","Mon 7:00 AM - 7:00 PM, Tues 7:00 AM - 7:00 PM, Wed 7:00 AM - 7:00 PM, Thurs 7:00 AM - 7:00 PM, Fri 7:00 AM - 7:00 PM, Sat 8:00 AM - 5:00 PM, Sun 8:00 AM - 4:00 PM","https://www.napaonline.com/stores/az/phoenix/424-e-buckeye-rd?sdref=footer"
"https://www.napaonline.com","NAPA Auto Parts - Chino - 13040 Central Ave","13040 Central Ave","Chino","CA","91710","US","27182","(909) 628-5526","<MISSING>","34.0165162353955","-117.689689546823","Mon 7:30 AM - 6:00 PM, Tues 7:30 AM - 6:00 PM, Wed 7:30 AM - 6:00 PM, Thurs 7:30 AM - 6:00 PM, Fri 7:30 AM - 6:00 PM, Sat 8:00 AM - 5:00 PM, Sun 9:00 AM - 4:00 PM","https://www.napaonline.com/en/auto-parts-stores-near-me/ca/chino"
"https://www.napaonline.com","NAPA Auto Parts - Truck and Trailer Parts","490 Belle Ter","Bakersfield","CA","93307","US","<MISSING>","(661) 377-0212","AutoPartsStore","35.347139","-119.007079","Monday: 07:00:00-16:00:00Tuesday: 07:00:00-16:00:00Wednesday: 07:00:00-16:00:00Thursday: 07:00:00-16:00:00Friday: 07:00:00-16:00:00Saturday: 00:00:00-00:00:00Sunday: 00:00:00-00:00:00","https://www.napaonline.com/en/ca/bakersfield/store/31577?sdref=footer"
"https://www.napaonline.com","NAPA Auto Parts - On Demand Auto Parts Inc","720 Roberts Ln","Bakersfield","CA","93308","US","26612","(661) 399-4420","<MISSING>","35.4088956560709","-119.03516203165","Mon 7:30 AM - 6:00 PM, Tues 7:30 AM - 6:00 PM, Wed 7:30 AM - 6:00 PM, Thurs 7:30 AM - 6:00 PM, Fri 7:30 AM - 6:00 PM, Sat 8:00 AM - 4:00 PM, Sun Closed","https://www.napaonline.com/stores/ca/bakersfield/720-roberts-ln?sdref=footer"
"https://www.napaonline.com","NAPA Auto Parts - S & W Parts Inc","133 Robertson Blvd","Chowchilla","CA","93610","US","27555","(559) 665-4446","<MISSING>","37.1228996003659","-120.259512662887","Mon 7:00 AM - 5:30 PM, Tues 7:00 AM - 5:30 PM, Wed 7:00 AM - 5:30 PM, Thurs 7:00 AM - 5:30 PM, Fri 7:00 AM - 5:30 PM, Sat 7:00 AM - 12:00 PM, Sun Closed","https://www.napaonline.com/en/auto-parts-stores-near-me/ca/chowchilla"
"https://www.napaonline.com","NAPA Auto Parts - Chula Vista - 680 L St","680 L St","Chula Vista","CA","91911","US","27650","(619) 425-6272","<MISSING>","32.61527094434722","-117.08893279192665","Mon 7:30 AM - 7:00 PM, Tues 7:30 AM - 7:00 PM, Wed 7:30 AM - 7:00 PM, Thurs 7:30 AM - 7:00 PM, Fri 7:30 AM - 7:00 PM, Sat 8:00 AM - 4:00 PM, Sun 9:00 AM - 3:00 PM","https://www.napaonline.com/en/auto-parts-stores-near-me/ca/chula-vista"
"https://www.napaonline.com","NAPA Auto Parts - Riebe's Auto Parts - Citrus Heights","8200 Auburn Blvd","Citrus Heights","CA","95610","US","<MISSING>","(916) 726-2431","AutoPartsStore","38.715161","-121.290192","Monday: 07:00:00-18:00:00Tuesday: 07:00:00-18:00:00Wednesday: 07:00:00-18:00:00Thursday: 07:00:00-18:00:00Friday: 07:00:00-18:00:00Saturday: 08:00:00-17:00:00Sunday: 08:00:00-17:00:00","https://www.napaonline.com/en/auto-parts-stores-near-me/ca/citrus-heights"
"https://www.napaonline.com","NAPA Auto Parts - Cloverdale Auto Parts","206 S Cloverdale Blvd","Cloverdale","CA","95425","US","26723","(707) 894-5211","<MISSING>","38.8040091675923","-123.015933036804","Mon 8:00 AM - 5:30 PM, Tues 8:00 AM - 5:30 PM, Wed 8:00 AM - 5:30 PM, Thurs 8:00 AM - 5:30 PM, Fri 8:00 AM - 5:30 PM, Sat 8:00 AM - 5:00 PM, Sun Closed","https://www.napaonline.com/en/auto-parts-stores-near-me/ca/cloverdale"
"https://www.napaonline.com","NAPA Auto Parts - Lake Parts Clearlake","14942 Lakeshore Dr","Clearlake","CA","95422","US","<MISSING>","(707) 994-9421","AutoPartsStore","38.950154","-122.632677","Monday: 08:00:00-17:30:00Tuesday: 08:00:00-17:30:00Wednesday: 08:00:00-17:30:00Thursday: 08:00:00-17:30:00Friday: 08:00:00-17:30:00Saturday: 08:00:00-16:30:00Sunday: 09:00:00-15:00:00","https://www.napaonline.com/en/auto-parts-stores-near-me/ca/clearlake"
"https://www.napaonline.com","NAPA Auto Parts - Desert Area Corporation","49251 Grapefruit Blvd","Coachella","CA","92236","US","20344","(760) 279-6001","<MISSING>","33.6894954","-116.1850208","Mon 7:00 AM - 7:00 PM, Tues 7:00 AM - 7:00 PM, Wed 7:00 AM - 7:00 PM, Thurs 7:00 AM - 7:00 PM, Fri 7:00 AM - 7:00 PM, Sat 7:00 AM - 7:00 PM, Sun 8:00 AM - 4:00 PM","https://www.napaonline.com/en/auto-parts-stores-near-me/ca/coachella"
"https://www.napaonline.com","NAPA Auto Parts - Gpc","604 Clovis Ave","Clovis","CA","93612","US","25557","(559) 299-4381","<MISSING>","36.8227964551161","-119.700967445969","Mon 8:00 AM - 7:00 PM, Tues 8:00 AM - 7:00 PM, Wed 8:00 AM - 7:00 PM, Thurs 8:00 AM - 7:00 PM, Fri 8:00 AM - 7:00 PM, Sat 8:00 AM - 5:00 PM, Sun 9:00 AM - 4:30 PM","https://www.napaonline.com/en/auto-parts-stores-near-me/ca/clovis"
"https://www.napaonline.com","NAPA Auto Parts - C&S Auto Ag and Truck Parts Inc","35335 Highway 41","Coarsegold","CA","93614","US","<MISSING>","(559) 658-5550","AutoPartsStore","37.262024","-119.698621","Monday: 08:00:00-17:30:00Tuesday: 08:00:00-17:30:00Wednesday: 08:00:00-17:30:00Thursday: 08:00:00-17:30:00Friday: 08:00:00-17:30:00Saturday: 08:00:00-16:00:00Sunday: 10:00:00-15:00:00","https://www.napaonline.com/en/auto-parts-stores-near-me/ca/coarsegold"
"https://www.napaonline.com","NAPA Auto Parts - Riebe's Auto Parts - Colfax","130 Whitcomb Ave","Colfax","CA","95713","US","27538","(530) 346-6247","<MISSING>","39.0927727541312","-120.952842906117","Mon 8:00 AM - 6:00 PM, Tues 8:00 AM - 6:00 PM, Wed 8:00 AM - 6:00 PM, Thurs 8:00 AM - 6:00 PM, Fri 8:00 AM - 6:00 PM, Sat 8:00 AM - 4:00 PM, Sun 8:00 AM - 4:00 PM","https://www.napaonline.com/en/auto-parts-stores-near-me/ca/colfax"
"https://www.napaonline.com","NAPA Auto Parts - Genuine Auto Parts","311 E Valley Blvd","Colton","CA","92324","US","37689","(909) 825-3333","<MISSING>","34.0667063536565","-117.32075035572","Mon 8:00 AM - 5:00 PM, Tues 8:00 AM - 5:00 PM, Wed 8:00 AM - 5:00 PM, Thurs 8:00 AM - 5:00 PM, Fri 8:00 AM - 5:00 PM, Sat 8:00 AM - 3:00 PM, Sun Closed","https://www.napaonline.com/en/auto-parts-stores-near-me/ca/colton"
"https://www.napaonline.com","NAPA Auto Parts - Colusa Auto Parts","234 Market St","Colusa","CA","95932","US","801980","(530) 458-2161","<MISSING>","39.213707661703516","-122.00480269963919","Mon 7:30 AM - 6:00 PM, Tues 7:30 AM - 6:00 PM, Wed 7:30 AM - 6:00 PM, Thurs 7:30 AM - 6:00 PM, Fri 7:30 AM - 6:00 PM, Sat 8:00 AM - 5:00 PM, Sun Closed","https://www.napaonline.com/en/auto-parts-stores-near-me/ca/colusa"
"https://www.napaonline.com","NAPA Auto Parts - Copper Cove Auto Parts","90 Rock Creek Rd Suite 6","Copperopolis","CA","95228","US","28777","(209) 785-6272","<MISSING>","37.98494701319556","-120.64737603212569","Mon 8:30 AM - 5:30 PM, Tues 8:30 AM - 5:30 PM, Wed 8:30 AM - 5:30 PM, Thurs 8:30 AM - 5:30 PM, Fri 8:30 AM - 5:30 PM, Sat 9:00 AM - 4:00 PM, Sun Closed","https://www.napaonline.com/en/auto-parts-stores-near-me/ca/copperopolis"
"https://www.napaonline.com","NAPA Auto Parts - Deroda Inc","2026 Solano St","Corning","CA","96021","US","28100","(530) 824-5494","<MISSING>","39.9286452896656","-122.193680405616","Mon 7:30 AM - 6:00 PM, Tues 7:30 AM - 6:00 PM, Wed 7:30 AM - 6:00 PM, Thurs 7:30 AM - 6:00 PM, Fri 7:30 AM - 6:00 PM, Sat 8:00 AM - 5:00 PM, Sun 9:00 AM - 4:00 PM","https://www.napaonline.com/en/auto-parts-stores-near-me/ca/corning"
"https://www.napaonline.com","NAPA Auto Parts - Taylor Auto Parts #2","3367 Main Street","Cottonwood","CA","96022","US","20975","(530) 347-5261","<MISSING>","40.3854802854259","-122.280629575252","Mon 8:00 AM - 5:30 PM, Tues 8:00 AM - 5:30 PM, Wed 8:00 AM - 5:30 PM, Thurs 8:00 AM - 5:30 PM, Fri 8:00 AM - 5:30 PM, Sat 8:00 AM - 4:00 PM, Sun Closed","https://www.napaonline.com/en/auto-parts-stores-near-me/ca/cottonwood"
"https://www.napaonline.com","NAPA Auto Parts - NAPA Auto Parts","650 Rimpau Ave","Corona","CA","92879","US","<MISSING>","(951) 737-6212","AutoPartsStore","33.874316","-117.553076","Monday: 07:30:00-18:00:00Tuesday: 07:30:00-18:00:00Wednesday: 07:30:00-18:00:00Thursday: 07:30:00-18:00:00Friday: 07:30:00-18:00:00Saturday: 08:00:00-17:00:00Sunday: 09:00:00-16:00:00","https://www.napaonline.com/en/auto-parts-stores-near-me/ca/corona"
"https://www.napaonline.com","NAPA Auto Parts - Crescent City","425 L St Unit H","Crescent City","CA","95531","US","802588","(707) 465-4655","<MISSING>","41.75514598665131","-124.19463889957447","Mon 8:00 AM - 5:30 PM, Tues 8:00 AM - 5:30 PM, Wed 8:00 AM - 5:30 PM, Thurs 8:00 AM - 5:30 PM, Fri 8:00 AM - 5:30 PM, Sat 8:00 AM - 4:00 PM, Sun Closed","https://www.napaonline.com/en/auto-parts-stores-near-me/ca/crescent-city"
"https://www.napaonline.com","NAPA Auto Parts - MTA Auto Parts","6731 Mission St","Daly City","CA","94014","US","30976","(650) 992-1810","<MISSING>","37.7010672999154","-122.463220953941","Mon 8:30 AM - 5:30 PM, Tues 8:30 AM - 5:30 PM, Wed 8:30 AM - 5:30 PM, Thurs 8:30 AM - 5:30 PM, Fri 8:30 AM - 5:30 PM, Sat 9:00 AM - 5:00 PM, Sun Closed","https://www.napaonline.com/en/auto-parts-stores-near-me/ca/daly-city"
"https://www.napaonline.com","NAPA Auto Parts - Round Valley Auto Care LLC","76240 Commercial St","Covelo","CA","95428","US","21033","(707) 983-6129","<MISSING>","39.7918504024166","-123.248511137117","Mon 8:30 AM - 5:30 PM, Tues 8:30 AM - 5:30 PM, Wed 8:30 AM - 5:30 PM, Thurs 8:30 AM - 5:30 PM, Fri 8:30 AM - 5:30 PM, Sat Closed Sun 10:00 AM - 2:00 PM","https://www.napaonline.com/en/auto-parts-stores-near-me/ca/covelo"
"https://www.napaonline.com","NAPA Auto Parts - Davis - 975 Olive Dr","975 Olive Dr","Davis","CA","95616","US","21917","(530) 753-6272","<MISSING>","38.5403725","-121.7395045","Mon 8:00 AM - 7:00 PM, Tues 8:00 AM - 7:00 PM, Wed 8:00 AM - 7:00 PM, Thurs 8:00 AM - 7:00 PM, Fri 8:00 AM - 7:00 PM, Sat 8:00 AM - 5:00 PM, Sun 8:00 AM - 4:00 PM","https://www.napaonline.com/en/auto-parts-stores-near-me/ca/davis"
"https://www.napaonline.com","NAPA Auto Parts - Daco Farm Supply","1902 High St","Delano","CA","93215","US","24739","(661) 725-2557","<MISSING>","35.7813491","-119.2502212","Mon 7:00 AM - 5:00 PM, Tues 7:00 AM - 5:00 PM, Wed 7:00 AM - 5:00 PM, Thurs 7:00 AM - 5:00 PM, Fri 7:00 AM - 5:00 PM, Sat 7:00 AM - 3:00 PM, Sun Closed","https://www.napaonline.com/en/auto-parts-stores-near-me/ca/delano"
"https://www.napaonline.com","NAPA Auto Parts - CenCal Auto Parts","153 S K Street","Dinuba","CA","93618","US","<MISSING>","(559) 591-3000","AutoPartsStore","36.540872","-119.388817","Monday: 07:30:00-17:30:00Tuesday: 07:30:00-17:30:00Wednesday: 07:30:00-17:30:00Thursday: 07:30:00-17:30:00Friday: 07:30:00-17:30:00Saturday: 08:00:00-13:00:00Sunday: 00:00:00-00:00:00","https://www.napaonline.com/en/auto-parts-stores-near-me/ca/dinuba"
"https://www.napaonline.com","NAPA Auto Parts - Delhi Auto & Truck","10056 Vincent Rd","Delhi","CA","95315","US","<MISSING>","(209) 634-0706","AutoPartsStore","37.436799","-120.776519","Monday: 07:00:00-18:00:00Tuesday: 07:00:00-18:00:00Wednesday: 07:00:00-18:00:00Thursday: 07:00:00-18:00:00Friday: 07:00:00-18:00:00Saturday: 08:00:00-17:00:00Sunday: 00:00:00-00:00:00","https://www.napaonline.com/en/auto-parts-stores-near-me/ca/delhi"
"https://www.napaonline.com","NAPA Auto Parts - Central Auto Parts","1205 N 1st St","Dixon","CA","95620","US","<MISSING>","(707) 678-2309","AutoPartsStore","38.457946","-121.823046","Monday: 07:30:00-18:00:00Tuesday: 07:30:00-18:00:00Wednesday: 07:30:00-18:00:00Thursday: 07:30:00-18:00:00Friday: 07:30:00-18:00:00Saturday: 08:00:00-17:00:00Sunday: 09:00:00-14:00:00","https://www.napaonline.com/en/auto-parts-stores-near-me/ca/dixon"
"https://www.napaonline.com","NAPA Auto Parts - Downey - 12010 Woodruff Ave","12010 Woodruff Ave Ste B","Downey","CA","90241","US","20097","(562) 803-3222","<MISSING>","33.9252425","-118.1162609","Mon 7:30 AM - 6:00 PM, Tues 7:30 AM - 6:00 PM, Wed 7:30 AM - 6:00 PM, Thurs 7:30 AM - 6:00 PM, Fri 7:30 AM - 6:00 PM, Sat 8:00 AM - 5:00 PM, Sun 9:00 AM - 4:00 PM","https://www.napaonline.com/en/auto-parts-stores-near-me/ca/downey"
"https://www.napaonline.com","NAPA Auto Parts - Durham Auto Parts","9358 Midway","Durham","CA","95938","US","20517","(530) 891-3525","<MISSING>","39.6443169599061","-121.799240112304","Mon 7:00 AM - 5:30 PM, Tues 7:00 AM - 5:30 PM, Wed 7:00 AM - 5:30 PM, Thurs 7:00 AM - 5:30 PM, Fri 7:00 AM - 5:30 PM, Sat 7:00 AM - 5:00 PM, Sun 9:00 AM - 4:00 PM","https://www.napaonline.com/en/auto-parts-stores-near-me/ca/durham"
"https://www.napaonline.com","NAPA Auto Parts - Dublin","6801 Dublin Blvd","Dublin","CA","94568","US","39253","(925) 452-2780","<MISSING>","37.7048929","-121.9164945","Mon 7:00 AM - 7:00 PM, Tues 7:00 AM - 7:00 PM, Wed 7:00 AM - 7:00 PM, Thurs 7:00 AM - 7:00 PM, Fri 7:00 AM - 7:00 PM, Sat 7:00 AM - 5:30 PM, Sun Closed","https://www.napaonline.com/en/auto-parts-stores-near-me/ca/dublin"
"https://www.napaonline.com","NAPA Auto Parts - County Motor Parts (LA-221)","803 E Main St","El Centro","CA","92243","US","<MISSING>","(760) 337-1111","AutoPartsStore","32.792345","-115.528748","Monday: 07:00:00-18:00:00Tuesday: 07:00:00-18:00:00Wednesday: 07:00:00-18:00:00Thursday: 07:00:00-18:00:00Friday: 07:00:00-18:00:00Saturday: 07:00:00-15:00:00Sunday: 00:00:00-00:00:00","https://www.napaonline.com/en/auto-parts-stores-near-me/ca/el-centro"
"https://www.napaonline.com","NAPA Auto Parts - Auto Parts Pro (LA-195)","523 Encinitas Blvd Ste 100","Encinitas","CA","92024","US","27101","(760) 753-5597","<MISSING>","33.0465449","-117.2802237","Mon 7:30 AM - 6:00 PM, Tues 7:30 AM - 6:00 PM, Wed 7:30 AM - 6:00 PM, Thurs 7:30 AM - 6:00 PM, Fri 7:30 AM - 6:00 PM, Sat 8:00 AM - 5:00 PM, Sun 9:00 AM - 4:00 PM","https://www.napaonline.com/en/auto-parts-stores-near-me/ca/encinitas"
"https://www.napaonline.com","NAPA Auto Parts - El Monte - 11642 Garvey Ave","11642 Garvey Ave","El Monte","CA","91732","US","28249","(626) 442-5050","<MISSING>","34.0622502073646","-118.024902641773","Mon 7:30 AM - 7:00 PM, Tues 7:30 AM - 7:00 PM, Wed 7:30 AM - 7:00 PM, Thurs 7:30 AM - 7:00 PM, Fri 7:30 AM - 7:00 PM, Sat 8:00 AM - 4:30 PM, Sun 9:00 AM - 3:00 PM","https://www.napaonline.com/en/auto-parts-stores-near-me/ca/el-monte"
"https://www.napaonline.com","NAPA Auto Parts - Tilbury Auto Parts","1730 Jackson Ave","Escalon","CA","95320","US","21769","(209) 838-3518","<MISSING>","37.7962714257871","-120.991375924695","Mon 7:00 AM - 6:00 PM, Tues 7:00 AM - 6:00 PM, Wed 7:00 AM - 6:00 PM, Thurs 7:00 AM - 6:00 PM, Fri 7:00 AM - 6:00 PM, Sat 8:00 AM - 5:00 PM, Sun 9:00 AM - 4:00 PM","https://www.napaonline.com/en/auto-parts-stores-near-me/ca/escalon"
"https://www.napaonline.com","NAPA Auto Parts - Auto Parts Pros LLC (LA-163)","2438 Auto Park Way","Escondido","CA","92029","US","26543","(760) 740-2100","<MISSING>","33.1269471","-117.1212045","Mon 7:00 AM - 7:00 PM, Tues 7:00 AM - 7:00 PM, Wed 7:00 AM - 7:00 PM, Thurs 7:00 AM - 7:00 PM, Fri 7:00 AM - 7:00 PM, Sat 8:00 AM - 5:00 PM, Sun 9:00 AM - 4:00 PM","https://www.napaonline.com/en/auto-parts-stores-near-me/ca/escondido"
"https://www.napaonline.com","NAPA Auto Parts - Riebe's Auto Parts - Chico","491 Country Dr","Chico","CA","95928","US","22390","(530) 342-4261","<MISSING>","39.71401273938051","-121.80418810336391","Mon 7:30 AM - 6:00 PM, Tues 7:30 AM - 6:00 PM, Wed 7:30 AM - 6:00 PM, Thurs 7:30 AM - 6:00 PM, Fri 7:30 AM - 6:00 PM, Sat 8:00 AM - 5:00 PM, Sun 9:00 AM - 5:00 PM","https://www.napaonline.com/stores/ca/chico/491-country-dr?sdref=footer"
"https://www.napaonline.com","NAPA Auto Parts - Riebe's Auto Parts - Chico","2432 Cohasset Rd","Chico","CA","95926","US","28956","(530) 343-3524","<MISSING>","39.7600489690531","-121.843098341104","Mon 8:00 AM - 6:00 PM, Tues 8:00 AM - 6:00 PM, Wed 8:00 AM - 6:00 PM, Thurs 8:00 AM - 6:00 PM, Fri 8:00 AM - 6:00 PM, Sat 8:00 AM - 5:00 PM, Sun 9:00 AM - 5:00 PM","https://www.napaonline.com/stores/ca/chico/2432-cohasset-rd?sdref=footer"
"https://www.napaonline.com","NAPA Auto Parts - Auto Parts of Eureka","90 W 5th St","Eureka","CA","95501","US","36298","(707) 442-1786","<MISSING>","40.801256137945","-124.173068832651","Mon 8:00 AM - 6:00 PM, Tues 8:00 AM - 6:00 PM, Wed 8:00 AM - 6:00 PM, Thurs 8:00 AM - 6:00 PM, Fri 8:00 AM - 6:00 PM, Sat 9:00 AM - 5:00 PM, Sun 9:00 AM - 4:00 PM","https://www.napaonline.com/en/auto-parts-stores-near-me/ca/eureka"
