"locator_domain","location_name","street_address","city","state","zip","country_code","store_number","phone","location_type","latitude","longitude","hours_of_operation","page_url"
"https://www.orangetheory.com","Okotoks","#1003 - 200 Southridge Drive","Okotoks","AB","T1S 0N8","CA","2988","4032756000","<MISSING>","50.706779","-113.978973","<MISSING>","https://www.orangetheory.com/en-ca/locations/alberta/okotoks/1003-200-southridge-drive/"
"https://www.orangetheory.com","Creekside","#126 - 11988 Symon's Valley Road NW","Calgary","AB","T3P 0A3","CA","2824","5873162121","<MISSING>","51.160702","-114.122307","<MISSING>","https://www.orangetheory.com/en-ca/locations/alberta/calgary/126-11988-symon-s-valley-road-nw/"
"https://www.orangetheory.com","Marda Loop South Calgary, AB","1933  33 Ave SW","Calgary","AB","T2T 1Z3","CA","2853","5873556655","<MISSING>","51.023819","-114.1063","<MISSING>","https://www.orangetheory.com/en-ca/locations/alberta/calgary/1931-33-ave-sw/"
"https://www.orangetheory.com","Kensington, CAN","301 10th Street NW","Calgary","AB","T2N 1V5","CA","2801","4033060161","<MISSING>","51.054092","-114.086075","<MISSING>","https://www.orangetheory.com/en-ca/locations/alberta/calgary/301-10th-st-nw/"
"https://www.orangetheory.com","Britannia","5132 Elbow Drive SW","Calgary","AB","T2V 1H1","CA","17865","5873150125","<MISSING>","51.007786","-114.081375","<MISSING>","https://www.orangetheory.com/en-ca/locations/alberta/calgary/5132-elbow-drive-sw/"
"https://www.orangetheory.com","Shawnessy, AB","70 Shawville Blvd. SE","Calgary","AB","T2Y 2Z3","CA","2852","5874818765","<MISSING>","50.905754","-114.064987","<MISSING>","https://www.orangetheory.com/en-ca/locations/alberta/calgary/70-shawville-blvd-se/"
"https://www.orangetheory.com","West Springs","#8003, 873 85th st. SW","Calgary","AB","T3H 0J5","CA","2860","4037276776","<MISSING>","51.060791","-114.212196","<MISSING>","https://www.orangetheory.com/en-ca/locations/alberta/calgary/873-85th-street-sw-8003/"
"https://www.orangetheory.com","Royal Oak","#317 8888 Country Hills Blvd NW","Calgary","AB","T3G 5T4","CA","2475","4034748959","<MISSING>","51.153965","-114.21801","<MISSING>","https://www.orangetheory.com/en-ca/locations/alberta/calgary/8888-country-hills-blvd-nw-317/"
"https://www.orangetheory.com","Airdrie North Calgary #4, Canada","2700 Main St. Unit 380","Airdrie","AB","T4B 3G7","CA","1501","5874094959","<MISSING>","51.26907","-114.006058","<MISSING>","https://www.orangetheory.com/en-ca/locations/alberta/calgary/unit-380-2700-main-st/"
"https://www.orangetheory.com","Red Deer","#130, 6 Clearview Market Way","Red Deer","AB","T4P 0M9","CA","2845","4034063500","<MISSING>","52.28717","-113.771729","<MISSING>","https://www.orangetheory.com/en-ca/locations/alberta/red-deer/130-6-clearview-market-way/"
"https://www.orangetheory.com","Medicine Hat","1820 Strachan Road SE","Medicine Hat","AB","T1B 4R7","CA","2921","5878012952","<MISSING>","49.999687","-110.651917","<MISSING>","https://www.orangetheory.com/en-ca/locations/alberta/medicine-hat/104-1820-strachan-road-se/"
"https://www.orangetheory.com","Edmonton Downtown, CAN","10811 Jasper Avenue NW","Edmonton","AB","T5J 5G9","CA","1488","7809008925","<MISSING>","53.540779","-113.507317","<MISSING>","https://www.orangetheory.com/en-ca/locations/alberta/edmonton/10811-jasper-avenue-nw/"
"https://www.orangetheory.com","Jasper Gates, CAN","15049 Stony Plain Road","Edmonton","AB","T5P 4W1","CA","2802","7806669707","<MISSING>","53.54158","-113.692238","<MISSING>","https://www.orangetheory.com/en-ca/locations/alberta/edmonton/15049-stony-plain-road/"
"https://www.orangetheory.com","Namao, CAN","16620 95 Street NW","Edmonton","AB","T5Z 3L2","CA","2784","7808000400","<MISSING>","53.62812","-113.487785","<MISSING>","https://www.orangetheory.com/en-ca/locations/alberta/edmonton/16640-95-street/"
"https://www.orangetheory.com","Manning, CAN","4841-167 Avenue NW","Edmonton","AB","T5Y 0S4","CA","2791","7808009670","<MISSING>","53.628647","-113.429588","<MISSING>","https://www.orangetheory.com/en-ca/locations/alberta/edmonton/4841-167-avenue-nw/"
"https://www.orangetheory.com","Ellerslie, CAN","5061 Ellerslie Road","Edmonton","AB","T6X 1X2","CA","2806","7803287702","<MISSING>","53.423267","-113.419571","<MISSING>","https://www.orangetheory.com/en-ca/locations/alberta/edmonton/5061-ellerslie-road/"
"https://www.orangetheory.com","Strathcona","7911 104 Street","Edmonton","AB","T6E 6N8","CA","2792","7808001940","<MISSING>","53.515213","-113.497673","<MISSING>","https://www.orangetheory.com/en-ca/locations/alberta/edmonton/7911-104-street/"
"https://www.orangetheory.com","Riverbend","484 Riverbend Square","Edmonton","AB","T6R 2E3","CA","2842","7808000470","<MISSING>","53.468739","-113.585716","<MISSING>","https://www.orangetheory.com/en-ca/locations/alberta/edmonton/484-riverbend-square/"
"https://www.orangetheory.com","North York, CAN","1881 Steeles Ave W #3","Toronto","ON","M3H 5Y4","CA","2837","6478018068","<MISSING>","43.78656","-79.468834","<MISSING>","https://www.orangetheory.com/en-ca/locations/alberta/toronto/1881-steeles-avenue-west-3rn/"
"https://www.orangetheory.com","Lethbridge, AB","#200 550 University Drive","Lethbridge","AB","T1J 4V3","CA","2843","4033289808","<MISSING>","49.69318","-112.893135","<MISSING>","https://www.orangetheory.com/en-ca/locations/alberta/lethbridge/200-550-university-drive/"
"https://www.orangetheory.com","Callingwood","6621 177 Street NW","Edmonton","AB","T5T 4K3","CA","2922","7804620300","<MISSING>","53.501736","-113.627274","<MISSING>","https://www.orangetheory.com/en-ca/locations/alberta/callingwood/6621-177-street-nw/"
"https://www.orangetheory.com","Spruce Grove, Canada","#118-7 McLeod Avenue","Spruce Grove","AB","T7X 4B8","CA","2952","7808005765","<MISSING>","53.544315","-113.93367","<MISSING>","https://www.orangetheory.com/en-ca/locations/alberta/spruce-grove/7-mcleod-avenue-118/"
"https://www.orangetheory.com","Grande Prairie, AB","#102 11510 Westgate Drive","Grande Prairie","AB","T8V 4E9","CA","2849","7805136444","<MISSING>","55.171318","-118.84346","<MISSING>","https://www.orangetheory.com/en-ca/locations/alberta/grand-prairie/unit-102-11510-westgate-dr/"
"https://www.orangetheory.com","Fort McMurray","Unit 1. 145 Eagle Ridge Blvd.","Fort McMurray","AB","T9K 2Z7","CA","27329","7809008922","<MISSING>","56.753716","-111.430313","<MISSING>","https://www.orangetheory.com/en-ca/locations/alberta/ft-mcmurray/unit-1-145-eagle-ridge-blvd/"
"https://www.orangetheory.com","St. Albert, CAN","Unit 37, 11 Bellerose Drive","St.Albert","AB","T8N 5C9","CA","2796","7808000045","<MISSING>","53.645832","-113.6241","<MISSING>","https://www.orangetheory.com/en-ca/locations/alberta/st-albert/unit-37-11-bellerose-drive/"
"https://www.orangetheory.com","Sherwood Park","#86, 993 Fir Street","Sherwood Park","AB","T8A 4N5","CA","2790","7808000474","<MISSING>","53.513115","-113.322365","<MISSING>","https://www.orangetheory.com/en-ca/locations/alberta/sherwood-park/86-993-fir-street/"
"https://www.orangetheory.com","Kelowna, CAN","#115, 590 KLO Road","Kelowna","BC","V1Y 7S2","CA","2829","2508606888","<MISSING>","49.862057","-119.489731","<MISSING>","https://www.orangetheory.com/en-ca/locations/british-columbia/kelowna/115-590-klo-road/"
"https://www.orangetheory.com","Langley, CAN","#128 -19665 Willowbrook Drive","Langley","BC","V2Y 1A5","CA","2809","6044271604","<MISSING>","49.115494","-122.676308","<MISSING>","https://www.orangetheory.com/en-ca/locations/british-columbia/langley/128-19665-willowbrook-drive/"
"https://www.orangetheory.com","Kamloops, CAN","#260-1210 Summit Drive","Kamloops","BC","V2C 6M1","CA","2819","2508519838","<MISSING>","50.666096","-120.352089","<MISSING>","https://www.orangetheory.com/en-ca/locations/british-columbia/kamloops/260-1210-summit-drive/"
"https://www.orangetheory.com","Victoria, CAN","1010-2 Yates Street","Victoria","BC","V8V 3M6","CA","2823","2509848056","<MISSING>","48.42556","-123.355896","<MISSING>","https://www.orangetheory.com/en-ca/locations/british-columbia/victoria/1010-2-yates-street/"
"https://www.orangetheory.com","Davie Street","105 - 1160 Davie St.","Vancouver","BC","V6E 1N1","CA","2834","6044286916","<MISSING>","49.281025","-123.132744","<MISSING>","https://www.orangetheory.com/en-ca/locations/british-columbia/vancouver/105-1160-davie-st/"
"https://www.orangetheory.com","Abbotsford, BC","110 - 2653 Tretheway St","Abbotsford","BC","V2T 0B5","CA","27518","6044253516","<MISSING>","49.050251","-122.327644","<MISSING>","https://www.orangetheory.com/en-ca/locations/british-columbia/vancouver/110-2653-tretheway-street/"
"https://www.orangetheory.com","North Vancouver","#107 - 1171 Marine Drive","Vancouver","BC","V7P 1S8","CA","2833","6049711566","<MISSING>","49.323841","-123.106064","<MISSING>","https://www.orangetheory.com/en-ca/locations/british-columbia/vancouver/1171-marine-drive-107/"
"https://www.orangetheory.com","North Delta, BC CAN","135 - 12101 72 Avenue","Vancouver","ON","V3W 2M1","CA","2814","6045031616","<MISSING>","49.135563","-122.887962","<MISSING>","https://www.orangetheory.com/en-ca/locations/british-columbia/vancouver/135-1210172-ave/"
"https://www.orangetheory.com","West Broadway","3055 West Broadway","Vancouver","BC","V6K 2G9","CA","3167","7787291816","<MISSING>","49.264217","-123.173813","<MISSING>","https://www.orangetheory.com/en-ca/locations/british-columbia/vancouver/3097-west-broadwayrnvancouver-bc-v6k-2g9/"
"https://www.orangetheory.com","Cambie Vancouver Canada","4 - 2892 Cambie Street","Vancouver","BC","V5Z 2V5","CA","2980","7787340316","<MISSING>","49.259804","-123.114914","<MISSING>","https://www.orangetheory.com/en-ca/locations/british-columbia/vancouver/4-2892-cambie-street/"
"https://www.orangetheory.com","Convention Centre West, CAN","66-1055 Canada Place","Vancouver","BC","V6C 3T4","CA","2807","7783794916","<MISSING>","49.288452","-123.113159","<MISSING>","https://www.orangetheory.com/en-ca/locations/british-columbia/vancouver/66-1055-canada-place/"
"https://www.orangetheory.com","Seton, CAN","#190 19489 Seton Crescent SE","Calgary","AB","T3M 1T4","CA","2832","4035708730","<MISSING>","50.880188","-113.957962","<MISSING>","https://www.orangetheory.com/en-ca/locations/british-columbia/vancouver/unit-190-19489-seton-crescent-se/"
"https://www.orangetheory.com","South Surrey","#540, 15355 24th Avenue","Surrey","BC","V4A 2H9","CA","2836","6045601160","<MISSING>","49.04649","-122.797401","<MISSING>","https://www.orangetheory.com/en-ca/locations/british-columbia/richmond-hill/15355-24th-avenue-unit-540/"
"https://www.orangetheory.com","Port Moody - Coquitlam, CAN","400 Capilano Road, Unit 11","Port Moody","BC","V3H 0E6","CA","2805","6044924565","<MISSING>","49.27879","-122.828812","<MISSING>","https://www.orangetheory.com/en-ca/locations/british-columbia/port-moody/400-capilano-road-11/"
"https://www.orangetheory.com","Chilliwack","502 - 8236 Eagle Landing Parkway","Chilliwack","BC","V2R 0R5","CA","2919","6043911310","<MISSING>","49.150597","-121.97599","<MISSING>","https://www.orangetheory.com/en-ca/locations/british-columbia/chilliwack/502-8236-eagle-landing-parkway/"
"https://www.orangetheory.com","West Shore, CAN","2945 Jacklin Road, Unit 133","Victoria","BC","V9B 5E3","CA","2820","2504837444","<MISSING>","48.439522","-123.508781","<MISSING>","https://www.orangetheory.com/en-ca/locations/british-columbia/langford/unit-133-2956-jacklin-road/"
"https://www.orangetheory.com","Boucherville, CAN","1001 Boulevard de Montarville","Boucherville","QC","J4B 6R2","CA","2798","4507002155","<MISSING>","45.590836","-73.433426","<MISSING>","https://www.orangetheory.com/en-ca/locations/quebec/montreal/1001-boulevard-de-montarville/"
"https://www.orangetheory.com","Griffintown, CAN","1056 rue Ottawa Griffintown","Montreal","QC","H3C 2G6","CA","2815","5144003723","<MISSING>","45.493923","-73.559212","<MISSING>","https://www.orangetheory.com/en-ca/locations/quebec/montreal/1056-rue-ottawa-griffintown/"
"https://www.orangetheory.com","Plateau","237 Laurier Ouest","Montreal","QC","H2T 2N9","CA","33790","5142288380","<MISSING>","45.520664","-73.595314","<MISSING>","https://www.orangetheory.com/en-ca/locations/quebec/montreal/237-lauirier-ouest-suite-c1/"
"https://www.orangetheory.com","TMR - Montreal #2, QC","2380 Chemin Lucerne","Town of Mount Royal","QC","H3R 2J8","CA","2850","5146130012","<MISSING>","45.507534","-73.662003","<MISSING>","https://www.orangetheory.com/en-ca/locations/quebec/montreal/2380-chemin-lucerne/"
"https://www.orangetheory.com","Pointe-Claire, CAN","315 Boulevard Brunswick, Unit 34","Pointe-Claire","QC","H9R 5M7","CA","2817","5144260077","<MISSING>","45.467175","-73.830467","<MISSING>","https://www.orangetheory.com/en-ca/locations/quebec/montreal/315-boulevard-brunswick-unit-34/"
"https://www.orangetheory.com","Laval East, CAN","2837 Avenue des Aristocrates. Local 109","Laval","QC","H7E 0H3","CA","3152","5146128500","<MISSING>","45.615074","-73.680611","<MISSING>","https://www.orangetheory.com/en-ca/locations/quebec/laval/2837-avenue-des-aristocrates-local-109/"
"https://www.orangetheory.com","Rosemere, QC","401 Bolevard Cure-Labelle","Rosemere","QC","J7A 3T2","CA","2797","4502341238","<MISSING>","45.631405","-73.817871","<MISSING>","https://www.orangetheory.com/en-ca/locations/quebec/rosemere/401-boulevard-cure-labelle/"
"https://www.orangetheory.com","Repentigny","4 - 125 Rue De Lafayettee","Repentigny","QC","J6A 8J4","CA","3169","4508004380","<MISSING>","45.746777","-73.453186","<MISSING>","https://www.orangetheory.com/en-ca/locations/quebec/repentigny/4-125-rue-de-lafayette/"
"https://www.orangetheory.com","Somerled, CAN","6275 Somerled","Montreal","QC","H3X 2B7","CA","3027","5145005464","<MISSING>","45.470837","-73.635757","<MISSING>","https://www.orangetheory.com/en-ca/locations/quebec/cote-ste-luc/6275-somerled-ave/"
"https://www.orangetheory.com","Saint Eustache","686 Arthur-Sauv Blvd.","Saint-Eustache","QC","J7V 0H1","CA","27593","4502322178","<MISSING>","45.577793","-73.919022","<MISSING>","https://www.orangetheory.com/en-ca/locations/quebec/ste-eustache/686-arthur-sauv-blvd/"
"https://www.orangetheory.com","Quartier DIX30","7200 Blvd du Quartier. Suite 40","Brossard","QC","J4Y 0B5","CA","3140","4505000925","<MISSING>","45.444809","-73.439941","<MISSING>","https://www.orangetheory.com/en-ca/locations/quebec/brossard/7200-blvd-du-quartier-suite-40/"
"https://www.orangetheory.com","South Keys","1001 Daze Street","Ottawa","BC","K1V 2G3","CA","2846","6138000860","<MISSING>","45.354919","-75.652008","<MISSING>","https://www.orangetheory.com/en-ca/locations/ontario/ottawa/1001-daze-street/"
"https://www.orangetheory.com","Merivale OT","1445 Merivale Rd. Suite 104","Ottawa","ON","K2E 5N9","CA","2858","6136990029","<MISSING>","45.362617","-75.732941","<MISSING>","https://www.orangetheory.com/en-ca/locations/ontario/ottawa/1445-merivale-rd-suite-104/"
"https://www.orangetheory.com","London","1025 Wellington Road Unit 4","London","ON","N6E 1W4","CA","2799","5192004692","<MISSING>","42.938179","-81.225601","<MISSING>","https://www.orangetheory.com/en-ca/locations/ontario/london/1025-wellington-road-unit-4/"
"https://www.orangetheory.com","Elgin Mills","#405-10775 Leslie Street","Richmond Hill","ON","L4S 0B2","CA","2813","2898098773","<MISSING>","43.90028","-79.394463","<MISSING>","https://www.orangetheory.com/en-ca/locations/ontario/richmond-hill/10775-leslie-st-unit-5/"
"https://www.orangetheory.com","Milton","Unit E1. 1250 Steeles Ave E","Milton","ON","L9T 6R1","CA","30305","2892702980","<MISSING>","43.543152","-79.869194","<MISSING>","https://www.orangetheory.com/en-ca/locations/ontario/milton/1250-steeles-ave-e-unit-e1/"
"https://www.orangetheory.com","Mississauga - Creekside Crossing, CAN","1476 Dundas Street East","Mississauga","ON","L4X 1L4","CA","2785","9052272876 ext 1","<MISSING>","43.608898","-79.577393","<MISSING>","https://www.orangetheory.com/en-ca/locations/ontario/mississauga/1476-dundas-street-east/"
"https://www.orangetheory.com","Mississauga Downtown, ON","4036 Confederation Parkway","Mississauga","ON","L5B 0J6","CA","2844","9052772876 ext  2","<MISSING>","43.585899","-79.646004","<MISSING>","https://www.orangetheory.com/en-ca/locations/ontario/mississauga/4036-confederation-parkway/"
"https://www.orangetheory.com","Lakeshore Mississauga","105 - 515 Lakeshore Rd. E.","Mississauga","ON","L5G 1H9","CA","2905","9052772876 ext 3","<MISSING>","43.566475","-79.571045","<MISSING>","https://www.orangetheory.com/en-ca/locations/ontario/mississauga/515-lakeshore-road-east/"
"https://www.orangetheory.com","Barrie","15 Maple Avenue","Barrie","ON","L4N 2N6","CA","2855","7053020492","<MISSING>","44.387379","-79.689896","<MISSING>","https://www.orangetheory.com/en-ca/locations/ontario/barrie/15-maple-avenue/"
"https://www.orangetheory.com","Yonge & Bloor","160 Bloor Street East. Suite 100","Toronto","ON","M4W 0A2","CA","3154","4169234915","<MISSING>","43.671623","-79.38298","<MISSING>","https://www.orangetheory.com/en-ca/locations/ontario/toronto/160-bloor-street-east-suite-100/"
"https://www.orangetheory.com","Bloor West Village, Toronto","2480 Bloor Street W","Toronto","ON","M6S 1R5","CA","2794","4162349976","<MISSING>","43.648052","-79.490707","<MISSING>","https://www.orangetheory.com/en-ca/locations/ontario/toronto/2480-bloor-street-west/"
"https://www.orangetheory.com","Danforth, CAN","423 Danforth Ave","Toronto","ON","M4K 1P1","CA","2793","4163123024","<MISSING>","43.677242","-79.35228","<MISSING>","https://www.orangetheory.com/en-ca/locations/ontario/toronto/423-danforth-ave/"
"https://www.orangetheory.com","South Oakville","487 Cornwall Road","Oakville","ON","L6J 7S8","CA","2838","2898130099","<MISSING>","43.463413","-79.674347","<MISSING>","https://www.orangetheory.com/en-ca/locations/ontario/toronto/487-cornwall-road/"
"https://www.orangetheory.com","Yonge & Eglinton, CAN","97 Eglinton Ave E.","Toronto","ON","M4P 1H4","CA","2783","4164411326","<MISSING>","43.707432","-79.394867","<MISSING>","https://www.orangetheory.com/en-ca/locations/ontario/toronto/97-eglinton-ave-east/"
"https://www.orangetheory.com","Newmarket - Aurora, CAN","16880 Yonge Street #5","New Market","ON","L3Y 0A3","CA","2804","2898073888","<MISSING>","44.039711","-79.477264","<MISSING>","https://www.orangetheory.com/en-ca/locations/ontario/newmarket/16880-yonge-street-5/"
"https://www.orangetheory.com","Pickering, Ontario","1822 Whites Road","Pickering","ON","L1V 4M1","CA","2864","3653005757","<MISSING>","43.83041","-79.122154","<MISSING>","https://www.orangetheory.com/en-ca/locations/ontario/pickering/1822-whites-road/"
"https://www.orangetheory.com","Peterborough, CAN","1905 Lansdowne Street West","Peterborough","ON","K9K 2M9","CA","3151","7056160707","<MISSING>","44.273476","-78.376183","<MISSING>","https://www.orangetheory.com/en-ca/locations/ontario/peterborough/1905-lansdowne-street-west/"
"https://www.orangetheory.com","Orangeville-Shelburne","225 Centennial Road","Orangeville","ON","L9W 5K9","CA","2951","5195130499","<MISSING>","43.902443","-80.11869","<MISSING>","https://www.orangetheory.com/en-ca/locations/ontario/orangeville-shelburne/225-centennial-road/"
"https://www.orangetheory.com","Bowmanville-Clarington","2366 Highway 2. Unit C5","Bowmanville","ON","L1C 3K7","CA","2983","2892760408","<MISSING>","43.909412","-78.712128","<MISSING>","https://www.orangetheory.com/en-ca/locations/ontario/bowmanville-clarington/2372-highway-2-unit-c5/"
"https://www.orangetheory.com","Vaughan Major MacKenzie, CAN","2891 Major MacKenzie Dr. West","Vaughan","ON","L6A 3N9","CA","2810","9052313872","<MISSING>","43.850819","-79.532013","<MISSING>","https://www.orangetheory.com/en-ca/locations/ontario/west-vaughan/2891-major-mackenzie-dr/"
"https://www.orangetheory.com","Vaudreuil","3080 Boulevard de la Gare, #350","Vaudreuil-Dorion","QC","J7V 0H1","CA","2918","4502322178","<MISSING>","45.397625","-74.056282","<MISSING>","https://www.orangetheory.com/en-ca/locations/ontario/vaudreuil-dorion/3080-boulevard-de-la-gare-350/"
"https://www.orangetheory.com","Burlington Fairview","3315 Fairview Street","Burlington","ON","L7N 3N9","CA","2841","2897804500","<MISSING>","43.353924","-79.787567","<MISSING>","https://www.orangetheory.com/en-ca/locations/ontario/burlington/3315-fairview-street/"
"https://www.orangetheory.com","North Burlington","3450 Dundas St. West","Burlington","ON","L7M 4B8","CA","2847","2897804544","<MISSING>","43.389946","-79.824242","<MISSING>","https://www.orangetheory.com/en-ca/locations/ontario/burlington/3450-dundas-st-west/"
"https://www.orangetheory.com","Brampton #1","35 Resolution Drive, Unit J08","Brampton","ON","L6W 0A6","CA","2851","9057991600","<MISSING>","43.679043","-79.721352","<MISSING>","https://www.orangetheory.com/en-ca/locations/ontario/brampton/35-resolution-drive-unit-j08/"
"https://www.orangetheory.com","Brampton-Lionhead","8275 Financial Drive","Brampton","ON","L6Y 5G8","CA","33655","9057991600","<MISSING>","43.635025","-79.786949","<MISSING>","https://www.orangetheory.com/en-ca/locations/ontario/brampton/8275-financial-drive/"
"https://www.orangetheory.com","Cambridge","350 Hespeler Road Unit 2","Cambridge","ON","N1R 7N7","CA","2920","2266160716","<MISSING>","43.390926","-80.324158","<MISSING>","https://www.orangetheory.com/en-ca/locations/ontario/cambridge/350-hespeler-rd-unit-2/"
"https://www.orangetheory.com","Whitby","4071 Thickson Road. NW","Whitby","ON","L1R 2X3","CA","2848","9054810101","<MISSING>","43.923664","-78.928123","<MISSING>","https://www.orangetheory.com/en-ca/locations/ontario/whitby/4071-thickson-road-1/"
"https://www.orangetheory.com","St. Catharines","420 Vansickle RD., Unit E-07","St. Catharines","ON","L2R 6P9","CA","30358","9052383005","<MISSING>","43.151726","-79.267731","<MISSING>","https://www.orangetheory.com/en-ca/locations/ontario/st-catharines/420-vansickle-rd-unit-e-07/"
"https://www.orangetheory.com","Waterloo, CAN","450 Columbia Street West","Waterloo","ON","N2T 2W1","CA","2821","2262433575","<MISSING>","43.46846","-80.56868","<MISSING>","https://www.orangetheory.com/en-ca/locations/ontario/waterloo/450-columbia-street-w/"
"https://www.orangetheory.com","Kingston, Ontario Can","500 Gardiners Road - Unit 6B","Kingston","ON","K7M 7W8","CA","2827","6137042474","<MISSING>","44.23584","-76.566948","<MISSING>","https://www.orangetheory.com/en-ca/locations/ontario/kingston/500-gardiners-road-unit-6b/"
"https://www.orangetheory.com","Kanata - South","Unit 2, 5703 Hazeldean Road","Stittsville","ON","K2S 0P6","CA","2825","6135050270","<MISSING>","45.285175","-75.913612","<MISSING>","https://www.orangetheory.com/en-ca/locations/ontario/stittsville/5703-hazeldean-road-unit-2/"
"https://www.orangetheory.com","Parklawn, CAN","6 Parklawn Road","Toronto","ON","M8V 1A4","CA","2780","4169250254","<MISSING>","43.623215","-79.481979","<MISSING>","https://www.orangetheory.com/en-ca/locations/ontario/etobicoke/6-park-lawn-road/"
"https://www.orangetheory.com","Fort York","600 Fleet Street","Toronto","ON","M5V 1B7","CA","3080","4165465445","<MISSING>","43.636669","-79.400444","<MISSING>","https://www.orangetheory.com/en-ca/locations/ontario/liberty-village/600-fleet-street/"
"https://www.orangetheory.com","East Hamilton, CAN","75 Centennial Parkway North","Hamilton","ON","L8E 2P2","CA","2812","2897992156","<MISSING>","43.230831","-79.764908","<MISSING>","https://www.orangetheory.com/en-ca/locations/ontario/hamilton/75-centennial-parkway-north/"
"https://www.orangetheory.com","Oshawa, CAN","789 Taunton Road East","Oshawa","ON","L1H 7K5","CA","2781","9053353076","<MISSING>","43.938313","-78.850494","<MISSING>","https://www.orangetheory.com/en-ca/locations/ontario/oshawa/789-taunton-rd/"
"https://www.orangetheory.com","Guelph, CAN","84 Clair RD. E.","Guelph","ON","N1L 0G6","CA","2822","2267800822","<MISSING>","43.501385","-80.187462","<MISSING>","https://www.orangetheory.com/en-ca/locations/ontario/guelph/84-clair-rd-e/"
"https://www.orangetheory.com","York Mills and Leslie Trade","861 York Mills Road","Toronto","ON","M3B 1Y2","CA","2909","4162339999","<MISSING>","43.754219","-79.35141","<MISSING>","https://www.orangetheory.com/en-ca/locations/ontario/york-mills/861-york-mills-road/"
"https://www.orangetheory.com","Markham West, CAN","Unit A3. 8630 Woodbine Ave.","Markhan","ON","L3R 4X8","CA","2917","2898093443 ext 3","<MISSING>","43.853172","-79.35939","<MISSING>","https://www.orangetheory.com/en-ca/locations/ontario/markham/8630-woodbine-avernunit-a3/"
"https://www.orangetheory.com","Rutherford","9200 Bathurst St., Unit 25B","Vaughan","ON","L4J 8W1","CA","2803","2898094303","<MISSING>","43.846619","-79.460098","<MISSING>","https://www.orangetheory.com/en-ca/locations/ontario/vaughan/9200-bathurst-street-unit-25b/"
"https://www.orangetheory.com","Ancaster","Unit 3, 1191 Wilson Street West","Ancaster","ON","L9G 0E8","CA","2828","9053048300","<MISSING>","43.197117","-80.020332","<MISSING>","https://www.orangetheory.com/en-ca/locations/ontario/ancaster/unit-3-1191-wilson-street-west/"
"https://www.orangetheory.com","North Oakville, CAN","Unit G2A 275 Hays Blvd","Oakville","ON","L6H 6Z3","CA","2782","2898134247","<MISSING>","43.4851","-79.718605","<MISSING>","https://www.orangetheory.com/en-ca/locations/ontario/oakville/unit-g2a-275-hays-blvd/"
"https://www.orangetheory.com","Bolton","196 McEwan Road East. Unit 13","Bolton","ON","L7E 4E5","CA","3148","2892065431","<MISSING>","43.863091","-79.70813","<MISSING>","https://www.orangetheory.com/en-ca/locations/ontario/bolton/196-mcewan-road-east-unit-13/"
"https://www.orangetheory.com","Bedford","1201 Larry Uteck Blvd. Unit #101","Bedford","NS","B4B 0S9","CA","22326","9028001225","<MISSING>","44.701969","-63.701767","<MISSING>","https://www.orangetheory.com/en-ca/locations/nova-scotia/bedford/1201-larry-uteck-blvdrnunit-101/"
"https://www.orangetheory.com","Halifax","6140 Young Street Unit 40","Halifax","ON","B3K 0G2","CA","2779","9028001225","<MISSING>","44.658035","-63.603809","<MISSING>","https://www.orangetheory.com/en-ca/locations/nova-scotia/halifax/6140-young-street-unit-40/"
"https://www.orangetheory.com","Regina, CAN","2101 Quance Street","Regina","SK","S4V 3L9","CA","2811","3065453500","<MISSING>","50.44455","-104.555145","<MISSING>","https://www.orangetheory.com/en-ca/locations/saskatchewan/regina-east/2101-quance-street/"
"https://www.orangetheory.com","Regina South, Canada","2635 Gordon Road","Regina","SK","S4S 6H7","CA","2996","3069920656","<MISSING>","50.403614","-104.619568","<MISSING>","https://www.orangetheory.com/en-ca/locations/saskatchewan/regina/2635-gordon-rd/"
"https://www.orangetheory.com","Saskatoon","Unit 100 311 Cope Lane","Saskatoon","SK","S7T 0G3","CA","2875","3062446764","<MISSING>","52.084824","-106.641617","<MISSING>","https://www.orangetheory.com/en-ca/locations/saskatchewan/saskatoon/unit-100-311-cope-lane/"
"https://www.orangetheory.com","University Heights","Unit 122. 1820 McOrmond Drive","Saskatoon","SK","S7S 0A6","CA","2961","3065001588","<MISSING>","52.147602","-106.567932","<MISSING>","https://www.orangetheory.com/en-ca/locations/saskatchewan/saskatoon/unit-122-1820-mcormond-drive/"
"https://www.orangetheory.com","Unicity-Charleswood","3647 Portage Avenue","Winnipeg","MB","R3K 2G6","CA","23784","2044806849","<MISSING>","49.88438","-97.312126","<MISSING>","https://www.orangetheory.com/en-ca/locations/manitoba/winnipeg/3647-portage-ave/"
"https://www.orangetheory.com","Sage Creek - Winnipeg, CAN","50 Sage Creek Blvd, Unit 802","Winnipeg","MB","R3X 0J6","CA","2786","2042720322","<MISSING>","49.832752","-97.047607","<MISSING>","https://www.orangetheory.com/en-ca/locations/manitoba/winnipeg/50-sage-creek-blvd-unit-802/"
"https://www.orangetheory.com","Taylor, CAN","7-1170 Taylor Avenue","Winnipeg","MB","R3M 3Z4","CA","2789","2048089794","<MISSING>","49.852047","-97.166458","<MISSING>","https://www.orangetheory.com/en-ca/locations/manitoba/winnipeg/7-1170-taylor-avenue/"
"https://www.orangetheory.com","East St. Paul, Manitoba","7  3014 Henderson Highway","East St. Paul","MB","R2E 0H9","CA","2831","2048089412","<MISSING>","49.986584","-97.046265","<MISSING>","https://www.orangetheory.com/en-ca/locations/manitoba/winnipeg/7-3014-henderson-highway/"
"https://www.orangetheory.com","Bridgwater Winnipeg, Manitoba","Unit 310 - 350 North Town Road","Winnipeg","MB","R3Y 0Y4","CA","2672","2048089399","<MISSING>","49.798374","-97.195595","<MISSING>","https://www.orangetheory.com/en-ca/locations/manitoba/winnipeg/unit-310-350-north-town-road/"
"https://www.orangetheory.com","St. John's, CAN","70 White Rose Drive Unit 1","St.John's","NFLD","A1A 0L2","CA","2795","7097000330","<MISSING>","47.619701","-52.719501","<MISSING>","https://www.orangetheory.com/en-ca/locations/newfoundland/st-johns-newfoundland/70-white-rose-drive-unit-1/"
"https://www.orangetheory.com","Corporate HQ","6000 Broken Sound Parkway NW","Boca Raton","Florida","33487","US","1","<MISSING>","<MISSING>","53.307903","-192.216797","<MISSING>","https://www.orangetheory.com/en-us/locations/florida/boca-raton/6000-broken-sound-parkway-nw/"
"https://www.orangetheory.com","Boca Raton - East, FL","10 E. Palmetto Park Rd.","Boca Raton","Florida","33432","US","1036","5615717740","<MISSING>","26.35004","-80.087143","<MISSING>","https://www.orangetheory.com/en-us/locations/florida/boca-raton/10-e-palmetto-park-rd/"
"https://www.orangetheory.com","Boca Raton - Central, FL","2240 N.W. 19th Street","Boca Raton","Florida","33431","US","1089","5617500900","<MISSING>","26.365711","-80.12542","<MISSING>","https://www.orangetheory.com/en-us/locations/florida/boca-raton/2240-n-w-19th-street/"
"https://www.orangetheory.com","Boca Raton - West, FL","8903 Glades Rd, Ste H13","Boca Raton","Florida","33434","US","1686","5614881955","<MISSING>","26.369719","-80.185211","<MISSING>","https://www.orangetheory.com/en-us/locations/florida/boca-raton/8903-glades-rd-ste-h13/"
"https://www.orangetheory.com","Boca Beach Club, FL","900 S Ocean Blvd","Boca Raton","Florida","33432","US","3029","5614080003","<MISSING>","26.340084","-80.073166","<MISSING>","https://www.orangetheory.com/en-us/locations/florida/boca-raton/900-s-ocean-blvd/"
"https://www.orangetheory.com","The Lab","6000 Broken Sound NW, Suite 200a","Boca Raton","Florida","33487","US","9434","<MISSING>","<MISSING>","26.403","-80.114998","<MISSING>","https://www.orangetheory.com/en-us/locations/florida/boca-raton/6000-broken-sound-nw-suite-200a/"
"https://www.orangetheory.com","Fort Lauderdale, FL","1835 Cordova Rd.","Ft. Lauderdale","Florida","33316","US","1038","9547656014","<MISSING>","26.099026","-80.13076","<MISSING>","https://www.orangetheory.com/en-us/locations/florida/ft-lauderdale/1835-cordova-rd/"
"https://www.orangetheory.com","Central Fort Lauderdale, FL","2354 N Federal Hwy.","Ft. Lauderdale","Florida","33305","US","1039","9543722361","<MISSING>","26.154259","-80.117386","<MISSING>","https://www.orangetheory.com/en-us/locations/florida/ft-lauderdale/2354-n-federal-hwy/"
"https://www.orangetheory.com","North Ft. Lauderdale - Commercial, FL","1759 E Commercial Blvd.","Ft. Lauderdale","Florida","33334","US","1054","9542299800","<MISSING>","26.189137","-80.123512","<MISSING>","https://www.orangetheory.com/en-us/locations/florida/ft-lauderdale/1759-e-commercial-blvd/"
"https://www.orangetheory.com","Lighthouse Point, FL","3778 N Federal Hwy.","Lighthouse Point","Florida","33064","US","1043","9547810800","<MISSING>","26.277647","-80.097","<MISSING>","https://www.orangetheory.com/en-us/locations/florida/lighthouse-point/3778-n-federal-hwy/"
"https://www.orangetheory.com","Winter Park, FL","115 N Orlando Ave","Winter Park","Florida","32789","US","1044","4079153373","<MISSING>","28.59791","-81.365654","<MISSING>","https://www.orangetheory.com/en-us/locations/florida/winter-park/115-n-orlando-ave/"
"https://www.orangetheory.com","Altamonte Springs, FL","397 E. Altamonte Dr Suite 1450","Altamonte","Florida","32701","US","1045","3218003004","<MISSING>","28.664383","-81.379349","<MISSING>","https://www.orangetheory.com/en-us/locations/florida/altamonte/397-e-altamonte-dr-suite-1450/"
"https://www.orangetheory.com","Colonial Plaza, FL","2714 E Colonial Dr","Orlando","Florida","32803","US","1053","4078981888","<MISSING>","28.55233","-81.348671","<MISSING>","https://www.orangetheory.com/en-us/locations/florida/orlando/2714-e-colonial-dr/"
"https://www.orangetheory.com","Orlando - Millenia, FL","4632 Millenia Plaza Way","Orlando","Florida","32839","US","1060","4079304200","<MISSING>","28.495127","-81.429016","<MISSING>","https://www.orangetheory.com/en-us/locations/florida/orlando/4632-millenia-plaza-way/"
"https://www.orangetheory.com","Orlando - Dr Phillips, FL","7343 W Sand Lake Rd., Suite 1001","Orlando","Florida","32819","US","1065","4079822822","<MISSING>","28.450983","-81.481194","<MISSING>","https://www.orangetheory.com/en-us/locations/florida/orlando/7343-w-sand-lake-rd-suite-1001/"
"https://www.orangetheory.com","Orlando - Waterford Park, FL","12301 Lake Underhill Road","Orlando","Florida","32828","US","1071","4074402906","<MISSING>","28.548031","-81.203133","<MISSING>","https://www.orangetheory.com/en-us/locations/florida/orlando/12301-lake-underhill-road/"
"https://www.orangetheory.com","Nona, FL","9161 Narcoossee Road, Suite #104","Orlando","Florida","32827","US","1086","4079956220","<MISSING>","28.434065","-81.256271","<MISSING>","https://www.orangetheory.com/en-us/locations/florida/orlando/9161-narcoossee-road-suite-104/"
"https://www.orangetheory.com","Orlando - Sodo","1725 South Orange Avenue","ORLANDO","Florida","32806","US","2885","4074775388","<MISSING>","28.521807","-81.376137","<MISSING>","https://www.orangetheory.com/en-us/locations/florida/orlando/1725-south-orange-avenue/"
"https://www.orangetheory.com","St. Augustine, FL","833 South Ponce de Leon Boulevard","St.Augustine","Florida","32084","US","1058","9046478088","<MISSING>","29.88133","-81.325096","<MISSING>","https://www.orangetheory.com/en-us/locations/florida/st-augustine/833-south-ponce-de-leon-boulevard/"
"https://www.orangetheory.com","Gainesville SW, FL","3205 Clark Butler Road, Suite 20","Gainesville","Florida","32605","US","1059","3522420020","<MISSING>","29.62422","-82.382042","<MISSING>","https://www.orangetheory.com/en-us/locations/florida/gainesville/3205-clark-butler-road-suite-20/"
"https://www.orangetheory.com","Gainesville University, FL","50 NW 13th St","Gainesville","Florida","32601","US","30364","3524153080","<MISSING>","29.652617","-82.339539","<MISSING>","https://www.orangetheory.com/en-us/locations/florida/gainesville/50-nw-13th-st/"
"https://www.orangetheory.com","Gainesville, FL","2005 NW 43rd Street","Gainesville","Florida","32605","US","1075","3525593937","<MISSING>","29.671684","-82.388107","<MISSING>","https://www.orangetheory.com/en-us/locations/florida/gainesville/2005-nw-43rd-street/"
"https://www.orangetheory.com","University Park, FL","5275 University Parkway, Unit #116","Brandenton","Florida","34201","US","1061","9414442435","<MISSING>","27.390533","-82.465851","<MISSING>","https://www.orangetheory.com/en-us/locations/florida/brandenton/5275-university-parkway-unit-116/"
"https://www.orangetheory.com","Weston, FL","1132 Weston Road","Weston","Florida","33326","US","1062","9548886660","<MISSING>","26.105803","-80.364403","<MISSING>","https://www.orangetheory.com/en-us/locations/florida/weston/1132-weston-road/"
"https://www.orangetheory.com","Pinecrest, FL","8511 SW 136th Street","Miami","Florida","33156","US","1063","3052327722","<MISSING>","25.644012","-80.331337","<MISSING>","https://www.orangetheory.com/en-us/locations/florida/miami/8511-sw-136th-street/"
"https://www.orangetheory.com","Country Walk, FL","13550 S.W 120th Street, Suite 402","Miami","Florida","33186","US","1066","3052542683","<MISSING>","25.655453","-80.414955","<MISSING>","https://www.orangetheory.com/en-us/locations/florida/miami/13550-s-w-120th-street-suite-402/"
"https://www.orangetheory.com","West Kendall, FL","14627 SW 56th St.","Miami","Florida","33175","US","1067","3056151095","<MISSING>","25.713961","-80.429688","<MISSING>","https://www.orangetheory.com/en-us/locations/florida/miami/14627-sw-56th-st/"
"https://www.orangetheory.com","Downtown Dadeland, FL","9045 SW 72nd Place, Suite E150C","Miami","Florida","33156","US","1077","3052227400","<MISSING>","25.686674","-80.312828","<MISSING>","https://www.orangetheory.com/en-us/locations/florida/miami/9045-sw-72nd-place-suite-e150c/"
"https://www.orangetheory.com","Downtown Miami - Vizcayne, FL","269 NE 2nd Street","Miami","Florida","33132","US","1626","7864310294","<MISSING>","25.776991","-80.188797","<MISSING>","https://www.orangetheory.com/en-us/locations/florida/miami/269-ne-2nd-street/"
"https://www.orangetheory.com","Tamiami, FL","1315 -B SW 107th Avenue","Miami","Florida","33174","US","2384","7868995082","<MISSING>","25.756596","-80.367065","<MISSING>","https://www.orangetheory.com/en-us/locations/florida/miami/1315-b-sw-107th-avenue/"
"https://www.orangetheory.com","Naples, FL","7935 Airport Pulling Road, Unit 1","Naples","Florida","34109","US","1064","2395995650","<MISSING>","26.241467","-81.77047","<MISSING>","https://www.orangetheory.com/en-us/locations/florida/naples/7935-airport-pulling-road-unit-1/"
"https://www.orangetheory.com","Naples Coastland Center, FL","1900 Tamiami Trail N,","NAPLES","Florida","34102","US","1344","2396874808","<MISSING>","26.169947","-81.797073","<MISSING>","https://www.orangetheory.com/en-us/locations/florida/naples/1900-tamiami-trail-n/"
"https://www.orangetheory.com","Hunters Creek, FL","1021 W Osceola Pkwy","Kissimmee","Florida","34741","US","1068","4077204646","<MISSING>","28.341316","-81.412003","<MISSING>","https://www.orangetheory.com/en-us/locations/florida/kissimmee/1021-w-osceola-pkwy/"
"https://www.orangetheory.com","Hollywood, FL","3251 Hollywood Blvd","Hollywood","Florida","33021","US","1069","9545918053","<MISSING>","26.013927","-80.173988","<MISSING>","https://www.orangetheory.com/en-us/locations/florida/hollywood/3251-hollywood-blvd/"
"https://www.orangetheory.com","Vero Beach, FL","5240 US HWY 1","Vero Beach","Florida","32967","US","1072","7722053733","<MISSING>","27.692226","-80.412117","<MISSING>","https://www.orangetheory.com/en-us/locations/florida/vero-beach/5240-us-hwy-1/"
"https://www.orangetheory.com","Royal Palm Beach, FL","11021 Southern Blvd. S-130","Royal Palm Beach","Florida","33411","US","1073","5617538111","<MISSING>","26.682581","-80.222878","<MISSING>","https://www.orangetheory.com/en-us/locations/florida/royal-palm-beach/11021-southern-blvd-s-130/"
"https://www.orangetheory.com","Channelside, FL","140 S Meridian Avenue","Tampa","Florida","33602","US","1074","8135139845","<MISSING>","27.945093","-82.448639","<MISSING>","https://www.orangetheory.com/en-us/locations/florida/tampa/140-s-meridian-avenue/"
"https://www.orangetheory.com","South Tampa, FL","115 South Dale Mabry","Tampa","Florida","33609","US","1092","8133560620","<MISSING>","27.94359","-82.506142","<MISSING>","https://www.orangetheory.com/en-us/locations/florida/tampa/115-south-dale-mabry/"
"https://www.orangetheory.com","Westchase - Tampa, FL","11721 W. Hillsborough Ave.","Tampa","Florida","33635","US","1096","8138528009","<MISSING>","28.015686","-82.615372","<MISSING>","https://www.orangetheory.com/en-us/locations/florida/tampa/11721-w-hillsborough-ave/"
"https://www.orangetheory.com","New Tampa, FL","17515 Preserve Walk Lane","Tampa","Florida","33647","US","1098","8137743488","<MISSING>","28.128263","-82.368813","<MISSING>","https://www.orangetheory.com/en-us/locations/florida/tampa/17515-preserve-walk-lane/"
"https://www.orangetheory.com","Carrollwood, FL","13122 N Dale Mabry Hwy","Tampa","Florida","33618","US","1120","8139643194","<MISSING>","28.065943","-82.505074","<MISSING>","https://www.orangetheory.com/en-us/locations/florida/tampa/13122-n-dale-mabry-hwy/"
"https://www.orangetheory.com","Temple Terrace, FL","2798-B Fowler Ave","Tampa","Florida","33612","US","18279","8134002977","<MISSING>","28.055014","-82.427155","<MISSING>","https://www.orangetheory.com/en-us/locations/florida/tampa/2798-b-fowler-ave/"
"https://www.orangetheory.com","Wesley Chapel, FL","28210 Paseo Drive, Suite 110","Wesley Chapel","Florida","33543","US","1076","8132350664","<MISSING>","28.188145","-82.349739","<MISSING>","https://www.orangetheory.com/en-us/locations/florida/wesley-chapel/28210-paseo-drive-suite-110/"
"https://www.orangetheory.com","Coral Gables, FL","2300 Salzedo St","Coral Gables","Florida","33134","US","1078","3054606006","<MISSING>","25.75107","-80.260765","<MISSING>","https://www.orangetheory.com/en-us/locations/florida/coral-gables/2300-salzedo-st/"
"https://www.orangetheory.com","Sarasota Downtown, FL","1605 Main St","Sarasota","Florida","34236","US","1079","9414442440","<MISSING>","27.336771","-82.538055","<MISSING>","https://www.orangetheory.com/en-us/locations/florida/sarasota/1605-main-st/"
"https://www.orangetheory.com","Sarasota, FL","6509 S Tamiami Trail","Sarasota","Florida","34231","US","1117","9414442439","<MISSING>","27.260239","-82.522339","<MISSING>","https://www.orangetheory.com/en-us/locations/florida/sarasota/6509-s-tamiami-trail/"
"https://www.orangetheory.com","Celebration, FL","49 Blake Blvd.","Celebration","Florida","34747","US","1080","4076132161","<MISSING>","28.330502","-81.527634","<MISSING>","https://www.orangetheory.com/en-us/locations/florida/celebration/49-blake-blvd/"
"https://www.orangetheory.com","Fort Myers, FL","11600 Gladiolus Drive, Unit #317","Fort Myers","Florida","33908","US","1081","2392430730","<MISSING>","26.517328","-81.941925","<MISSING>","https://www.orangetheory.com/en-us/locations/florida/fort-myers/11600-gladiolus-drive-unit-317/"
"https://www.orangetheory.com","Fort Myers - Six Mile Cypress, FL","8001 Dani Drive","Fort Myers","Florida","33966","US","1109","2392925826","<MISSING>","26.605871","-81.810425","<MISSING>","https://www.orangetheory.com/en-us/locations/florida/fort-myers/8001-dani-drive/"
"https://www.orangetheory.com","North Melbourne, FL","6365 Wickham Road , D301","Melbourne","Florida","32940","US","1082","3218004466","<MISSING>","28.216532","-80.672157","<MISSING>","https://www.orangetheory.com/en-us/locations/florida/melbourne/6365-wickham-road-d301/"
"https://www.orangetheory.com","Ocala, FL","4414 SW College Rd., Suite 960","Ocala","Florida","34474","US","1083","3524330220","<MISSING>","29.139986","-82.192436","<MISSING>","https://www.orangetheory.com/en-us/locations/florida/ocala/4414-sw-college-rd-suite-960/"
"https://www.orangetheory.com","Lake Worth, FL","6177 Jog Road #9D","Lake Worth","Florida","33467","US","1084","5613276100","<MISSING>","26.587429","-80.147499","<MISSING>","https://www.orangetheory.com/en-us/locations/florida/lake-worth/6177-jog-road-9d/"
"https://www.orangetheory.com","Lakewood Ranch, FL","5496 Lena Rd.","Bradenton","Florida","34211","US","1085","9414442442","<MISSING>","27.440748","-82.454865","<MISSING>","https://www.orangetheory.com/en-us/locations/florida/bradenton/5496-lena-rd/"
"https://www.orangetheory.com","Tallahassee, FL","1321 Thomasville Road, Unit 1","Tallahassee","Florida","32303","US","1087","8502100503","<MISSING>","30.4571","-84.276962","<MISSING>","https://www.orangetheory.com/en-us/locations/florida/tallahassee/1321-thomasville-road-unit-1/"
"https://www.orangetheory.com","Tallahassee - North, FL","1400 Village Square Blvd., Suite 26","Tallahassee","Florida","32309","US","1256","8508959683","<MISSING>","30.511744","-84.248688","<MISSING>","https://www.orangetheory.com/en-us/locations/florida/tallahassee/1400-village-square-blvd-suite-26/"
"https://www.orangetheory.com","Clermont, FL","13900 County Rd 455","Clermont","Florida","34711","US","1088","4079102333","<MISSING>","28.549438","-81.682274","<MISSING>","https://www.orangetheory.com/en-us/locations/florida/clermont/13900-county-rd-455/"
"https://www.orangetheory.com","Miami-Bird Rd, FL","7396 SW 40th St","Miami","Florida","33155","US","1091","3052640087","<MISSING>","25.73296","-80.31498","<MISSING>","https://www.orangetheory.com/en-us/locations/florida/miami-lakes/7396-sw-40th-st/"
"https://www.orangetheory.com","Miami Lakes, Florida","15490-B NW 77th Court","Miami Lakes","Florida","33016","US","1100","3058240420","<MISSING>","25.915236","-80.327141","<MISSING>","https://www.orangetheory.com/en-us/locations/florida/miami-lakes/15490-b-nw-77th-court/"
"https://www.orangetheory.com","Delray Beach -East, FL","3100 S Federal Hwy #1","Delray Beach","Florida","33483","US","1093","5612742550","<MISSING>","26.426298","-80.07328","<MISSING>","https://www.orangetheory.com/en-us/locations/florida/delray-beach/3100-s-federal-hwy-1/"
"https://www.orangetheory.com","Delray Beach - West, FL","9097 West Atlantic Avenue, Suite 110","Delray Beach","Florida","33446","US","1142","5613761127","<MISSING>","26.454641","-80.190819","<MISSING>","https://www.orangetheory.com/en-us/locations/florida/delray-beach/9097-west-atlantic-avenue-suite-110/"
"https://www.orangetheory.com","Delray Beach North, FL","264-278 SE 5th Avenue","Delray Beach","Florida","33483","US","3158","5616750600","<MISSING>","26.456697","-80.06823","<MISSING>","https://www.orangetheory.com/en-us/locations/florida/delray-beach/264-278-se-5th-avenue/"
"https://www.orangetheory.com","Brandon, FL","2052 Badlands St","Brandon","Florida","33511","US","1094","8137743800","<MISSING>","27.927418","-82.31633","<MISSING>","https://www.orangetheory.com/en-us/locations/florida/brandon/2052-badlands-st/"
"https://www.orangetheory.com","Miramar, FL","12316 Miramar Parkway","Miramar","Florida","33025","US","1095","9549083636","<MISSING>","25.978153","-80.310432","<MISSING>","https://www.orangetheory.com/en-us/locations/florida/miramar/12316-miramar-parkway/"
"https://www.orangetheory.com","Palm Beach Gardens, FL","6271 PGA Boulevard, #203","Palm Beach Gardens","Florida","33418","US","1097","5617022308","<MISSING>","26.841595","-80.134094","<MISSING>","https://www.orangetheory.com/en-us/locations/florida/palm-beach-gardens/6271-pga-boulevard-203/"
"https://www.orangetheory.com","Palm Beach Gardens East, FL","2612 PGA Blvd.","Palm Beach Gardens","Florida","33410","US","1130","5618590683","<MISSING>","26.844624","-80.075317","<MISSING>","https://www.orangetheory.com/en-us/locations/florida/palm-beach-gardens/2612-pga-blvd/"
"https://www.orangetheory.com","Coral Springs - South, FL","1308 Coral Ridge Drive","Coral Springs","Florida","33071","US","1099","9548002721","<MISSING>","26.247652","-80.280281","<MISSING>","https://www.orangetheory.com/en-us/locations/florida/coral-springs/1308-coral-ridge-drive/"
"https://www.orangetheory.com","Parkland - Coral Springs, FL","6230 Coral Ridge Drive","Coral Springs","Florida","33076","US","1628","9543457518","<MISSING>","26.307604","-80.280357","<MISSING>","https://www.orangetheory.com/en-us/locations/florida/coral-springs/6230-coral-ridge-drive/"
"https://www.orangetheory.com","Jensen Beach, FL","4215 NW Federal HWY","Jensen Beach","Florida","34957","US","1101","7722618119","<MISSING>","27.257498","-80.280312","<MISSING>","https://www.orangetheory.com/en-us/locations/florida/jensen-beach/4215-nw-federal-hwy/"
"https://www.orangetheory.com","Stuart, FL","2303 SE Federal Hwy","Stuart","Florida","34994","US","1102","7722668344","<MISSING>","27.177896","-80.236603","<MISSING>","https://www.orangetheory.com/en-us/locations/florida/stuart/2303-se-federal-hwy/"
"https://www.orangetheory.com","Jupiter, FL","6390 W. Indiantown Road Suite 24A","Jupiter","Florida","33458","US","1103","5617437770","<MISSING>","26.933826","-80.132317","<MISSING>","https://www.orangetheory.com/en-us/locations/florida/jupiter/6390-w-indiantown-road-suite-24a/"
"https://www.orangetheory.com","Oviedo, FL","976 West Mitchell Hammock Road Suite 120","OVIEDO","Florida","32765","US","1104","4079956222","<MISSING>","28.655268","-81.222824","<MISSING>","https://www.orangetheory.com/en-us/locations/florida/oviedo/976-west-mitchell-hammock-road-suite-120/"
"https://www.orangetheory.com","Oakleaf, FL","9610 Applecross Rd. Suite 102","Jacksonville,","Florida","32222","US","1105","9046611958","<MISSING>","30.196415","-81.827187","<MISSING>","https://www.orangetheory.com/en-us/locations/florida/jacksonville/9610-applecross-rd-suite-102/"
"https://www.orangetheory.com","Downtown Jacksonville - Ortega, FL","4495 Roosevelt Blvd, Suite 318","Jacksonville","Florida","32210","US","1112","9043286905","<MISSING>","30.279974","-81.718803","<MISSING>","https://www.orangetheory.com/en-us/locations/florida/jacksonville/4495-roosevelt-blvd-suite-318/"
"https://www.orangetheory.com","Jacksonville - Hodges Pointe, FL","13500 Beach Boulevard, Suite 30","Jacksonville","Florida","32224","US","1116","9042385272","<MISSING>","30.284683","-81.460739","<MISSING>","https://www.orangetheory.com/en-us/locations/florida/jacksonville/13500-beach-boulevard-suite-30/"
"https://www.orangetheory.com","Jacksonville - Southside, FL","9734 Deer Lake Court Suite 6 & 7","Jacksonville","Florida","32246","US","1121","9045591200","<MISSING>","30.265045","-81.554955","<MISSING>","https://www.orangetheory.com/en-us/locations/florida/jacksonville/9734-deer-lake-court-suite-6-7/"
"https://www.orangetheory.com","Jacksonville, FL","11111 San Jose Blvd.","Jacksonville","Florida","32223","US","1122","9048863377","<MISSING>","30.173508","-81.62674","<MISSING>","https://www.orangetheory.com/en-us/locations/florida/jacksonville/11111-san-jose-blvd/"
"https://www.orangetheory.com","Plantation, FL","10073 Cleary Boulevard","Plantation","Florida","33324","US","1106","9546938444","<MISSING>","26.135044","-80.284225","<MISSING>","https://www.orangetheory.com/en-us/locations/florida/plantation/10073-cleary-boulevard/"
"https://www.orangetheory.com","Jacksonville Beach, FL","3994 Third Street","Jacksonville Beach","Florida","32250","US","1107","9049304009","<MISSING>","30.258318","-81.387741","<MISSING>","https://www.orangetheory.com/en-us/locations/florida/jacksonville-beach/3994-third-street/"
"https://www.orangetheory.com","Cooper City, FL","5874 S Flamingo Road","Cooper City","Florida","33330","US","1108","9544346244","<MISSING>","26.046659","-80.311317","<MISSING>","https://www.orangetheory.com/en-us/locations/florida/cooper-city/5874-s-flamingo-road/"
"https://www.orangetheory.com","St. Petersburg - Downtown, FL","640 1st Ave S,","St. Petersburg - Downtown","Florida","33701","US","1110","7275135646","<MISSING>","27.770029","-82.642494","<MISSING>","https://www.orangetheory.com/en-us/locations/florida/st-petersburg-downtown/640-1st-ave-s/"
"https://www.orangetheory.com","Lake Mary, FL","3801 W Lake Mary Blvd Unit 161","Lake Mary","Florida","32746","US","1111","4078339300","<MISSING>","28.755693","-81.345207","<MISSING>","https://www.orangetheory.com/en-us/locations/florida/lake-mary/3801-w-lake-mary-blvd-unit-161/"
"https://www.orangetheory.com","West Melbourne, FL","1559 W. New Haven Avenue","WEST MELBOURNE","Florida","32904","US","1113","3213699169","<MISSING>","28.077332","-80.648285","<MISSING>","https://www.orangetheory.com/en-us/locations/florida/west-melbourne/1559-w-new-haven-avenue/"
"https://www.orangetheory.com","Tyrone, FL","1530 66th St. North","St. Petersburg","Florida","33710","US","1114","7272356998","<MISSING>","27.785744","-82.728363","<MISSING>","https://www.orangetheory.com/en-us/locations/florida/st-petersburg/1530-66th-st-north/"
"https://www.orangetheory.com","St. Petersburg, FL","5032 4th Street, North","St. Petersburg","Florida","33703","US","1163","7278975566","<MISSING>","27.818382","-82.639168","<MISSING>","https://www.orangetheory.com/en-us/locations/florida/st-petersburg/5032-4th-street-north/"
"https://www.orangetheory.com","Ponte Vedra Beach - Nocatee, FL","152 Capital Green Drive Ste 32","Ponte Vedra","Florida","32081","US","1115","9049007644","<MISSING>","30.109701","-81.418327","<MISSING>","https://www.orangetheory.com/en-us/locations/florida/ponte-vedra/152-capital-green-drive-ste-32/"
"https://www.orangetheory.com","West Palm Beach, FL","1900 Okeechobee Blvd Bay A-1","West Palm Beach","Florida","33409","US","1118","5617711180","<MISSING>","26.705643","-80.081131","<MISSING>","https://www.orangetheory.com/en-us/locations/florida/west-palm-beach/1900-okeechobee-blvd-bay-a-1/"
"https://www.orangetheory.com","Largo, FL","10500 Ulmerton Road, Suite 220","Largo","Florida","33771","US","1119","7274003933","<MISSING>","27.892279","-82.785416","<MISSING>","https://www.orangetheory.com/en-us/locations/florida/largo/10500-ulmerton-road-suite-220/"
"https://www.orangetheory.com","Aventura, FL","18839 NE Biscayne Boulevard, Suite A","Aventura","Florida","33180","US","1123","3054000544","<MISSING>","25.950808","-80.146553","<MISSING>","https://www.orangetheory.com/en-us/locations/florida/aventura/18839-ne-biscayne-boulevard-suite-a/"
"https://www.orangetheory.com","Coconut Creek, FL","4449 Lyons Road, J-103","Coconut Creek","Florida","33073","US","1124","9545109400","<MISSING>","26.284695","-80.187111","<MISSING>","https://www.orangetheory.com/en-us/locations/florida/coconut-creek/4449-lyons-road-j-103/"
"https://www.orangetheory.com","Winter Garden, FL","2883 Maguire Rd. Units A1004 and A1005","Windermere","Florida","34786","US","1128","4078957002","<MISSING>","28.528477","-81.542595","<MISSING>","https://www.orangetheory.com/en-us/locations/florida/windermere/2883-maguire-rd-units-a1004-and-a1005/"
"https://www.orangetheory.com","Windermere, FL","13450 Summerport Village Pkwy","Windermere","Florida","34786","US","2937","4075022656","<MISSING>","28.476673","-81.583878","<MISSING>","https://www.orangetheory.com/en-us/locations/florida/windermere/13450-summerport-village-pkwy/"
"https://www.orangetheory.com","Fleming Island, FL","1615-100 County Road 220","Fleming Island","Florida","32003","US","1131","9042385272","<MISSING>","30.102106","-81.72567","<MISSING>","https://www.orangetheory.com/en-us/locations/florida/fleming-island/1615-100-county-road-220/"
"https://www.orangetheory.com","Pensacola, FL","5555 North Davis Highway","Pensacola","Florida","32503","US","1168","8504492232","<MISSING>","30.477253","-87.225639","<MISSING>","https://www.orangetheory.com/en-us/locations/florida/pensacola/5555-north-davis-highway/"
"https://www.orangetheory.com","Miami Shores, FL","9017 Biscayne Blvd","Miami Shores","Florida","33138","US","1181","3056151299","<MISSING>","25.857958","-80.183075","<MISSING>","https://www.orangetheory.com/en-us/locations/florida/miami-shores/9017-biscayne-blvd/"
"https://www.orangetheory.com","Doral, FL","3887 NW 107th Ave","Doral","Florida","33178","US","1190","3054688028","<MISSING>","25.809952","-80.368454","<MISSING>","https://www.orangetheory.com/en-us/locations/florida/doral/3887-nw-107th-ave/"
"https://www.orangetheory.com","Lithia, FL","3313 Lithia Pinecrest Rd","Valrico","Florida","33594","US","1220","8137434683","<MISSING>","27.89592","-82.24369","<MISSING>","https://www.orangetheory.com/en-us/locations/florida/valrico/3313-lithia-pinecrest-rd/"
"https://www.orangetheory.com","Panama City Beach, FL","15500 Panama City Parkway, #780","Panama City","Florida","32413","US","1266","8502994999","<MISSING>","30.227659","-85.879616","<MISSING>","https://www.orangetheory.com/en-us/locations/florida/panama-city/15500-panama-city-parkway-780/"
"https://www.orangetheory.com","Palm Harbor, FL","33645 US Highway, 19 North","Palm Harbor","Florida","34684","US","1476","7272889901","<MISSING>","28.0784","-82.738441","<MISSING>","https://www.orangetheory.com/en-us/locations/florida/palm-harbor/33645-us-highway-19-north/"
"https://www.orangetheory.com","Trinity, FL","12546 State Rd 54","Odessa","Florida","33556","US","1498","7275001212","<MISSING>","28.189514","-82.607658","<MISSING>","https://www.orangetheory.com/en-us/locations/florida/odessa/12546-state-rd-54/"
"https://www.orangetheory.com","Pembroke Pines, FL","14918 Pines Blvd","Pembroke Pines","Florida","33027","US","1605","9545349949","<MISSING>","26.006306","-80.348145","<MISSING>","https://www.orangetheory.com/en-us/locations/florida/pembroke-pines/14918-pines-blvd/"
"https://www.orangetheory.com","Boynton Beach, FL","395 N. Congress Ave. Unit 10","Boynton Beach","Florida","33426","US","1645","5617346777","<MISSING>","26.529964","-80.090416","<MISSING>","https://www.orangetheory.com/en-us/locations/florida/boynton-beach/395-n-congress-ave-unit-10/"
"https://www.orangetheory.com","South Beach, FL","1115 5th Street","Miami Beach","Florida","33139","US","1650","3056950085","<MISSING>","25.774601","-80.139885","<MISSING>","https://www.orangetheory.com/en-us/locations/florida/miami-beach/1115-5th-street/"
"https://www.orangetheory.com","Wellington, FL","2625 State Road 7","Wellington","Florida","33414","US","1712","5612960485","<MISSING>","26.641846","-80.204765","<MISSING>","https://www.orangetheory.com/en-us/locations/florida/wellington/2625-state-road-7/"
"https://www.orangetheory.com","Clearwater , FL","25853 U.S. 19 N","Clearwater","Florida","33763","US","1717","7272889897","<MISSING>","28.007248","-82.729919","<MISSING>","https://www.orangetheory.com/en-us/locations/florida/clearwater/25853-u-s-19-n/"
"https://www.orangetheory.com","Lakeland, FL","1489 Town Center Dr.","Lakeland","Florida","33803","US","1875","8632261303","<MISSING>","27.999819","-81.98114","<MISSING>","https://www.orangetheory.com/en-us/locations/florida/lakeland/1489-town-center-dr/"
"https://www.orangetheory.com","Port ST. Lucie, FL","884 SW St. Lucie West Blvd.","Port St. Lucie","Florida","34986","US","1942","7722121470","<MISSING>","27.317547","-80.380646","<MISSING>","https://www.orangetheory.com/en-us/locations/florida/port-st-lucie/884-sw-st-lucie-west-blvd/"
"https://www.orangetheory.com","Cutler Bay, FL","18455 South Dixie Hwy","Cutler Bay","Florida","33157","US","2020","3052341141","<MISSING>","25.597988","-80.35437","<MISSING>","https://www.orangetheory.com/en-us/locations/florida/cutler-bay/18455-south-dixie-hwy/"
"https://www.orangetheory.com","N. St. Johns, FL","2851 CR 210","St. Johns","Florida","32259","US","2128","9046717071","<MISSING>","30.059303","-81.532379","<MISSING>","https://www.orangetheory.com/en-us/locations/florida/st-johns/2851-cr-210/"
"https://www.orangetheory.com","Miami - Design District, FL","89 NE 38th Street","Miami-Design District","Florida","33137","US","2230","7866673757","<MISSING>","25.812038","-80.193581","<MISSING>","https://www.orangetheory.com/en-us/locations/florida/miami-design-district/89-ne-38th-street/"
"https://www.orangetheory.com","Riverview, FL","10173 Big Bend Rd., Suite 5","Riverview","Florida","33578","US","2270","8136075646","<MISSING>","27.791943","-82.33522","<MISSING>","https://www.orangetheory.com/en-us/locations/florida/riverview/10173-big-bend-rd-suite-5/"
"https://www.orangetheory.com","Sanford - West, FL","4932 W SR 46 &#60;br /&#62;Suite 1112","Deltona","Florida","32771","US","2450","4079866295","<MISSING>","28.811943","-81.343163","<MISSING>","https://www.orangetheory.com/en-us/locations/florida/deltona/4932-w-sr-46-60-br-62-suite-1112/"
"https://www.orangetheory.com","Sunrise, FL","12532 W. Sunrise Blvd","Sunrise","Florida","33323","US","3071","9542895100","<MISSING>","26.145752","-80.315979","<MISSING>","https://www.orangetheory.com/en-us/locations/florida/sunrise/12532-w-sunrise-blvd/"
"https://www.orangetheory.com","Cape Coral-Santa Barbara","2311 Santa Barbara Blvd","Cape Coral","Florida","33991","US","3096","2392184644","<MISSING>","26.609568","-81.973572","<MISSING>","https://www.orangetheory.com/en-us/locations/florida/cape-coral/2311-santa-barbara-blvd/"
"https://www.orangetheory.com","Destin, FL","4495 Furling Lane","Destin","Florida","32541","US","3112","8505330084","<MISSING>","30.387661","-86.404884","<MISSING>","https://www.orangetheory.com/en-us/locations/florida/destin/4495-furling-lane/"
"https://www.orangetheory.com","Hallandale Beach, FL","419 N. Federal Highway Suite 107","Hallandale Beach","Florida","33009","US","3166","9548896894","<MISSING>","25.990316","-80.142761","<MISSING>","https://www.orangetheory.com/en-us/locations/florida/hallandale-beach/419-n-federal-highway-suite-107/"
"https://www.orangetheory.com","Homestead, FL","803 N. Homestead Blvd","Homestead","Florida","33030","US","5250","7866327800","<MISSING>","25.47797","-80.464241","<MISSING>","https://www.orangetheory.com/en-us/locations/florida/homestead/803-n-homestead-blvd/"
"https://www.orangetheory.com","Mount Dora, Fl","3208 SR 44","Mount Dora","Florida","32757","US","34437","3524486505","<MISSING>","28.824142","-81.64373","<MISSING>","https://www.orangetheory.com/en-us/locations/florida/mount-dora/3208-sr-44/"
"https://www.orangetheory.com","Dublin Avery Sq","6505 Perimeter Drive","Dublin","Ohio","43016","US","1040","6148524222","<MISSING>","40.105175","-83.162643","<MISSING>","https://www.orangetheory.com/en-us/locations/ohio/dublin/6505-perimeter-drive/"
"https://www.orangetheory.com","Dublin, OH","7581 Sawmill Road","Dublin","Ohio","43016","US","1129","6143569999","<MISSING>","40.120609","-83.092178","<MISSING>","https://www.orangetheory.com/en-us/locations/ohio/dublin/7581-sawmill-road/"
"https://www.orangetheory.com","Grove City, OH","2718 London Groveport Rd.","Grove City","Ohio","43123","US","1126","6148524700","<MISSING>","39.839451","-83.078835","<MISSING>","https://www.orangetheory.com/en-us/locations/ohio/grove-city/2718-london-groveport-rd/"
"https://www.orangetheory.com","Downtown Cleveland, OH","740 Prospect Avenue East","Cleveland","Ohio","44115","US","1132","2168161105","<MISSING>","41.49852","-81.68721","<MISSING>","https://www.orangetheory.com/en-us/locations/ohio/cleveland/740-prospect-avenue-east/"
"https://www.orangetheory.com","Uptown Cleveland, OH","11500 Euclid Avenue","Cleveland","Ohio","44106","US","1347","2169304546","<MISSING>","41.510078","-81.603355","<MISSING>","https://www.orangetheory.com/en-us/locations/ohio/cleveland/11500-euclid-avenue/"
"https://www.orangetheory.com","Rocky River, OH","19800 Center Ridge Rd","Rocky River","Ohio","44116","US","1159","2163703277","<MISSING>","41.465172","-81.842117","<MISSING>","https://www.orangetheory.com/en-us/locations/ohio/rocky-river/19800-center-ridge-rd/"
"https://www.orangetheory.com","Miamisburg, OH","3645 Rigby Rd","Miamisburg","Ohio","45342","US","1176","9376418783","<MISSING>","39.599541","-84.232498","<MISSING>","https://www.orangetheory.com/en-us/locations/ohio/miamisburg/3645-rigby-rd/"
"https://www.orangetheory.com","New Albany, OH","7340 Fodor Rd.","New Albany","Ohio","43054","US","1193","6149187038","<MISSING>","40.088238","-82.826149","<MISSING>","https://www.orangetheory.com/en-us/locations/ohio/new-albany/7340-fodor-rd/"
"https://www.orangetheory.com","Canton, OH","4342 Belden Village St NW","Canton","Ohio","44718","US","1199","3304231733","<MISSING>","40.85508","-81.430038","<MISSING>","https://www.orangetheory.com/en-us/locations/ohio/canton/4342-belden-village-st-nw/"
"https://www.orangetheory.com","Solon, OH","6025 Kruse Drive","Solon","Ohio","44139","US","1225","4403992999","<MISSING>","41.3932","-81.444496","<MISSING>","https://www.orangetheory.com/en-us/locations/ohio/solon/6025-kruse-drive/"
"https://www.orangetheory.com","Grandview, OH","1009 W. 5th Avenue","Columbus","Ohio","43212","US","1231","6143057555","<MISSING>","39.98819","-83.0327","<MISSING>","https://www.orangetheory.com/en-us/locations/ohio/columbus/1009-w-5th-avenue/"
"https://www.orangetheory.com","Blacklick, OH","6819 E Broad Street","Columbus","Ohio","43213","US","1244","6144270121","<MISSING>","39.980671","-82.819832","<MISSING>","https://www.orangetheory.com/en-us/locations/ohio/columbus/6819-e-broad-street/"
"https://www.orangetheory.com","Clintonville, OH","3383 N. High Street","Columbus","Ohio","43202","US","34438","6144810101","<MISSING>","40.031155","-83.016098","<MISSING>","https://www.orangetheory.com/en-us/locations/ohio/columbus/3383-n-high-street/"
"https://www.orangetheory.com","Strongsville, OH","18105 Southpark Center","Strongsville","Ohio","44136","US","1248","4402490070","<MISSING>","41.310272","-81.823761","<MISSING>","https://www.orangetheory.com/en-us/locations/ohio/strongsville/18105-southpark-center/"
"https://www.orangetheory.com","Westlake, OH","30676 Detroit Rd.","Westlake","Ohio","44145","US","1258","4407721100","<MISSING>","41.461926","-81.959816","<MISSING>","https://www.orangetheory.com/en-us/locations/ohio/westlake/30676-detroit-rd/"
"https://www.orangetheory.com","Mason, OH","8267 Arbor Square Drive","Mason","Ohio","45040","US","1273","5134455844","<MISSING>","39.319469","-84.315498","<MISSING>","https://www.orangetheory.com/en-us/locations/ohio/mason/8267-arbor-square-drive/"
"https://www.orangetheory.com","Hudson, OH","5827 Darrow Rd","Hudson","Ohio","44236","US","1305","3305954055","<MISSING>","41.22377","-81.439476","<MISSING>","https://www.orangetheory.com/en-us/locations/ohio/hudson/5827-darrow-rd/"
"https://www.orangetheory.com","Cincinnati - Oakley, OH","3202 Vandercar Dr.","Cincinnati","Ohio","45209","US","1340","5138084882","<MISSING>","39.15834","-84.427582","<MISSING>","https://www.orangetheory.com/en-us/locations/ohio/cincinnati/3202-vandercar-dr/"
"https://www.orangetheory.com","Kenwood, OH","8154 Montgomery Road,","Cincinnati","Ohio","45236","US","1423","5133189342","<MISSING>","39.203892","-84.368103","<MISSING>","https://www.orangetheory.com/en-us/locations/ohio/cincinnati/8154-montgomery-road/"
"https://www.orangetheory.com","Rookwood","3831 Edwards Road","Cincinnati","Ohio","45209","US","28733","5139065550","<MISSING>","39.150196","-84.442619","<MISSING>","https://www.orangetheory.com/en-us/locations/ohio/cincinnati/3831-edwards-road/"
"https://www.orangetheory.com","Ottawa Hills, OH","3504 Secor Rd., Suite 310","Toledo","Ohio","43606","US","1368","4195861054","<MISSING>","41.6842","-83.622902","<MISSING>","https://www.orangetheory.com/en-us/locations/ohio/toledo/3504-secor-rd-suite-310/"
"https://www.orangetheory.com","Hilliard, OH","3959 Britton Parkway","Hilliard","Ohio","43026","US","1389","6147217444","<MISSING>","40.033703","-83.131538","<MISSING>","https://www.orangetheory.com/en-us/locations/ohio/hilliard/3959-britton-parkway/"
"https://www.orangetheory.com","Brecksville, OH","8259 Chippewa Road","Brecksville","Ohio","44141","US","1395","4405504614","<MISSING>","41.320724","-81.624306","<MISSING>","https://www.orangetheory.com/en-us/locations/ohio/brecksville/8259-chippewa-road/"
"https://www.orangetheory.com","Bexley, OH","2224 E. Main Street","Bexley","Ohio","43209","US","1416","6143601212","<MISSING>","39.957775","-82.939774","<MISSING>","https://www.orangetheory.com/en-us/locations/ohio/bexley/2224-e-main-street/"
"https://www.orangetheory.com","West Chester, OH","7641 Voice of America Centre Drive","West Chester","Ohio","45069","US","1499","5137182535","<MISSING>","39.355835","-84.363785","<MISSING>","https://www.orangetheory.com/en-us/locations/ohio/west-chester/7641-voice-of-america-centre-drive/"
"https://www.orangetheory.com","Akron, OH","34 North Hawkins Avenue Suite 305","Akron","Ohio","44313","US","2143","3308645555","<MISSING>","41.11068","-81.569633","<MISSING>","https://www.orangetheory.com/en-us/locations/ohio/akron/34-north-hawkins-avenue-suite-305/"
"https://www.orangetheory.com","Mentor, OH","7519 Mentor Avenue, Suite #A14","Mentor","Ohio","44060","US","2213","4402905859","<MISSING>","41.656044","-81.372971","<MISSING>","https://www.orangetheory.com/en-us/locations/ohio/mentor/7519-mentor-avenue-suite-a14/"
"https://www.orangetheory.com","Westerville, OH","823 Polaris Pkwy","Westerville","Ohio","43082","US","2293","6143002925","<MISSING>","40.144005","-82.957947","<MISSING>","https://www.orangetheory.com/en-us/locations/ohio/westerville/823-polaris-pkwy/"
"https://www.orangetheory.com","Perrysburg, OH","3190 Chappel Dr","Perrysburg","Ohio","43551","US","2369","4194696911","<MISSING>","41.526527","-83.639473","<MISSING>","https://www.orangetheory.com/en-us/locations/ohio/perrysburg/3190-chappel-dr/"
"https://www.orangetheory.com","Lewis Center, OH","6473 Pullman Dr","Lewis Center","Ohio","43035","US","2379","7407779619","<MISSING>","40.202179","-83.026527","<MISSING>","https://www.orangetheory.com/en-us/locations/ohio/lewis-center/6473-pullman-dr/"
"https://www.orangetheory.com","Canal Winchester, OH","6047 Gender Road,","Canal Winchester","Ohio","43110","US","2405","6142545523","<MISSING>","39.857128","-82.828079","<MISSING>","https://www.orangetheory.com/en-us/locations/ohio/canal-winchester/6047-gender-road/"
"https://www.orangetheory.com","Short North Columbus, OH","977 N. High St.","Short North Columbus","Ohio","43201","US","2458","6147210031","<MISSING>","39.982231","-83.004868","<MISSING>","https://www.orangetheory.com/en-us/locations/ohio/short-north-columbus/977-n-high-st/"
"https://www.orangetheory.com","Beachwood, OH","2101 Richmond Rd","Beachwood","Ohio","44122","US","2816","2163072777","<MISSING>","41.500423","-81.496796","<MISSING>","https://www.orangetheory.com/en-us/locations/ohio/beachwood/2101-richmond-rd/"
"https://www.orangetheory.com","Anderson Township, OH","7632 Beechmont Ave","Anderson Township","Ohio","45255","US","2940","5137958085","<MISSING>","39.072868","-84.346489","<MISSING>","https://www.orangetheory.com/en-us/locations/ohio/anderson-township/7632-beechmont-ave/"
"https://www.orangetheory.com","Orange, OH","200 Park Avenue,Suite 144","Orange","Ohio","44122","US","2958","2169304800","<MISSING>","41.453121","-81.48645","<MISSING>","https://www.orangetheory.com/en-us/locations/ohio/orange/200-park-avenue-suite-144/"
"https://www.orangetheory.com","N.Olmsted, OH","26092 Brookpark Rd.","N.Olmsted","Ohio","44070","US","2959","4403401229","<MISSING>","41.418991","-81.911995","<MISSING>","https://www.orangetheory.com/en-us/locations/ohio/n-olmsted/26092-brookpark-rd/"
"https://www.orangetheory.com","Medina, OH","1120 North Court St","Medina","Ohio","44256","US","2962","3306360388","<MISSING>","41.156384","-81.860939","<MISSING>","https://www.orangetheory.com/en-us/locations/ohio/medina/1120-north-court-st/"
"https://www.orangetheory.com","Youngstown, OH","463 Boardman Poland Road","Boardman","Ohio","44512","US","3025","3307927272","<MISSING>","41.024311","-80.648849","<MISSING>","https://www.orangetheory.com/en-us/locations/ohio/boardman/463-boardman-poland-road/"
"https://www.orangetheory.com","Lakewood","14202 Detroit Rd","Lakewood","Ohio","44107","US","3099","2163520782","<MISSING>","41.485954","-81.792183","<MISSING>","https://www.orangetheory.com/en-us/locations/ohio/lakewood/14202-detroit-rd/"
"https://www.orangetheory.com","GAHANNA","319 StoneRidge Lane","Gahanna","Ohio","43230","US","3100","6142103955","<MISSING>","40.051754","-82.8675","<MISSING>","https://www.orangetheory.com/en-us/locations/ohio/gahanna/319-stoneridge-lane/"
"https://www.orangetheory.com","Fairfield Township","3397 Princeton Rd #105","Hamilton","Ohio","45011","US","3104","5133340511","<MISSING>","39.390182","-84.503357","<MISSING>","https://www.orangetheory.com/en-us/locations/ohio/hamilton/3397-princeton-rd-105/"
"https://www.orangetheory.com","Copley","4161 Heritage Center Dr.","Copley","Ohio","44321","US","3118","3308016404","<MISSING>","41.134647","-81.659737","<MISSING>","https://www.orangetheory.com/en-us/locations/ohio/copley/4161-heritage-center-dr/"
"https://www.orangetheory.com","Beavercreek","2484 North Fairfield Road","Beavercreek","Ohio","45431","US","17025","9379861000","<MISSING>","39.761681","-84.051964","<MISSING>","https://www.orangetheory.com/en-us/locations/ohio/beavercreek/2484-north-fairfield-road/"
"https://www.orangetheory.com","Macedonia, OH","746 E Aurora Rd Ste 4","Macedonia","Ohio","44056","US","17547","2162453327","<MISSING>","41.3134","-81.51207","<MISSING>","https://www.orangetheory.com/en-us/locations/ohio/macedonia/746-e-aurora-rd-ste-4/"
"https://www.orangetheory.com","Avon Commons, OH","35880 Detroit Rd, Unit I","Avon","Ohio","44011","US","22984","4404671333","<MISSING>","41.463299","-82.014366","<MISSING>","https://www.orangetheory.com/en-us/locations/ohio/avon/35880-detroit-rd-unit-i/"
"https://www.orangetheory.com","HARPER'S POINT, OH","11206 Montgomery Rd","Montgomery","Ohio","45209","US","30587","5138282400","<MISSING>","39.2677","-84.330978","<MISSING>","https://www.orangetheory.com/en-us/locations/ohio/montgomery/11206-montgomery-rd/"
"https://www.orangetheory.com","Alameda, CA","2610 Fifth Street","Alameda","California","94501","US","1041","5109274414","<MISSING>","37.785954","-122.281227","<MISSING>","https://www.orangetheory.com/en-us/locations/california/alameda/2610-fifth-street/"
"https://www.orangetheory.com","Dublin, CA","5258 Dublin Blvd","Dublin","California","94568","US","1042","9255875182","<MISSING>","37.70565","-121.891144","<MISSING>","https://www.orangetheory.com/en-us/locations/california/dublin/5258-dublin-blvd/"
"https://www.orangetheory.com","Solano- Albany, CA","1495 Solano Ave.","Albany","California","94706","US","1049","5105604020","<MISSING>","37.891155","-122.287682","<MISSING>","https://www.orangetheory.com/en-us/locations/california/albany/1495-solano-ave/"
"https://www.orangetheory.com","Berkeley, CA","2475 Shattuck Ave.","Berkley","California","94704","US","1050","5108496404","<MISSING>","37.864441","-122.267334","<MISSING>","https://www.orangetheory.com/en-us/locations/california/berkley/2475-shattuck-ave/"
"https://www.orangetheory.com","Emeryville, CA","5959 Shellmound St.","Emeryvillre","California","94608","US","1052","5105604565","<MISSING>","37.841122","-122.293602","<MISSING>","https://www.orangetheory.com/en-us/locations/california/emeryvillre/5959-shellmound-st/"
"https://www.orangetheory.com","San Jose Downtown","111 West St. John Street, Suite 100","San Jose","California","95113","US","1125","4089122886","<MISSING>","37.337486","-121.894066","<MISSING>","https://www.orangetheory.com/en-us/locations/california/san-jose/111-west-st-john-street-suite-100/"
"https://www.orangetheory.com","San Jose - Rose Garden, CA","1360 The Alameda","San Jose","California","95126","US","1247","4089121992","<MISSING>","37.333176","-121.913567","<MISSING>","https://www.orangetheory.com/en-us/locations/california/san-jose/1360-the-alameda/"
"https://www.orangetheory.com","San Jose - Willow Glen, CA","1331 Lincoln Ave","San Jose","California","95125","US","1706","4082972425","<MISSING>","37.304417","-121.898872","<MISSING>","https://www.orangetheory.com/en-us/locations/california/san-jose/1331-lincoln-ave/"
"https://www.orangetheory.com","San Jose - Communication Hill, CA","551 W. Capitol Expressway","San Jose","California","95136","US","1876","4086802048","<MISSING>","37.275803","-121.853691","<MISSING>","https://www.orangetheory.com/en-us/locations/california/san-jose/551-w-capitol-expressway/"
"https://www.orangetheory.com","Almaden Valley, CA","1080 Blossom Hill Rd.Suite C","San Jose","California","95123","US","2308","4085507004","<MISSING>","37.250118","-121.872353","<MISSING>","https://www.orangetheory.com/en-us/locations/california/san-jose/1080-blossom-hill-rd-suite-c/"
"https://www.orangetheory.com","Pinole, CA","1400 Pinole Valley Road","Pinole","California","94564","US","1134","5107770600","<MISSING>","37.999023","-122.287354","<MISSING>","https://www.orangetheory.com/en-us/locations/california/pinole/1400-pinole-valley-road/"
"https://www.orangetheory.com","San Diego - Del Sur, CA","16445 Paseo Del Sur, Suite E-105","San Diego","California","92127","US","1151","8582571777","<MISSING>","33.02026","-117.124031","<MISSING>","https://www.orangetheory.com/en-us/locations/california/san-diego/16445-paseo-del-sur-suite-e-105/"
"https://www.orangetheory.com","San Diego - Bankers Hill, CA","2665 5th Avenue Suite 101","San Diego","California","92103","US","1153","6193634040","<MISSING>","32.733231","-117.160011","<MISSING>","https://www.orangetheory.com/en-us/locations/california/san-diego/2665-5th-avenue-suite-101/"
"https://www.orangetheory.com","Carmel Valley, CA","11155 E Ocean Air Drive","San Diego","California","92130","US","1154","8582073131","<MISSING>","32.920551","-117.215668","<MISSING>","https://www.orangetheory.com/en-us/locations/california/san-diego/11155-e-ocean-air-drive/"
"https://www.orangetheory.com","La Jolla, CA","7734 Girard Avenue #C","San Diego","California","92037","US","1158","8585518750","<MISSING>","32.844242","-117.274101","<MISSING>","https://www.orangetheory.com/en-us/locations/california/san-diego/7734-girard-avenue-c/"
"https://www.orangetheory.com","San Diego - Point Loma, CA","3980 W Point Loma Blvd.","San Diego","California","92110","US","1237","8582162020","<MISSING>","32.75433","-117.223228","<MISSING>","https://www.orangetheory.com/en-us/locations/california/san-diego/3980-w-point-loma-blvd/"
"https://www.orangetheory.com","Mission Valley, CA","7510 Hazard Center Drive, Suite 401","San Diego","California","92108","US","1289","8582488444","<MISSING>","32.770794","-117.159012","<MISSING>","https://www.orangetheory.com/en-us/locations/california/san-diego/7510-hazard-center-drive-suite-401/"
"https://www.orangetheory.com","San Diego - UTC","8960 University Center Lane","San Diego","California","92122","US","3042","8582624531","<MISSING>","32.870735","-117.224098","<MISSING>","https://www.orangetheory.com/en-us/locations/california/san-diego/8960-university-center-lane/"
"https://www.orangetheory.com","El Dorado Hills, CA","4356 Town Center Blvd., suite 120","EL DORADO HILLS","California","95762","US","1152","9167582212","<MISSING>","38.65044","-121.066437","<MISSING>","https://www.orangetheory.com/en-us/locations/california/el-dorado-hills/4356-town-center-blvd-suite-120/"
"https://www.orangetheory.com","Carlsbad, CA","1820 Marron Road, Suite 104","Carlsbad","California","92008","US","1155","7605179090","<MISSING>","33.177681","-117.339783","<MISSING>","https://www.orangetheory.com/en-us/locations/california/carlsbad/1820-marron-road-suite-104/"
"https://www.orangetheory.com","La Costa, CA","6985 El Camino Real, Suite 101","Carlsbad","California","92009","US","2966","7603312610","<MISSING>","33.102661","-117.267471","<MISSING>","https://www.orangetheory.com/en-us/locations/california/carlsbad/6985-el-camino-real-suite-101/"
"https://www.orangetheory.com","Walnut Creek, CA","1531 Locust Street","Walnut Creek","California","94596","US","1156","9252786313","<MISSING>","37.900257","-122.062889","<MISSING>","https://www.orangetheory.com/en-us/locations/california/walnut-creek/1531-locust-street/"
"https://www.orangetheory.com","Redondo Beach, CA","409 North Pacific Coast Highway, Suite 205,","Redondo Beach","California","90277","US","1166","4244007433","<MISSING>","33.848083","-118.389359","<MISSING>","https://www.orangetheory.com/en-us/locations/california/redondo-beach/409-north-pacific-coast-highway-suite-205/"
"https://www.orangetheory.com","Mission Viejo, CA","26012 Marguerite Parkway, Suite P","Mission Viejo","California","92692","US","1173","9493357600","<MISSING>","33.586376","-117.658104","<MISSING>","https://www.orangetheory.com/en-us/locations/california/mission-viejo/26012-marguerite-parkway-suite-p/"
"https://www.orangetheory.com","Livermore","1518 First St.","Livermore","California","94550","US","1174","9256210987","<MISSING>","37.680244","-121.777779","<MISSING>","https://www.orangetheory.com/en-us/locations/california/livermore/1518-first-st/"
"https://www.orangetheory.com","La Mesa, CA","8322 Parkway Dr.","La Mesa","California","91942","US","1177","6199165999","<MISSING>","32.779137","-117.017715","<MISSING>","https://www.orangetheory.com/en-us/locations/california/la-mesa/8322-parkway-dr/"
"https://www.orangetheory.com","Santa Barbara -Goleta, CA","5700 Calle Real","Goleta","California","93117","US","1183","8056995551","<MISSING>","34.441639","-119.824188","<MISSING>","https://www.orangetheory.com/en-us/locations/california/goleta/5700-calle-real/"
"https://www.orangetheory.com","Downtown LA","515 South Figueroa Street","DOWNTOWN LA","California","90071","US","1185","2132792900","<MISSING>","34.052174","-118.257896","<MISSING>","https://www.orangetheory.com/en-us/locations/california/downtown-la/515-south-figueroa-street/"
"https://www.orangetheory.com","Morgan Hill, CA","50 E 3rd St","Morgan Hill","California","95037","US","1187","4087625858","<MISSING>","37.128086","-121.651283","<MISSING>","https://www.orangetheory.com/en-us/locations/california/morgan-hill/50-e-3rd-st/"
"https://www.orangetheory.com","Greenbrae-Marin, CA","230 Bon Air Center","Greenbrae","California","94904","US","1188","4154810876","<MISSING>","37.945698","-122.524437","<MISSING>","https://www.orangetheory.com/en-us/locations/california/greenbrae/230-bon-air-center/"
"https://www.orangetheory.com","Rocklin, CA","711 Pleasant Grove Blvd Suite 100 and 120","Roseville","California","95678","US","1189","9162459005","<MISSING>","38.791084","-121.278198","<MISSING>","https://www.orangetheory.com/en-us/locations/california/roseville/711-pleasant-grove-blvd-suite-100-and-120/"
"https://www.orangetheory.com","Roseville, CA","2030 Douglas Boulevard Suite 39","Roseville","California","95661","US","1238","9167714683","<MISSING>","38.74334","-121.250435","<MISSING>","https://www.orangetheory.com/en-us/locations/california/roseville/2030-douglas-boulevard-suite-39/"
"https://www.orangetheory.com","San Diego - Solana Beach, CA","667 San Rodolfo Drive Suite #126","Solana Beach","California","92075","US","1194","8582756200","<MISSING>","32.993729","-117.259392","<MISSING>","https://www.orangetheory.com/en-us/locations/california/solana-beach/667-san-rodolfo-drive-suite-126/"
"https://www.orangetheory.com","Palm Desert, CA","73-470 El Paseo","Palm Desert","California","92260","US","1195","7606248010","<MISSING>","33.719997","-116.383408","<MISSING>","https://www.orangetheory.com/en-us/locations/california/palm-desert/73-470-el-paseo/"
"https://www.orangetheory.com","Melrose, CA","640 N. La Brea Ave","Los Angeles","California","90038","US","1213","3234502200","<MISSING>","34.083061","-118.344063","<MISSING>","https://www.orangetheory.com/en-us/locations/california/los-angeles/640-n-la-brea-ave/"
"https://www.orangetheory.com","Los Angeles - Brentwood, CA","11661 San Vicente Boulevard, Suite 103","Los Angeles","California","90049","US","1363","3106945656","<MISSING>","34.054279","-118.464363","<MISSING>","https://www.orangetheory.com/en-us/locations/california/los-angeles/11661-san-vicente-boulevard-suite-103/"
"https://www.orangetheory.com","West Hollywood, CA","7950 West Sunset Blvd","Los Angeles","California","90046","US","1401","3232825595","<MISSING>","34.097591","-118.363274","<MISSING>","https://www.orangetheory.com/en-us/locations/california/los-angeles/7950-west-sunset-blvd/"
"https://www.orangetheory.com","Century City, CA","10250 Santa Monica Blvd. Suite 1420","Los Angeles","California","90067","US","1495","3104050009","<MISSING>","34.059002","-118.418869","<MISSING>","https://www.orangetheory.com/en-us/locations/california/los-angeles/10250-santa-monica-blvd-suite-1420/"
"https://www.orangetheory.com","Koreatown","687 Hobart Blvd","Los Angeles","California","90005","US","17909","2139433007","<MISSING>","34.061192","-118.30574","<MISSING>","https://www.orangetheory.com/en-us/locations/california/los-angeles/687-hobart-blvd/"
"https://www.orangetheory.com","Orange, CA","1500 E Village Way, Suite 2340","Orange","California","92865","US","1214","7149784040","<MISSING>","33.82568","-117.838531","<MISSING>","https://www.orangetheory.com/en-us/locations/california/orange/1500-e-village-way-suite-2340/"
"https://www.orangetheory.com","Chico, CA","874 East Avenue","Chico","California","95926","US","1216","5307224000","<MISSING>","39.760853","-121.844246","<MISSING>","https://www.orangetheory.com/en-us/locations/california/chico/874-east-avenue/"
"https://www.orangetheory.com","Los Gatos, CA","16250 Los Gatos Blvd.","Los Gatos","California","95032","US","1217","4083844220","<MISSING>","37.232613","-121.964073","<MISSING>","https://www.orangetheory.com/en-us/locations/california/los-gatos/16250-los-gatos-blvd/"
"https://www.orangetheory.com","Chino Hills, CA","4525 Chino Hills Parkway, Shop-7","Chino Hills","California","91709","US","1218","9099061771","<MISSING>","33.981316","-117.70565","<MISSING>","https://www.orangetheory.com/en-us/locations/california/chino-hills/4525-chino-hills-parkway-shop-7/"
"https://www.orangetheory.com","Lake Forest Foothill Ranch, CA","27482 Portola Parkway","Foothill Ranch","California","92610","US","1219","9498998181","<MISSING>","33.670361","-117.65197","<MISSING>","https://www.orangetheory.com/en-us/locations/california/foothill-ranch/27482-portola-parkway/"
"https://www.orangetheory.com","Natomas, CA","3270 Arena Blvd., Suite 510","Sacramento","California","95833","US","1230","9162834683","<MISSING>","38.641815","-121.534561","<MISSING>","https://www.orangetheory.com/en-us/locations/california/sacramento/3270-arena-blvd-suite-510/"
"https://www.orangetheory.com","Sacramento Mid-Town, CA","2901 K St. Suite 190","Sacramento","California","95816","US","1938","9168368383","<MISSING>","38.572731","-121.467941","<MISSING>","https://www.orangetheory.com/en-us/locations/california/sacramento/2901-k-st-suite-190/"
"https://www.orangetheory.com","Land Park, CA","4710 Freeport Blvd. 12K Unit 120","Sacramento","California","95822","US","30586","9168005532","<MISSING>","38.532471","-121.495255","<MISSING>","https://www.orangetheory.com/en-us/locations/california/sacramento/4710-freeport-blvd-12k-unit-120/"
"https://www.orangetheory.com","Long Beach - Marina, CA","6620 E Pacific Coast Hwy","Long Beach","California","90803","US","1246","5624754788","<MISSING>","33.754086","-118.108902","<MISSING>","https://www.orangetheory.com/en-us/locations/california/long-beach/6620-e-pacific-coast-hwy/"
"https://www.orangetheory.com","Long Beach - Lakewood, CA","3850 Worsham Avenue, Suite 420","Long Beach","California","90712","US","2897","5627310077","<MISSING>","33.829353","-118.1455","<MISSING>","https://www.orangetheory.com/en-us/locations/california/long-beach/3850-worsham-avenue-suite-420/"
"https://www.orangetheory.com","Fair Oaks, CA","8921 Madison Ave #300","Fair Oaks","California","95628","US","1255","9164367003","<MISSING>","38.665302","-121.224709","<MISSING>","https://www.orangetheory.com/en-us/locations/california/fair-oaks/8921-madison-ave-300/"
"https://www.orangetheory.com","Vallejo, CA","173 Plaza Dr #1002","Vallejo","California","94591","US","1257","7073660999","<MISSING>","38.133152","-122.218369","<MISSING>","https://www.orangetheory.com/en-us/locations/california/vallejo/173-plaza-dr-1002/"
"https://www.orangetheory.com","Campbell, CA","1725 S. Bascom Ave.","Campbell","California","95008","US","1263","4086848662","<MISSING>","37.291794","-121.932617","<MISSING>","https://www.orangetheory.com/en-us/locations/california/campbell/1725-s-bascom-ave/"
"https://www.orangetheory.com","Poway, CA","12207 Poway Road","Poway","California","92064","US","1269","8589993004","<MISSING>","32.951115","-117.066643","<MISSING>","https://www.orangetheory.com/en-us/locations/california/poway/12207-poway-road/"
"https://www.orangetheory.com","Redwood City, CA","236 Redwood Shores Parkway","Redwood City","California","94065","US","1270","6505626577","<MISSING>","37.522049","-122.251442","<MISSING>","https://www.orangetheory.com/en-us/locations/california/redwood-city/236-redwood-shores-parkway/"
"https://www.orangetheory.com","Glendale - Silver Lake, CA","101 N. Brand Suite 140","Glendale","California","91203","US","1280","8183987155","<MISSING>","34.146877","-118.25547","<MISSING>","https://www.orangetheory.com/en-us/locations/california/glendale/101-n-brand-suite-140/"
"https://www.orangetheory.com","Huntington Beach - Brookhurst, CA","10036 Adams Ave.","Huntington Beach","California","92646","US","1286","7144898800","<MISSING>","33.672298","-117.95311","<MISSING>","https://www.orangetheory.com/en-us/locations/california/huntington-beach/10036-adams-ave/"
"https://www.orangetheory.com","HB - Bella Terra, CA","7881 Edinger Avenue, suite 116","Huntington Beach","California","92647","US","1426","7147802350","<MISSING>","33.731339","-117.991241","<MISSING>","https://www.orangetheory.com/en-us/locations/california/huntington-beach/7881-edinger-avenue-suite-116/"
"https://www.orangetheory.com","Temecula, CA","32435 Temecula Parkway","Temecula","California","92592","US","1288","9513955415","<MISSING>","33.482414","-117.091072","<MISSING>","https://www.orangetheory.com/en-us/locations/california/temecula/32435-temecula-parkway/"
"https://www.orangetheory.com","Santa Monica, CA","1431 2nd Street","Santa Monica","California","90401","US","1290","3107301399","<MISSING>","34.014397","-118.49604","<MISSING>","https://www.orangetheory.com/en-us/locations/california/santa-monica/1431-2nd-street/"
"https://www.orangetheory.com","Foster City, CA","983 E Hillsdale Blvd","Foster City","California","94404","US","1294","6502930929","<MISSING>","37.557407","-122.274727","<MISSING>","https://www.orangetheory.com/en-us/locations/california/foster-city/983-e-hillsdale-blvd/"
"https://www.orangetheory.com","Eastvale, CA","12459 Limonite Avenue","Eastvale","California","91752","US","1299","9516818890","<MISSING>","33.975616","-117.554375","<MISSING>","https://www.orangetheory.com/en-us/locations/california/eastvale/12459-limonite-avenue/"
"https://www.orangetheory.com","Corona, CA","2540 Tuscany Street, #102-103","Corona","California","92881","US","1302","9516839662","<MISSING>","33.824112","-117.516953","<MISSING>","https://www.orangetheory.com/en-us/locations/california/corona/2540-tuscany-street-102-103/"
"https://www.orangetheory.com","Lafayette - Moraga, CA","3517 Mt. Diablo Blvd.","Lafayette","California","94549","US","1303","9252999800","<MISSING>","37.891983","-122.117401","<MISSING>","https://www.orangetheory.com/en-us/locations/california/lafayette/3517-mt-diablo-blvd/"
"https://www.orangetheory.com","Sherman Oaks, CA","14006 Riverside Drive","Sherman Oaks","California","91423","US","1304","8184050001","<MISSING>","34.156563","-118.436996","<MISSING>","https://www.orangetheory.com/en-us/locations/california/sherman-oaks/14006-riverside-drive/"
"https://www.orangetheory.com","San Francisco - Mission Bay, CA","215 King Street","San Francisco","California","94107","US","1306","4155692051","<MISSING>","37.777542","-122.392113","<MISSING>","https://www.orangetheory.com/en-us/locations/california/san-francisco/215-king-street/"
"https://www.orangetheory.com","San Francisco - Financial District, CA","343 Sansome St., Suite 125","San Francisco","California","94104","US","1507","4155692050","<MISSING>","37.793697","-122.401733","<MISSING>","https://www.orangetheory.com/en-us/locations/california/san-francisco/343-sansome-st-suite-125/"
"https://www.orangetheory.com","San Francisco - Mid Market","1411 Market St","San Francisco","California","94103","US","29923","4157410099","<MISSING>","37.775818","-122.417236","<MISSING>","https://www.orangetheory.com/en-us/locations/california/san-francisco/1411-market-st/"
"https://www.orangetheory.com","San Francisco-North Beach","1255 Columbus Avenue","San Francisco","California","94133","US","30600","4158001852","<MISSING>","37.784645","-122.433388","<MISSING>","https://www.orangetheory.com/en-us/locations/california/san-francisco/1255-columbus-avenue/"
"https://www.orangetheory.com","Rancho Cucamonga, CA","12273 Highland Ave., Suite 132","Rancho Cucamonga","California","91739","US","1309","9099222988","<MISSING>","34.134418","-117.537285","<MISSING>","https://www.orangetheory.com/en-us/locations/california/rancho-cucamonga/12273-highland-ave-suite-132/"
"https://www.orangetheory.com","Novato, CA","975 Diablo Blvd.","Novato","California","94947","US","1310","4157611119","<MISSING>","38.10453","-122.572197","<MISSING>","https://www.orangetheory.com/en-us/locations/california/novato/975-diablo-blvd/"
"https://www.orangetheory.com","Brentwood - Norcal, CA","2565 Sand Creek Road, Suite 132","Brentwood","California","94513","US","1312","9254184015","<MISSING>","37.946159","-121.737206","<MISSING>","https://www.orangetheory.com/en-us/locations/california/brentwood/2565-sand-creek-road-suite-132/"
"https://www.orangetheory.com","Petaluma, CA","401 Kenilworth Dr Suites 310/320","PETALUMA","California","94952","US","1322","7073451160","<MISSING>","38.244762","-122.628448","<MISSING>","https://www.orangetheory.com/en-us/locations/california/petaluma/401-kenilworth-dr-suites-310-320/"
"https://www.orangetheory.com","Santa Rosa, CA","733 Coddingtown Center #745B","Santa Rosa","California","95401","US","1334","7073311270","<MISSING>","38.456421","-122.727898","<MISSING>","https://www.orangetheory.com/en-us/locations/california/santa-rosa/733-coddingtown-center-745b/"
"https://www.orangetheory.com","Alamo, CA","170C Alamo Plaza","Alamo","California","94507","US","1335","9253785610","<MISSING>","37.851234","-122.035706","<MISSING>","https://www.orangetheory.com/en-us/locations/california/alamo/170c-alamo-plaza/"
"https://www.orangetheory.com","Fresno, CA","7735 N. Blackstone Ave. Ste. 106-112","Fresno","California","93720","US","1336","5593269255","<MISSING>","36.848965","-119.790962","<MISSING>","https://www.orangetheory.com/en-us/locations/california/fresno/7735-n-blackstone-ave-ste-106-112/"
"https://www.orangetheory.com","Elk Grove, CA","9610 Bruceville Rd., Suite 102","Elk Grove","California","95757","US","1345","9162262683","<MISSING>","38.408592","-121.419502","<MISSING>","https://www.orangetheory.com/en-us/locations/california/elk-grove/9610-bruceville-rd-suite-102/"
"https://www.orangetheory.com","Encinitas, CA","215 S El Camino Real, Suite A","Encinitas","California","92024","US","1346","7602974545","<MISSING>","33.043427","-117.259048","<MISSING>","https://www.orangetheory.com/en-us/locations/california/encinitas/215-s-el-camino-real-suite-a/"
"https://www.orangetheory.com","Pleasant Hill, CA","963 Contra Costa Blvd","Pleasant Hill","California","94523","US","1383","9254009389","<MISSING>","37.964142","-122.062271","<MISSING>","https://www.orangetheory.com/en-us/locations/california/pleasant-hill/963-contra-costa-blvd/"
"https://www.orangetheory.com","San Diego - Eastlake, CA","2015 Birch Rd, Suite 1701","Chula Vista","California","91915","US","1385","6196422400","<MISSING>","32.622105","-116.967255","<MISSING>","https://www.orangetheory.com/en-us/locations/california/chula-vista/2015-birch-rd-suite-1701/"
"https://www.orangetheory.com","Cupertino, CA","19409 Stevens Creek Blvd, Suite 120","CUPERTINO","California","95014","US","1396","4086635175","<MISSING>","37.32386","-122.009392","<MISSING>","https://www.orangetheory.com/en-us/locations/california/cupertino/19409-stevens-creek-blvd-suite-120/"
"https://www.orangetheory.com","Rohnert Park, CA","600 Raley's Towne Centre","Rohnert Park","California","94928","US","1400","7073438004","<MISSING>","38.345913","-122.705116","<MISSING>","https://www.orangetheory.com/en-us/locations/california/rohnert-park/600-raley-s-towne-centre/"
"https://www.orangetheory.com","Concord, CA","5100 Clayton Road, Suite B3","Concord","California","94521","US","1402","9253327280","<MISSING>","37.955025","-121.967758","<MISSING>","https://www.orangetheory.com/en-us/locations/california/concord/5100-clayton-road-suite-b3/"
"https://www.orangetheory.com","Torrance, CA","3730 Pacific Coast Highway, Unit 101","Torrance","California","90505","US","1422","3109483845","<MISSING>","33.804916","-118.350967","<MISSING>","https://www.orangetheory.com/en-us/locations/california/torrance/3730-pacific-coast-highway-unit-101/"
"https://www.orangetheory.com","Pleasanton, CA","3020 Bernal Avenue Suite 140","Pleasanton","California","94566","US","1494","9254017399","<MISSING>","37.669369","-121.856575","<MISSING>","https://www.orangetheory.com/en-us/locations/california/pleasanton/3020-bernal-avenue-suite-140/"
"https://www.orangetheory.com","Glendora, CA","651 S Grand Ave","Glendora","California","91740","US","1497","6268041655","<MISSING>","34.127968","-117.874023","<MISSING>","https://www.orangetheory.com/en-us/locations/california/glendora/651-s-grand-ave/"
"https://www.orangetheory.com","Culver City, CA","8770 Washington Blvd","Culver City","California","90232","US","1502","4246662525","<MISSING>","34.028336","-118.385681","<MISSING>","https://www.orangetheory.com/en-us/locations/california/culver-city/8770-washington-blvd/"
"https://www.orangetheory.com","Newport Beach, CA","1040 Irvine Avenue","Newport Beach","California","92660","US","1641","9496300555","<MISSING>","33.62822","-117.906448","<MISSING>","https://www.orangetheory.com/en-us/locations/california/newport-beach/1040-irvine-avenue/"
"https://www.orangetheory.com","Laguna Niguel, CA","24034 Aliso Creek Rd","Laguna Niguel","California","92677","US","1642","9496679999","<MISSING>","33.554657","-117.710709","<MISSING>","https://www.orangetheory.com/en-us/locations/california/laguna-niguel/24034-aliso-creek-rd/"
"https://www.orangetheory.com","Tustin - The Market Place, CA","2865 El Camino Real","Tustin","California","92782","US","1688","9498646264","<MISSING>","33.725624","-117.794189","<MISSING>","https://www.orangetheory.com/en-us/locations/california/tustin/2865-el-camino-real/"
"https://www.orangetheory.com","Irvine, CA","5675 Alton Parkway","Irvine","California","92618","US","1691","9494392633","<MISSING>","33.669777","-117.785797","<MISSING>","https://www.orangetheory.com/en-us/locations/california/irvine/5675-alton-parkway/"
"https://www.orangetheory.com","Rancho Santa Margarita, CA","22401 Antonio Parkway., Suite D-200","Rancho Santa Margarita","California","92688","US","1733","9494248884","<MISSING>","33.63842","-117.591141","<MISSING>","https://www.orangetheory.com/en-us/locations/california/rancho-santa-margarita/22401-antonio-parkway-suite-d-200/"
"https://www.orangetheory.com","San Clemente, CA","802 Avenida Pico","San Clemente","California","92672","US","1737","9494854885","<MISSING>","33.442509","-117.61412","<MISSING>","https://www.orangetheory.com/en-us/locations/california/san-clemente/802-avenida-pico/"
"https://www.orangetheory.com","Thousand Oaks - Westlake, CA","3755 East Thousand Oaks Blvd","Thousand Oaks","California","91362","US","1757","8057153800","<MISSING>","34.164448","-118.828491","<MISSING>","https://www.orangetheory.com/en-us/locations/california/thousand-oaks/3755-east-thousand-oaks-blvd/"
"https://www.orangetheory.com","Northridge, CA","9201-C Winnetka Avenue","Chatsworth","California","91311","US","1758","8189560005","<MISSING>","34.2383","-118.574448","<MISSING>","https://www.orangetheory.com/en-us/locations/california/chatsworth/9201-c-winnetka-avenue/"
"https://www.orangetheory.com","San Mateo, CA","101 S B St","San Mateo","California","94401","US","1783","6504870404","<MISSING>","37.567078","-122.323708","<MISSING>","https://www.orangetheory.com/en-us/locations/california/san-mateo/101-s-b-st/"
"https://www.orangetheory.com","Palo Alto, CA","2190 W Bayshore Road, Suite 150","Palo Alto","California","94303","US","1789","6503281550","<MISSING>","37.448071","-122.126373","<MISSING>","https://www.orangetheory.com/en-us/locations/california/palo-alto/2190-w-bayshore-road-suite-150/"
