"page_url","location_name","street_address","city","state","zip","country_code","store_number","phone","location_type","latitude","longitude","locator_domain","hours_of_operation","raw_address","record_id"
"https://www.cvs.com/store-locator/philadelphia-pa-pharmacies/store-details/storeid=1545","CVS Pharmacy at 1500 SPRUCE STREET PHILADELPHIA, PA 19102","1500 SPRUCE STREET","PHILADELPHIA","PA","19102","US","1545","2157903290","Healthhub_Ind","39.9471","-75.1667","cvs.com","MON: 07:00-00:00, TUE: 07:00-00:00, WED: 07:00-00:00, THU: 07:00-00:00, FRI: 07:00-00:00, SAT: 07:00-00:00, SUN: 07:00-00:00","<MISSING>","store_number"
"https://www.cvs.com/store-locator/philadelphia-pa-pharmacies/store-details/storeid=371","CVS Pharmacy at 6501 HARBISON AVENUE PHILADELPHIA, PA 19149","6501 HARBISON AVENUE","PHILADELPHIA","PA","19149","US","371","2153334300","Healthhub_Ind","40.0346","-75.0634","cvs.com","MON: Open 24 Hours-Open 24 Hours, TUE: Open 24 Hours-Open 24 Hours, WED: Open 24 Hours-Open 24 Hours, THU: Open 24 Hours-Open 24 Hours, FRI: Open 24 Hours-Open 24 Hours, SAT: Open 24 Hours-Open 24 Hours, SUN: Open 24 Hours-Open 24 Hours","<MISSING>","store_number"
"https://www.cvs.com/store-locator/philadelphia-pa-pharmacies/store-details/storeid=8984","CVS Pharmacy at 6701 RIDGE AVE., BUILDING 1 PHILADELPHIA, PA 19128","6701 RIDGE AVE., BUILDING 1","PHILADELPHIA","PA","19128","US","8984","2154834179","Healthhub_Ind","40.041","-75.2238","cvs.com","MON: 07:00-23:00, TUE: 07:00-23:00, WED: 07:00-23:00, THU: 07:00-23:00, FRI: 07:00-23:00, SAT: 07:00-23:00, SUN: 07:00-23:00","<MISSING>","store_number"
"https://www.cvs.com/store-locator/cherry-hill-nj-pharmacies/store-details/storeid=2235","CVS Pharmacy at 600 KINGS HWY N., CORNER OF CHAPEL AVENUE CHERRY HILL, NJ 08034","600 KINGS HWY N., CORNER OF CHAPEL AVENUE","CHERRY HILL","NJ","08034","US","2235","8564822282","Healthhub_Ind","39.9249","-74.9998","cvs.com","MON: Open 24 Hours-Open 24 Hours, TUE: Open 24 Hours-Open 24 Hours, WED: Open 24 Hours-Open 24 Hours, THU: Open 24 Hours-Open 24 Hours, FRI: Open 24 Hours-Open 24 Hours, SAT: Open 24 Hours-Open 24 Hours, SUN: Open 24 Hours-Open 24 Hours","<MISSING>","store_number"
"https://www.cvs.com/store-locator/runnemede-nj-pharmacies/store-details/storeid=836","CVS Pharmacy at 824 BLACK HORSE PIKE RUNNEMEDE, NJ 08078","824 BLACK HORSE PIKE","RUNNEMEDE","NJ","08078","US","836","8569395656","Healthhub_Ind","39.8566","-75.0747","cvs.com","MON: 08:00-00:00, TUE: 08:00-00:00, WED: 08:00-00:00, THU: 08:00-00:00, FRI: 08:00-00:00, SAT: 08:00-00:00, SUN: 08:00-00:00","<MISSING>","store_number"
"https://www.cvs.com/store-locator/jenkintown-pa-pharmacies/store-details/storeid=1193","CVS Pharmacy at 835 OLD YORK RD. JENKINTOWN, PA 19046","835 OLD YORK RD.","JENKINTOWN","PA","19046","US","1193","2158862923","Healthhub_Ind","40.1059","-75.1236","cvs.com","MON: Open 24 Hours-Open 24 Hours, TUE: Open 24 Hours-Open 24 Hours, WED: Open 24 Hours-Open 24 Hours, THU: Open 24 Hours-Open 24 Hours, FRI: Open 24 Hours-Open 24 Hours, SAT: Open 24 Hours-Open 24 Hours, SUN: Open 24 Hours-Open 24 Hours","<MISSING>","store_number"
"https://www.cvs.com/store-locator/philadelphia-pa-pharmacies/store-details/storeid=740","CVS Pharmacy at 10901C BUSTLETON AVENUE PHILADELPHIA, PA 19116","10901C BUSTLETON AVENUE","PHILADELPHIA","PA","19116","US","740","2156772122","Healthhub_Ind","40.1123","-75.023","cvs.com","MON: 08:00-22:00, TUE: 08:00-22:00, WED: 08:00-22:00, THU: 08:00-22:00, FRI: 08:00-22:00, SAT: 08:00-22:00, SUN: 08:00-22:00","<MISSING>","store_number"
"https://www.cvs.com/store-locator/cherry-hill-nj-pharmacies/store-details/storeid=1146","CVS Pharmacy at 100 SPRINGDALE RD,, HOLLY RAVINE PLAZA CHERRY HILL, NJ 08003","100 SPRINGDALE RD,, HOLLY RAVINE PLAZA","CHERRY HILL","NJ","08003","US","1146","8564285909","Healthhub_Ind","39.861","-74.9761","cvs.com","MON: 07:00-00:00, TUE: 07:00-00:00, WED: 07:00-00:00, THU: 07:00-00:00, FRI: 07:00-00:00, SAT: 07:00-00:00, SUN: 07:00-00:00","<MISSING>","store_number"
"https://www.cvs.com/store-locator/bryn-mawr-pa-pharmacies/store-details/storeid=6902","CVS Pharmacy at 1218 E. LANCASTER AVE BRYN MAWR, PA 19010","1218 E. LANCASTER AVE","BRYN MAWR","PA","19010","US","6902","6105191920","Healthhub_Ind","40.0255","-75.327","cvs.com","MON: 07:00-23:00, TUE: 07:00-23:00, WED: 07:00-23:00, THU: 07:00-23:00, FRI: 07:00-23:00, SAT: 07:00-23:00, SUN: 07:00-23:00","<MISSING>","store_number"
"https://www.cvs.com/store-locator/folsom-pa-pharmacies/store-details/storeid=2867","CVS Pharmacy at 1937 MACDADE BLVD FOLSOM, PA 19033","1937 MACDADE BLVD","FOLSOM","PA","19033","US","2867","6102371302","Healthhub_Ind","39.8969","-75.3146","cvs.com","MON: 07:00-23:00, TUE: 07:00-23:00, WED: 07:00-23:00, THU: 07:00-23:00, FRI: 07:00-23:00, SAT: 07:00-23:00, SUN: 07:00-23:00","<MISSING>","store_number"
"https://www.cvs.com/store-locator/springfield-pa-pharmacies/store-details/storeid=2582","CVS Pharmacy at 795 BALTIMORE PIKE SPRINGFIELD, PA 19064","795 BALTIMORE PIKE","SPRINGFIELD","PA","19064","US","2582","6106905100","Healthhub_Ind","39.9166","-75.3326","cvs.com","MON: 08:00-22:00, TUE: 08:00-22:00, WED: 08:00-22:00, THU: 08:00-22:00, FRI: 08:00-23:00, SAT: 08:00-23:00, SUN: 08:00-22:00","<MISSING>","store_number"
"https://www.cvs.com/store-locator/plymouth-meeting-pa-pharmacies/store-details/storeid=10825","CVS Pharmacy at 2400 BUTLER PIKE PLYMOUTH MEETING, PA 19462","2400 BUTLER PIKE","PLYMOUTH MEETING","PA","19462","US","10825","6109411291","Healthhub_Ind","40.1097","-75.2729","cvs.com","MON: 07:00-23:00, TUE: 07:00-23:00, WED: 07:00-23:00, THU: 07:00-23:00, FRI: 07:00-23:00, SAT: 07:00-23:00, SUN: 07:00-22:00","<MISSING>","store_number"
"https://www.cvs.com/store-locator/ridley-park-pa-pharmacies/store-details/storeid=766","CVS Pharmacy at 410 EAST CHESTER PIKE RIDLEY PARK, PA 19078","410 EAST CHESTER PIKE","RIDLEY PARK","PA","19078","US","766","6105322400","Healthhub_Ind","39.8778","-75.3166","cvs.com","MON: 08:00-22:00, TUE: 08:00-22:00, WED: 08:00-22:00, THU: 08:00-22:00, FRI: 08:00-23:00, SAT: 08:00-23:00, SUN: 08:00-22:00","<MISSING>","store_number"
"https://www.cvs.com/store-locator/marlton-nj-pharmacies/store-details/storeid=837","CVS Pharmacy at 360 RTE 73 SOUTH, 360 RTE 73 NORTHBOUND MARLTON, NJ 08053","360 RTE 73 SOUTH, 360 RTE 73 NORTHBOUND","MARLTON","NJ","08053","US","837","8565967010","Healthhub_Ind","39.8882","-74.9229","cvs.com","MON: 07:00-00:00, TUE: 07:00-00:00, WED: 07:00-00:00, THU: 07:00-00:00, FRI: 07:00-00:00, SAT: 07:00-00:00, SUN: 07:00-00:00","<MISSING>","store_number"
"https://www.cvs.com/store-locator/mount-laurel-nj-pharmacies/store-details/storeid=668","CVS Pharmacy at 3110 ROUTE 38 MOUNT LAUREL, NJ 08054","3110 ROUTE 38","MOUNT LAUREL","NJ","08054","US","668","8562357126","Healthhub_Ind","39.9702","-74.8734","cvs.com","MON: Open 24 Hours-Open 24 Hours, TUE: Open 24 Hours-Open 24 Hours, WED: Open 24 Hours-Open 24 Hours, THU: Open 24 Hours-Open 24 Hours, FRI: Open 24 Hours-Open 24 Hours, SAT: Open 24 Hours-Open 24 Hours, SUN: Open 24 Hours-Open 24 Hours","<MISSING>","store_number"
"https://www.cvs.com/store-locator/woodlyn-pa-pharmacies/store-details/storeid=2785","CVS Pharmacy at 1306 MACDADE BLVD. WOODLYN, PA 19094","1306 MACDADE BLVD.","WOODLYN","PA","19094","US","2785","6105217011","Healthhub_Ind","39.877","-75.3449","cvs.com","MON: 08:00-22:00, TUE: 08:00-22:00, WED: 08:00-22:00, THU: 08:00-22:00, FRI: 08:00-23:00, SAT: 08:00-23:00, SUN: 08:00-22:00","<MISSING>","store_number"
"https://www.cvs.com/store-locator/swarthmore-pa-pharmacies/store-details/storeid=743","CVS Pharmacy at 755 S. CHESTER RD. SWARTHMORE, PA 19081","755 S. CHESTER RD.","SWARTHMORE","PA","19081","US","743","6103289160","Healthhub_Ind","39.8889","-75.3538","cvs.com","MON: 08:00-22:00, TUE: 08:00-22:00, WED: 08:00-22:00, THU: 08:00-22:00, FRI: 08:00-22:00, SAT: 08:00-22:00, SUN: 08:00-22:00","<MISSING>","store_number"
"https://www.cvs.com/store-locator/king-of-prussia-pa-pharmacies/store-details/storeid=2481","CVS Pharmacy at 312 SOUTH HENDERSON RD KING OF PRUSSIA, PA 19406","312 SOUTH HENDERSON RD","KING OF PRUSSIA","PA","19406","US","2481","6102051264","Healthhub_Ind","40.0914","-75.3585","cvs.com","MON: 07:00-22:00, TUE: 07:00-22:00, WED: 07:00-22:00, THU: 07:00-22:00, FRI: 07:00-22:00, SAT: 08:00-22:00, SUN: 08:00-22:00","<MISSING>","store_number"
"https://www.cvs.com/store-locator/sewell-nj-pharmacies/store-details/storeid=362","CVS Pharmacy at 307 EGG HARBOR RD SEWELL, NJ 08080","307 EGG HARBOR RD","SEWELL","NJ","08080","US","362","8565891177","Healthhub_Ind","39.7637","-75.0865","cvs.com","MON: Open 24 Hours-Open 24 Hours, TUE: Open 24 Hours-Open 24 Hours, WED: Open 24 Hours-Open 24 Hours, THU: Open 24 Hours-Open 24 Hours, FRI: Open 24 Hours-Open 24 Hours, SAT: Open 24 Hours-Open 24 Hours, SUN: Open 24 Hours-Open 24 Hours","<MISSING>","store_number"
"https://www.cvs.com/store-locator/newtown-square-pa-pharmacies/store-details/storeid=233","CVS Pharmacy at 3930 WEST CHESTER PIKE NEWTOWN SQUARE, PA 19073","3930 WEST CHESTER PIKE","NEWTOWN SQUARE","PA","19073","US","233","6103532061","Healthhub_Ind","39.985","-75.415","cvs.com","MON: 08:00-22:00, TUE: 08:00-22:00, WED: 08:00-22:00, THU: 08:00-22:00, FRI: 08:00-22:00, SAT: 08:00-22:00, SUN: 08:00-22:00","<MISSING>","store_number"
"https://www.cvs.com/store-locator/mount-holly-nj-pharmacies/store-details/storeid=2079","CVS Pharmacy at 508 HIGH ST. MOUNT HOLLY, NJ 08060","508 HIGH ST.","MOUNT HOLLY","NJ","08060","US","2079","6092618963","Healthhub_Ind","40.0046","-74.795","cvs.com","MON: 08:00-22:00, TUE: 08:00-22:00, WED: 08:00-22:00, THU: 08:00-22:00, FRI: 08:00-22:00, SAT: 08:00-22:00, SUN: 08:00-22:00","<MISSING>","store_number"
"https://www.cvs.com/store-locator/richboro-pa-pharmacies/store-details/storeid=813","CVS Pharmacy at 1034 SECOND STREET PIKE RICHBORO, PA 18954","1034 SECOND STREET PIKE","RICHBORO","PA","18954","US","813","2153224060","Healthhub_Ind","40.2165","-75.0115","cvs.com","MON: 08:00-22:00, TUE: 08:00-22:00, WED: 08:00-22:00, THU: 08:00-22:00, FRI: 08:00-22:00, SAT: 08:00-22:00, SUN: 08:00-22:00","<MISSING>","store_number"
"https://www.cvs.com/store-locator/chalfont-pa-pharmacies/store-details/storeid=5241","CVS Pharmacy at 3265 COUNTY LINE RD. CHALFONT, PA 18914","3265 COUNTY LINE RD.","CHALFONT","PA","18914","US","5241","2159969809","Healthhub_Ind","40.244","-75.1908","cvs.com","MON: 07:00-22:00, TUE: 07:00-22:00, WED: 07:00-22:00, THU: 07:00-22:00, FRI: 07:00-22:00, SAT: 07:00-22:00, SUN: 07:00-22:00","<MISSING>","store_number"
"https://www.cvs.com/store-locator/paoli-pa-pharmacies/store-details/storeid=399","CVS Pharmacy at 1776 EAST LANCASTER AVENUE PAOLI, PA 19301","1776 EAST LANCASTER AVENUE","PAOLI","PA","19301","US","399","6106474366","Healthhub_Ind","40.0416","-75.4743","cvs.com","MON: 07:00-22:00, TUE: 07:00-22:00, WED: 07:00-22:00, THU: 07:00-22:00, FRI: 07:00-22:00, SAT: 07:00-22:00, SUN: 07:00-22:00","<MISSING>","store_number"
"https://www.cvs.com/store-locator/fairless-hills-pa-pharmacies/store-details/storeid=295","CVS Pharmacy at 504 S OXFORD VALLEY RD FAIRLESS HILLS, PA 19030","504 S OXFORD VALLEY RD","FAIRLESS HILLS","PA","19030","US","295","2159455720","Healthhub_Ind","40.1696","-74.8511","cvs.com","MON: Open 24 Hours-Open 24 Hours, TUE: Open 24 Hours-Open 24 Hours, WED: Open 24 Hours-Open 24 Hours, THU: Open 24 Hours-Open 24 Hours, FRI: Open 24 Hours-Open 24 Hours, SAT: Open 24 Hours-Open 24 Hours, SUN: Open 24 Hours-Open 24 Hours","<MISSING>","store_number"
"https://www.cvs.com/store-locator/moore-sc-pharmacies/store-details/storeid=7061","CVS Pharmacy at 5895 REIDVILLE RD., CORNER OF HIGHWAY 290 MOORE, SC 29369","5895 REIDVILLE RD., CORNER OF HIGHWAY 290","MOORE","SC","29369","US","7061","8644866990","Healthhub_Ind","34.8864","-82.0661","cvs.com","MON: 08:00-22:00, TUE: 08:00-22:00, WED: 08:00-22:00, THU: 08:00-22:00, FRI: 08:00-22:00, SAT: 08:00-22:00, SUN: 08:00-22:00","<MISSING>","store_number"
"https://www.cvs.com/store-locator/spartanburg-sc-pharmacies/store-details/storeid=4382","CVS Pharmacy at 1751 EAST MAIN STREET SPARTANBURG, SC 29307","1751 EAST MAIN STREET","SPARTANBURG","SC","29307","US","4382","8645735313","Healthhub_Ind","34.9652","-81.8962","cvs.com","MON: 08:00-22:00, TUE: 08:00-22:00, WED: 08:00-22:00, THU: 08:00-22:00, FRI: 08:00-22:00, SAT: 09:00-22:00, SUN: 09:00-19:00","<MISSING>","store_number"
"https://www.cvs.com/store-locator/greenville-sc-pharmacies/store-details/storeid=7397","CVS Pharmacy at 3901 PELHAM RD. GREENVILLE, SC 29615","3901 PELHAM RD.","GREENVILLE","SC","29615","US","7397","8642883672","Healthhub_Ind","34.8603","-82.2652","cvs.com","MON: 08:00-22:00, TUE: 08:00-22:00, WED: 08:00-22:00, THU: 08:00-22:00, FRI: 08:00-22:00, SAT: 08:00-22:00, SUN: 08:00-22:00","<MISSING>","store_number"
"https://www.cvs.com/store-locator/simpsonville-sc-pharmacies/store-details/storeid=2242","CVS Pharmacy at 2580 WOODRUFF ROAD SIMPSONVILLE, SC 29681","2580 WOODRUFF ROAD","SIMPSONVILLE","SC","29681","US","2242","8646277229","Healthhub_Ind","34.8065","-82.2334","cvs.com","MON: 08:00-22:00, TUE: 08:00-22:00, WED: 08:00-22:00, THU: 08:00-22:00, FRI: 08:00-22:00, SAT: 08:00-22:00, SUN: 08:00-22:00","<MISSING>","store_number"
"https://www.cvs.com/store-locator/taylors-sc-pharmacies/store-details/storeid=4122","CVS Pharmacy at 3300 WADE HAMPTON BOULEVARD TAYLORS, SC 29687","3300 WADE HAMPTON BOULEVARD","TAYLORS","SC","29687","US","4122","8642689160","Healthhub_Ind","34.9164","-82.3163","cvs.com","MON: 08:00-22:00, TUE: 08:00-22:00, WED: 08:00-22:00, THU: 08:00-22:00, FRI: 08:00-22:00, SAT: 08:00-22:00, SUN: 09:00-21:00","<MISSING>","store_number"
"https://www.cvs.com/store-locator/mauldin-sc-pharmacies/store-details/storeid=2194","CVS Pharmacy at 224 EAST BUTLER ROAD MAULDIN, SC 29662","224 EAST BUTLER ROAD","MAULDIN","SC","29662","US","2194","8642341282","Healthhub_Ind","34.7841","-82.2961","cvs.com","MON: 08:30-22:00, TUE: 08:30-22:00, WED: 08:30-22:00, THU: 08:30-22:00, FRI: 08:30-23:00, SAT: 08:00-23:00, SUN: 09:00-21:00","<MISSING>","store_number"
"https://www.cvs.com/store-locator/greenville-sc-pharmacies/store-details/storeid=2246","CVS Pharmacy at 2210 LAURENS ROAD GREENVILLE, SC 29607","2210 LAURENS ROAD","GREENVILLE","SC","29607","US","2246","8642888280","Healthhub_Ind","34.8347","-82.3527","cvs.com","MON: 08:00-22:00, TUE: 08:00-22:00, WED: 08:00-22:00, THU: 08:00-22:00, FRI: 08:00-23:00, SAT: 08:00-23:00, SUN: 08:00-22:00","<MISSING>","store_number"
"https://www.cvs.com/store-locator/simpsonville-sc-pharmacies/store-details/storeid=2192","CVS Pharmacy at 698 FAIRVIEW ROAD SIMPSONVILLE, SC 29680","698 FAIRVIEW ROAD","SIMPSONVILLE","SC","29680","US","2192","8649628991","Healthhub_Ind","34.7052","-82.2585","cvs.com","MON: Open 24 Hours-Open 24 Hours, TUE: Open 24 Hours-Open 24 Hours, WED: Open 24 Hours-Open 24 Hours, THU: Open 24 Hours-Open 24 Hours, FRI: Open 24 Hours-Open 24 Hours, SAT: Open 24 Hours-Open 24 Hours, SUN: Open 24 Hours-Open 24 Hours","<MISSING>","store_number"
"https://www.cvs.com/store-locator/travelers-rest-sc-pharmacies/store-details/storeid=3888","CVS Pharmacy at 200 HIGHWAY 25 NORTH TRAVELERS REST, SC 29690","200 HIGHWAY 25 NORTH","TRAVELERS REST","SC","29690","US","3888","8648347269","Healthhub_Ind","34.9603","-82.434","cvs.com","MON: 08:00-22:00, TUE: 08:00-22:00, WED: 08:00-22:00, THU: 08:00-22:00, FRI: 08:00-22:00, SAT: 08:00-21:00, SUN: 09:00-21:00","<MISSING>","store_number"
"https://www.cvs.com/store-locator/shelby-nc-pharmacies/store-details/storeid=7057","CVS Pharmacy at 105 EAST COLLEGE AVE., 105 EAST COLLEGE AVENUE SHELBY, NC 28152","105 EAST COLLEGE AVE., 105 EAST COLLEGE AVENUE","SHELBY","NC","28152","US","7057","7044346560","Healthhub_Ind","35.2505","-81.6666","cvs.com","MON: 08:00-22:00, TUE: 08:00-22:00, WED: 08:00-22:00, THU: 08:00-22:00, FRI: 08:00-22:00, SAT: 08:00-20:00, SUN: 08:00-20:00","<MISSING>","store_number"
"https://www.cvs.com/store-locator/easley-sc-pharmacies/store-details/storeid=4286","CVS Pharmacy at 5269 CALHOUN MEMORIAL HWY EASLEY, SC 29640","5269 CALHOUN MEMORIAL HWY","EASLEY","SC","29640","US","4286","8648597168","Healthhub_Ind","34.8249","-82.5624","cvs.com","MON: 08:00-22:00, TUE: 08:00-22:00, WED: 08:00-22:00, THU: 08:00-22:00, FRI: 08:00-22:00, SAT: 08:00-22:00, SUN: 08:00-22:00","<MISSING>","store_number"
"https://www.cvs.com/store-locator/hendersonville-nc-pharmacies/store-details/storeid=3582","CVS Pharmacy at 1605 FOUR SEASONS BLVD. HENDERSONVILLE, NC 28792","1605 FOUR SEASONS BLVD.","HENDERSONVILLE","NC","28792","US","3582","8286934186","Healthhub_Ind","35.3306","-82.4466","cvs.com","MON: 08:00-22:00, TUE: 08:00-22:00, WED: 08:00-22:00, THU: 08:00-22:00, FRI: 08:00-22:00, SAT: 08:00-22:00, SUN: 08:00-22:00","<MISSING>","store_number"
"https://www.cvs.com/store-locator/anderson-sc-pharmacies/store-details/storeid=3838","CVS Pharmacy at 1405 EAST GREENVILLE STREET ANDERSON, SC 29621","1405 EAST GREENVILLE STREET","ANDERSON","SC","29621","US","3838","8642248797","Healthhub_Ind","34.5271","-82.6381","cvs.com","MON: 08:00-22:00, TUE: 08:00-22:00, WED: 08:00-22:00, THU: 08:00-22:00, FRI: 08:00-22:00, SAT: 08:00-22:00, SUN: 08:00-22:00","<MISSING>","store_number"
"https://www.cvs.com/store-locator/clemson-sc-pharmacies/store-details/storeid=4026","CVS Pharmacy at 1300 TIGER BLVD., HIGHWAY 123 CLEMSON, SC 29631","1300 TIGER BLVD., HIGHWAY 123","CLEMSON","SC","29631","US","4026","8646536724","Healthhub_Ind","34.689","-82.8261","cvs.com","MON: 08:00-22:00, TUE: 08:00-22:00, WED: 08:00-22:00, THU: 08:00-22:00, FRI: 08:00-22:00, SAT: 08:00-22:00, SUN: 08:00-22:00","<MISSING>","store_number"
"https://www.cvs.com/store-locator/gastonia-nc-pharmacies/store-details/storeid=5565","CVS Pharmacy at 1075 E. HUDSON BLVD., GASTONIA, NC 28054","1075 E. HUDSON BLVD.,","GASTONIA","NC","28054","US","5565","7048648749","Healthhub_Ind","35.2323","-81.1702","cvs.com","MON: 08:00-22:00, TUE: 08:00-22:00, WED: 08:00-22:00, THU: 08:00-22:00, FRI: 08:00-22:00, SAT: 08:00-22:00, SUN: 08:00-22:00","<MISSING>","store_number"
"https://www.cvs.com/store-locator/asheville-nc-pharmacies/store-details/storeid=4176","CVS Pharmacy at 11 RIVER RIDGE DR., OAKLEY PLAZA ASHEVILLE, NC 28803","11 RIVER RIDGE DR., OAKLEY PLAZA","ASHEVILLE","NC","28803","US","4176","8282986350","Healthhub_Ind","35.5705","-82.5054","cvs.com","MON: 08:00-22:00, TUE: 08:00-22:00, WED: 08:00-22:00, THU: 08:00-22:00, FRI: 08:00-22:00, SAT: 08:00-22:00, SUN: 08:00-22:00","<MISSING>","store_number"
"https://www.cvs.com/store-locator/clover-sc-pharmacies/store-details/storeid=5550","CVS Pharmacy at 4724 CHARLOTTE HWY. CLOVER, SC 29710","4724 CHARLOTTE HWY.","CLOVER","SC","29710","US","5550","8038311911","Healthhub_Ind","35.1158","-81.0644","cvs.com","MON: 08:00-22:00, TUE: 08:00-22:00, WED: 08:00-22:00, THU: 08:00-22:00, FRI: 08:00-22:00, SAT: 08:00-22:00, SUN: 08:00-22:00","<MISSING>","store_number"
"https://www.cvs.com/store-locator/rock-hill-sc-pharmacies/store-details/storeid=4288","CVS Pharmacy at 2707 CELANESE RD. ROCK HILL, SC 29732","2707 CELANESE RD.","ROCK HILL","SC","29732","US","4288","8033664157","Healthhub_Ind","34.9754","-81.027","cvs.com","MON: Open 24 Hours-Open 24 Hours, TUE: Open 24 Hours-Open 24 Hours, WED: Open 24 Hours-Open 24 Hours, THU: Open 24 Hours-Open 24 Hours, FRI: Open 24 Hours-Open 24 Hours, SAT: Open 24 Hours-Open 24 Hours, SUN: Open 24 Hours-Open 24 Hours","<MISSING>","store_number"
"https://www.cvs.com/store-locator/lincolnton-nc-pharmacies/store-details/storeid=3806","CVS Pharmacy at 1403 E. MAIN ST. LINCOLNTON, NC 28092","1403 E. MAIN ST.","LINCOLNTON","NC","28092","US","3806","7047351493","Healthhub_Ind","35.477","-81.2395","cvs.com","MON: 08:00-21:00, TUE: 08:00-21:00, WED: 08:00-21:00, THU: 08:00-21:00, FRI: 08:00-21:00, SAT: 08:00-21:00, SUN: 08:00-21:00","<MISSING>","store_number"
"https://www.cvs.com/store-locator/charlotte-nc-pharmacies/store-details/storeid=187","CVS Pharmacy at 14125 STEELE CREEK RD. CHARLOTTE, NC 28273","14125 STEELE CREEK RD.","CHARLOTTE","NC","28273","US","187","7045048199","Healthhub_Ind","35.1024","-80.9876","cvs.com","MON: 08:00-23:00, TUE: 08:00-23:00, WED: 08:00-23:00, THU: 08:00-23:00, FRI: 08:00-23:00, SAT: 08:00-23:00, SUN: 08:00-22:00","<MISSING>","store_number"
"https://www.cvs.com/store-locator/fort-mill-sc-pharmacies/store-details/storeid=1571","CVS Pharmacy at 1740 HWY 160 WEST FORT MILL, SC 29708","1740 HWY 160 WEST","FORT MILL","SC","29708","US","1571","8038024424","Healthhub_Ind","35.0339","-80.9701","cvs.com","MON: 08:00-22:00, TUE: 08:00-22:00, WED: 08:00-22:00, THU: 08:00-22:00, FRI: 08:00-22:00, SAT: 08:00-22:00, SUN: 08:00-22:00","<MISSING>","store_number"
"https://www.cvs.com/store-locator/stanley-nc-pharmacies/store-details/storeid=3514","CVS Pharmacy at 442 HIGHWAY 27 SOUTH STANLEY, NC 28164","442 HIGHWAY 27 SOUTH","STANLEY","NC","28164","US","3514","7042631416","Healthhub_Ind","35.3536","-81.0912","cvs.com","MON: 08:00-22:00, TUE: 08:00-22:00, WED: 08:00-22:00, THU: 08:00-22:00, FRI: 08:00-22:00, SAT: 08:00-22:00, SUN: 08:00-22:00","<MISSING>","store_number"
"https://www.cvs.com/store-locator/belmont-nc-pharmacies/store-details/storeid=2233","CVS Pharmacy at 6750 WILKINSON BLVD. BELMONT, NC 28012","6750 WILKINSON BLVD.","BELMONT","NC","28012","US","2233","7048256929","Healthhub_Ind","35.2512","-81.0296","cvs.com","MON: Open 24 Hours-Open 24 Hours, TUE: Open 24 Hours-Open 24 Hours, WED: Open 24 Hours-Open 24 Hours, THU: Open 24 Hours-Open 24 Hours, FRI: Open 24 Hours-Open 24 Hours, SAT: Open 24 Hours-Open 24 Hours, SUN: Open 24 Hours-Open 24 Hours","<MISSING>","store_number"
"https://www.cvs.com/store-locator/weaverville-nc-pharmacies/store-details/storeid=7013","CVS Pharmacy at 121 MONTICELLO RD. WEAVERVILLE, NC 28787","121 MONTICELLO RD.","WEAVERVILLE","NC","28787","US","7013","8286455802","Healthhub_Ind","35.7094","-82.5785","cvs.com","MON: 08:00-22:00, TUE: 08:00-22:00, WED: 08:00-22:00, THU: 08:00-22:00, FRI: 08:00-23:00, SAT: 09:00-19:00, SUN: 10:00-19:00","<MISSING>","store_number"
"https://www.cvs.com/store-locator/charlotte-nc-pharmacies/store-details/storeid=3319","CVS Pharmacy at 9915 PARK CEDAR DR CHARLOTTE, NC 28210","9915 PARK CEDAR DR","CHARLOTTE","NC","28210","US","3319","7045443263","Healthhub_Ind","35.0946","-80.8656","cvs.com","MON: 07:00-22:00, TUE: 07:00-22:00, WED: 07:00-22:00, THU: 07:00-22:00, FRI: 07:00-22:00, SAT: 08:00-22:00, SUN: 08:00-22:00","<MISSING>","store_number"
"https://www.cvs.com/store-locator/staten-island-ny-pharmacies/store-details/storeid=6049","CVS Pharmacy at 1361 HYLAN BLVD. STATEN ISLAND, NY 10305","1361 HYLAN BLVD.","STATEN ISLAND","NY","10305","US","6049","7189792828","Healthhub_Ind","40.5954","-74.0865","cvs.com","MON: Open 24 Hours-Open 24 Hours, TUE: Open 24 Hours-Open 24 Hours, WED: Open 24 Hours-Open 24 Hours, THU: Open 24 Hours-Open 24 Hours, FRI: Open 24 Hours-Open 24 Hours, SAT: Open 24 Hours-Open 24 Hours, SUN: Open 24 Hours-Open 24 Hours","<MISSING>","store_number"
"https://www.cvs.com/store-locator/staten-island-ny-pharmacies/store-details/storeid=6058","CVS Pharmacy at 260 ARDEN AVE. STATEN ISLAND, NY 10312","260 ARDEN AVE.","STATEN ISLAND","NY","10312","US","6058","7189665509","Healthhub_Ind","40.5538","-74.1929","cvs.com","MON: 07:00-23:00, TUE: 07:00-23:00, WED: 07:00-23:00, THU: 07:00-23:00, FRI: 07:00-23:00, SAT: 07:00-23:00, SUN: 07:00-22:00","<MISSING>","store_number"
"https://www.cvs.com/store-locator/brooklyn-ny-pharmacies/store-details/storeid=2700","CVS Pharmacy at 1402 SHEEPSHEAD BAY ROAD BROOKLYN, NY 11235","1402 SHEEPSHEAD BAY ROAD","BROOKLYN","NY","11235","US","2700","7183328425","Healthhub_Ind","40.5872","-73.9549","cvs.com","MON: 08:00-22:00, TUE: 08:00-22:00, WED: 08:00-22:00, THU: 08:00-22:00, FRI: 08:00-22:00, SAT: 08:00-22:00, SUN: 08:00-22:00","<MISSING>","store_number"
"https://www.cvs.com/store-locator/hoboken-nj-pharmacies/store-details/storeid=1928","CVS Pharmacy at 59 WASHINGTON ST, COURT STREET PLAZA HOBOKEN, NJ 07030","59 WASHINGTON ST, COURT STREET PLAZA","HOBOKEN","NJ","07030","US","1928","2017981889","Healthhub_Ind","40.7366","-74.0309","cvs.com","MON: Open 24 Hours-Open 24 Hours, TUE: Open 24 Hours-Open 24 Hours, WED: Open 24 Hours-Open 24 Hours, THU: Open 24 Hours-Open 24 Hours, FRI: Open 24 Hours-Open 24 Hours, SAT: Open 24 Hours-Open 24 Hours, SUN: Open 24 Hours-Open 24 Hours","<MISSING>","store_number"
"https://www.cvs.com/store-locator/new-york-ny-pharmacies/store-details/storeid=2427","CVS Pharmacy at 215 PARK AVENUE SOUTH, BTWN. 17TH AND 18TH ST. NEW YORK, NY 10003","215 PARK AVENUE SOUTH, BTWN. 17TH AND 18TH ST.","NEW YORK","NY","10003","US","2427","6466028237","Healthhub_Ind","40.7369","-73.9885","cvs.com","MON: 07:00-00:00, TUE: 07:00-00:00, WED: 07:00-00:00, THU: 07:00-00:00, FRI: 07:00-00:00, SAT: 07:00-00:00, SUN: 07:00-00:00","<MISSING>","store_number"
"https://www.cvs.com/store-locator/kearny-nj-pharmacies/store-details/storeid=385","CVS Pharmacy at 220 SCHUYLER AVE, SCHUYLER AND PASSAIC AVENUE'S KEARNY, NJ 07032","220 SCHUYLER AVE, SCHUYLER AND PASSAIC AVENUE'S","KEARNY","NJ","07032","US","385","2019974600","Healthhub_Ind","40.7561","-74.1441","cvs.com","MON: 08:00-22:00, TUE: 08:00-22:00, WED: 08:00-22:00, THU: 08:00-22:00, FRI: 08:00-22:00, SAT: 08:00-22:00, SUN: 08:00-22:00","<MISSING>","store_number"
"https://www.cvs.com/store-locator/clark-nj-pharmacies/store-details/storeid=2796","CVS Pharmacy at 241 WESTFIELD AVENUE, 241 WESTFIELD AVE CLARK, NJ 07066","241 WESTFIELD AVENUE, 241 WESTFIELD AVE","CLARK","NJ","07066","US","2796","7323817100","Healthhub_Ind","40.6193","-74.2974","cvs.com","MON: 08:00-22:00, TUE: 08:00-22:00, WED: 08:00-22:00, THU: 08:00-22:00, FRI: 08:00-22:00, SAT: 08:00-22:00, SUN: 08:00-22:00","<MISSING>","store_number"
"https://www.cvs.com/store-locator/new-york-ny-pharmacies/store-details/storeid=11059","CVS Pharmacy at 1619 BROADWAY, ON THE CORNER OF WEST 49TH STREET NEW YORK, NY 10019","1619 BROADWAY, ON THE CORNER OF WEST 49TH STREET","NEW YORK","NY","10019","US","11059","6464165752","Healthhub_Ind","40.761","-73.9845","cvs.com","MON: Open 24 Hours-Open 24 Hours, TUE: Open 24 Hours-Open 24 Hours, WED: Open 24 Hours-Open 24 Hours, THU: Open 24 Hours-Open 24 Hours, FRI: Open 24 Hours-Open 24 Hours, SAT: Open 24 Hours-Open 24 Hours, SUN: Open 24 Hours-Open 24 Hours","<MISSING>","store_number"
"https://www.cvs.com/store-locator/north-arlington-nj-pharmacies/store-details/storeid=360","CVS Pharmacy at 585 RIDGE RD. NORTH ARLINGTON, NJ 07031","585 RIDGE RD.","NORTH ARLINGTON","NJ","07031","US","360","2019970333","Healthhub_Ind","40.7973","-74.1273","cvs.com","MON: 08:00-23:00, TUE: 08:00-23:00, WED: 08:00-23:00, THU: 08:00-23:00, FRI: 08:00-23:00, SAT: 08:00-23:00, SUN: 08:00-23:00","<MISSING>","store_number"
"https://www.cvs.com/store-locator/springfield-nj-pharmacies/store-details/storeid=5771","CVS Pharmacy at 178 MORRIS AVE. SPRINGFIELD, NJ 07081","178 MORRIS AVE.","SPRINGFIELD","NJ","07081","US","5771","9733798771","Healthhub_Ind","40.7105","-74.3081","cvs.com","MON: 08:00-22:00, TUE: 08:00-22:00, WED: 08:00-22:00, THU: 08:00-22:00, FRI: 08:00-22:00, SAT: 08:00-22:00, SUN: 08:00-22:00","<MISSING>","store_number"
"https://www.cvs.com/store-locator/hazlet-nj-pharmacies/store-details/storeid=7069","CVS Pharmacy at 3391 HIGHWAY 35 HAZLET, NJ 07730","3391 HIGHWAY 35","HAZLET","NJ","07730","US","7069","7328888299","Healthhub_Ind","40.4238","-74.1938","cvs.com","MON: 07:00-22:00, TUE: 07:00-22:00, WED: 07:00-22:00, THU: 07:00-22:00, FRI: 07:00-23:00, SAT: 07:00-23:00, SUN: 07:00-22:00","<MISSING>","store_number"
"https://www.cvs.com/store-locator/howard-beach-ny-pharmacies/store-details/storeid=6030","CVS Pharmacy at 157-05 CROSS BAY BLVD. HOWARD BEACH, NY 11414","157-05 CROSS BAY BLVD.","HOWARD BEACH","NY","11414","US","6030","7188484507","Healthhub_Ind","40.6624","-73.8401","cvs.com","MON: 07:00-00:00, TUE: 07:00-00:00, WED: 07:00-00:00, THU: 07:00-00:00, FRI: 07:00-00:00, SAT: 07:00-00:00, SUN: 07:00-00:00","<MISSING>","store_number"
"https://www.cvs.com/store-locator/highlands-nj-pharmacies/store-details/storeid=1214","CVS Pharmacy at 470 ROUTE 36 HIGHLANDS, NJ 07732","470 ROUTE 36","HIGHLANDS","NJ","07732","US","1214","7328721051","Healthhub_Ind","40.4054","-74.0045","cvs.com","MON: 07:00-23:00, TUE: 07:00-23:00, WED: 07:00-23:00, THU: 07:00-23:00, FRI: 07:00-23:00, SAT: 07:00-23:00, SUN: 07:00-23:00","<MISSING>","store_number"
"https://www.cvs.com/store-locator/new-york-ny-pharmacies/store-details/storeid=3224","CVS Pharmacy at 130 LENOX AVE., BTWN. 116TH AND 117TH ST. NEW YORK, NY 10026","130 LENOX AVE., BTWN. 116TH AND 117TH ST.","NEW YORK","NY","10026","US","3224","2123482199","Healthhub_Ind","40.8021","-73.9492","cvs.com","MON: 07:00-22:00, TUE: 07:00-22:00, WED: 07:00-22:00, THU: 07:00-22:00, FRI: 07:00-22:00, SAT: 07:00-22:00, SUN: 07:00-22:00","<MISSING>","store_number"
"https://www.cvs.com/store-locator/cedar-grove-nj-pharmacies/store-details/storeid=617","CVS Pharmacy at 387 POMPTON AVENUE CEDAR GROVE, NJ 07009","387 POMPTON AVENUE","CEDAR GROVE","NJ","07009","US","617","9738572550","Healthhub_Ind","40.847","-74.2282","cvs.com","MON: Open 24 Hours-Open 24 Hours, TUE: Open 24 Hours-Open 24 Hours, WED: Open 24 Hours-Open 24 Hours, THU: Open 24 Hours-Open 24 Hours, FRI: Open 24 Hours-Open 24 Hours, SAT: Open 24 Hours-Open 24 Hours, SUN: Open 24 Hours-Open 24 Hours","<MISSING>","store_number"
"https://www.cvs.com/store-locator/old-bridge-nj-pharmacies/store-details/storeid=2139","CVS Pharmacy at 2988 ROUTE 516 OLD BRIDGE, NJ 08857","2988 ROUTE 516","OLD BRIDGE","NJ","08857","US","2139","7326072941","Healthhub_Ind","40.4025","-74.3131","cvs.com","MON: 08:00-22:00, TUE: 08:00-22:00, WED: 08:00-22:00, THU: 08:00-22:00, FRI: 08:00-22:00, SAT: 08:00-22:00, SUN: 08:00-22:00","<MISSING>","store_number"
"https://www.cvs.com/store-locator/chatham-nj-pharmacies/store-details/storeid=1279","CVS Pharmacy at 471 MAIN ST, CHATHAM S/C CHATHAM, NJ 07928","471 MAIN ST, CHATHAM S/C","CHATHAM","NJ","07928","US","1279","9736354636","Healthhub_Ind","40.7437","-74.3911","cvs.com","MON: 07:00-23:00, TUE: 07:00-23:00, WED: 07:00-23:00, THU: 07:00-23:00, FRI: 07:00-23:00, SAT: 07:00-23:00, SUN: 07:00-23:00","<MISSING>","store_number"
"https://www.cvs.com/store-locator/green-brook-nj-pharmacies/store-details/storeid=1927","CVS Pharmacy at 137 ROUTE 22 EAST GREEN BROOK, NJ 08812","137 ROUTE 22 EAST","GREEN BROOK","NJ","08812","US","1927","7324249242","Healthhub_Ind","40.6034","-74.4744","cvs.com","MON: 08:00-22:00, TUE: 08:00-22:00, WED: 08:00-22:00, THU: 08:00-22:00, FRI: 08:00-22:00, SAT: 08:00-22:00, SUN: 08:00-22:00","<MISSING>","store_number"
"https://www.cvs.com/store-locator/east-hanover-nj-pharmacies/store-details/storeid=2949","CVS Pharmacy at 451 RIDGEDALE AVE. EAST HANOVER, NJ 07936","451 RIDGEDALE AVE.","EAST HANOVER","NJ","07936","US","2949","9734633301","Healthhub_Ind","40.8268","-74.3581","cvs.com","MON: 08:00-22:00, TUE: 08:00-22:00, WED: 08:00-22:00, THU: 08:00-22:00, FRI: 08:00-22:00, SAT: 08:00-22:00, SUN: 08:00-22:00","<MISSING>","store_number"
"https://www.cvs.com/store-locator/elmont-ny-pharmacies/store-details/storeid=2061","CVS Pharmacy at 1797 DUTCH BROADWAY ELMONT, NY 11003","1797 DUTCH BROADWAY","ELMONT","NY","11003","US","2061","5165611340","Healthhub_Ind","40.6896","-73.7095","cvs.com","MON: 08:00-22:00, TUE: 08:00-22:00, WED: 08:00-22:00, THU: 08:00-22:00, FRI: 08:00-22:00, SAT: 08:00-22:00, SUN: 08:00-22:00","<MISSING>","store_number"
"https://www.cvs.com/store-locator/east-brunswick-nj-pharmacies/store-details/storeid=2815","CVS Pharmacy at 330 RUES LANE EAST BRUNSWICK, NJ 08816","330 RUES LANE","EAST BRUNSWICK","NJ","08816","US","2815","7322543900","Healthhub_Ind","40.4178","-74.4115","cvs.com","MON: 07:00-00:00, TUE: 07:00-00:00, WED: 07:00-00:00, THU: 07:00-00:00, FRI: 07:00-00:00, SAT: 07:00-00:00, SUN: 07:00-00:00","<MISSING>","store_number"
"https://www.cvs.com/store-locator/paramus-nj-pharmacies/store-details/storeid=5300","CVS Pharmacy at 1000 BERGEN TOWN CENTER PARAMUS, NJ 07652","1000 BERGEN TOWN CENTER","PARAMUS","NJ","07652","US","5300","2012260105","Healthhub_Ind","40.9169","-74.0625","cvs.com","MON: 07:00-23:00, TUE: 07:00-23:00, WED: 07:00-23:00, THU: 07:00-23:00, FRI: 07:00-23:00, SAT: 07:00-23:00, SUN: 07:00-23:00","<MISSING>","store_number"
"https://www.cvs.com/store-locator/north-brunswick-nj-pharmacies/store-details/storeid=5980","CVS Pharmacy at 949 LIVINGSTON AVE. NORTH BRUNSWICK, NJ 08902","949 LIVINGSTON AVE.","NORTH BRUNSWICK","NJ","08902","US","5980","7323427130","Healthhub_Ind","40.4705","-74.4703","cvs.com","MON: 08:00-22:00, TUE: 08:00-22:00, WED: 08:00-22:00, THU: 08:00-22:00, FRI: 08:00-22:00, SAT: 08:00-22:00, SUN: 08:00-22:00","<MISSING>","store_number"
"https://www.cvs.com/store-locator/new-milford-nj-pharmacies/store-details/storeid=2950","CVS Pharmacy at 880 RIVER RD NEW MILFORD, NJ 07646","880 RIVER RD","NEW MILFORD","NJ","07646","US","2950","2012252101","Healthhub_Ind","40.9263","-74.0272","cvs.com","MON: 08:00-23:00, TUE: 08:00-23:00, WED: 08:00-23:00, THU: 08:00-23:00, FRI: 08:00-23:00, SAT: 08:00-23:00, SUN: 08:00-23:00","<MISSING>","store_number"
"https://www.cvs.com/store-locator/marlboro-nj-pharmacies/store-details/storeid=862","CVS Pharmacy at 4 RYAN RD. MARLBORO, NJ 07746","4 RYAN RD.","MARLBORO","NJ","07746","US","862","7324318700","Healthhub_Ind","40.3037","-74.2538","cvs.com","MON: Open 24 Hours-Open 24 Hours, TUE: Open 24 Hours-Open 24 Hours, WED: Open 24 Hours-Open 24 Hours, THU: Open 24 Hours-Open 24 Hours, FRI: Open 24 Hours-Open 24 Hours, SAT: Open 24 Hours-Open 24 Hours, SUN: Open 24 Hours-Open 24 Hours","<MISSING>","store_number"
"https://www.cvs.com/store-locator/boca-raton-fl-pharmacies/store-details/storeid=7982","CVS Pharmacy at 520 S. FEDERAL HWY. BOCA RATON, FL 33432","520 S. FEDERAL HWY.","BOCA RATON","FL","33432","US","7982","5613623240","Healthhub_Ind","26.3447","-80.0856","cvs.com","MON: 07:00-23:00, TUE: 07:00-23:00, WED: 07:00-23:00, THU: 07:00-23:00, FRI: 07:00-00:00, SAT: 07:00-00:00, SUN: 07:00-23:00","<MISSING>","store_number"
"https://www.cvs.com/store-locator/delray-beach-fl-pharmacies/store-details/storeid=1821","CVS Pharmacy at 1690 S FEDERAL HWY, SOUTH FEDERAL HIGHWAY AND LINTON BOULEVARD DELRAY BEACH, FL 33483","1690 S FEDERAL HWY, SOUTH FEDERAL HIGHWAY AND LINTON BOULEVARD","DELRAY BEACH","FL","33483","US","1821","5612721163","Healthhub_Ind","26.4417","-80.0706","cvs.com","MON: 08:00-23:00, TUE: 08:00-23:00, WED: 08:00-23:00, THU: 08:00-23:00, FRI: 08:00-23:00, SAT: 08:00-23:00, SUN: 08:00-22:00","<MISSING>","store_number"
"https://www.cvs.com/store-locator/pompano-beach-fl-pharmacies/store-details/storeid=3635","CVS Pharmacy at 1501 S FEDERAL HWY POMPANO BEACH, FL 33062","1501 S FEDERAL HWY","POMPANO BEACH","FL","33062","US","3635","9547880739","Healthhub_Ind","26.2112","-80.1077","cvs.com","MON: 07:00-00:00, TUE: 07:00-00:00, WED: 07:00-00:00, THU: 07:00-00:00, FRI: 07:00-00:00, SAT: 07:00-00:00, SUN: 07:00-00:00","<MISSING>","store_number"
"https://www.cvs.com/store-locator/coral-springs-fl-pharmacies/store-details/storeid=5930","CVS Pharmacy at 5701 CORAL RIDGE DR. CORAL SPRINGS, FL 33076","5701 CORAL RIDGE DR.","CORAL SPRINGS","FL","33076","US","5930","9548254391","Healthhub_Ind","26.298","-80.2782","cvs.com","MON: 07:00-23:00, TUE: 07:00-23:00, WED: 07:00-23:00, THU: 07:00-23:00, FRI: 07:00-23:00, SAT: 08:00-23:00, SUN: 08:00-23:00","<MISSING>","store_number"
"https://www.cvs.com/store-locator/fort-lauderdale-fl-pharmacies/store-details/storeid=4201","CVS Pharmacy at 2240 E SUNRISE BLVD FORT LAUDERDALE, FL 33304","2240 E SUNRISE BLVD","FORT LAUDERDALE","FL","33304","US","4201","9545668309","Healthhub_Ind","26.1371","-80.1179","cvs.com","MON: 07:00-00:00, TUE: 07:00-00:00, WED: 07:00-00:00, THU: 07:00-00:00, FRI: 07:00-00:00, SAT: 07:00-00:00, SUN: 07:00-00:00","<MISSING>","store_number"
"https://www.cvs.com/store-locator/fort-lauderdale-fl-pharmacies/store-details/storeid=3285","CVS Pharmacy at 1700 S. FEDERAL HWY. FORT LAUDERDALE, FL 33316","1700 S. FEDERAL HWY.","FORT LAUDERDALE","FL","33316","US","3285","9544628185","Healthhub_Ind","26.0997","-80.1362","cvs.com","MON: Open 24 Hours-Open 24 Hours, TUE: Open 24 Hours-Open 24 Hours, WED: Open 24 Hours-Open 24 Hours, THU: Open 24 Hours-Open 24 Hours, FRI: Open 24 Hours-Open 24 Hours, SAT: Open 24 Hours-Open 24 Hours, SUN: Open 24 Hours-Open 24 Hours","<MISSING>","store_number"
"https://www.cvs.com/store-locator/lake-worth-fl-pharmacies/store-details/storeid=7891","CVS Pharmacy at 8954 LANTANA RD, CORNER OF LYONS ROAD LAKE WORTH, FL 33467","8954 LANTANA RD, CORNER OF LYONS ROAD","LAKE WORTH","FL","33467","US","7891","5614344776","Healthhub_Ind","26.5901","-80.1886","cvs.com","MON: 08:00-22:00, TUE: 08:00-22:00, WED: 08:00-22:00, THU: 08:00-22:00, FRI: 08:00-22:00, SAT: 08:00-22:00, SUN: 08:00-22:00","<MISSING>","store_number"
"https://www.cvs.com/store-locator/plantation-fl-pharmacies/store-details/storeid=5079","CVS Pharmacy at 10241 W BROWARD BLVD PLANTATION, FL 33324","10241 W BROWARD BLVD","PLANTATION","FL","33324","US","5079","9542360769","Healthhub_Ind","26.1213","-80.2859","cvs.com","MON: 08:00-23:00, TUE: 08:00-23:00, WED: 08:00-23:00, THU: 08:00-23:00, FRI: 08:00-23:00, SAT: 08:00-23:00, SUN: 08:00-22:00","<MISSING>","store_number"
"https://www.cvs.com/store-locator/davie-fl-pharmacies/store-details/storeid=3291","CVS Pharmacy at 4610 S UNIVERSITY DR DAVIE, FL 33328","4610 S UNIVERSITY DR","DAVIE","FL","33328","US","3291","9544342002","Healthhub_Ind","26.0637","-80.2515","cvs.com","MON: 07:00-00:00, TUE: 07:00-00:00, WED: 07:00-00:00, THU: 07:00-00:00, FRI: 07:00-00:00, SAT: 07:00-00:00, SUN: 07:00-00:00","<MISSING>","store_number"
"https://www.cvs.com/store-locator/cooper-city-fl-pharmacies/store-details/storeid=7933","CVS Pharmacy at 4701 S FLAMINGO ROAD COOPER CITY, FL 33330","4701 S FLAMINGO ROAD","COOPER CITY","FL","33330","US","7933","9544343160","Healthhub_Ind","26.0627","-80.3144","cvs.com","MON: 08:00-22:00, TUE: 08:00-22:00, WED: 08:00-22:00, THU: 08:00-22:00, FRI: 08:00-22:00, SAT: 08:00-22:00, SUN: 08:00-22:00","<MISSING>","store_number"
"https://www.cvs.com/store-locator/miramar-fl-pharmacies/store-details/storeid=7887","CVS Pharmacy at 12401 MIRAMAR PKWY. MIRAMAR, FL 33027","12401 MIRAMAR PKWY.","MIRAMAR","FL","33027","US","7887","9545388473","Healthhub_Ind","25.9796","-80.3123","cvs.com","MON: 07:00-00:00, TUE: 07:00-00:00, WED: 07:00-00:00, THU: 07:00-00:00, FRI: 07:00-00:00, SAT: 08:00-00:00, SUN: 08:00-00:00","<MISSING>","store_number"
"https://www.cvs.com/store-locator/palm-beach-gardens-fl-pharmacies/store-details/storeid=3854","CVS Pharmacy at 11000 N. MILITARY TRAIL PALM BEACH GARDENS, FL 33410","11000 N. MILITARY TRAIL","PALM BEACH GARDENS","FL","33410","US","3854","5616267542","Healthhub_Ind","26.8411","-80.1043","cvs.com","MON: Open 24 Hours-Open 24 Hours, TUE: Open 24 Hours-Open 24 Hours, WED: Open 24 Hours-Open 24 Hours, THU: Open 24 Hours-Open 24 Hours, FRI: Open 24 Hours-Open 24 Hours, SAT: Open 24 Hours-Open 24 Hours, SUN: Open 24 Hours-Open 24 Hours","<MISSING>","store_number"
"https://www.cvs.com/store-locator/palm-beach-gardens-fl-pharmacies/store-details/storeid=5141","CVS Pharmacy at 2480 PGA BLVD PALM BEACH GARDENS, FL 33410","2480 PGA BLVD","PALM BEACH GARDENS","FL","33410","US","5141","5616228700","Healthhub_Ind","26.844","-80.0713","cvs.com","MON: Open 24 Hours-Open 24 Hours, TUE: Open 24 Hours-Open 24 Hours, WED: Open 24 Hours-Open 24 Hours, THU: Open 24 Hours-Open 24 Hours, FRI: Open 24 Hours-Open 24 Hours, SAT: Open 24 Hours-Open 24 Hours, SUN: Open 24 Hours-Open 24 Hours","<MISSING>","store_number"
"https://www.cvs.com/store-locator/key-biscayne-fl-pharmacies/store-details/storeid=3236","CVS Pharmacy at 726 CRANDON BOULEVARD, CORNER OF WOOD DRIVE STREET KEY BISCAYNE, FL 33149","726 CRANDON BOULEVARD, CORNER OF WOOD DRIVE STREET","KEY BISCAYNE","FL","33149","US","3236","3053654622","Healthhub_Ind","25.6877","-80.1643","cvs.com","MON: Open 24 Hours-Open 24 Hours, TUE: Open 24 Hours-Open 24 Hours, WED: Open 24 Hours-Open 24 Hours, THU: Open 24 Hours-Open 24 Hours, FRI: Open 24 Hours-Open 24 Hours, SAT: Open 24 Hours-Open 24 Hours, SUN: Open 24 Hours-Open 24 Hours","<MISSING>","store_number"
"https://www.cvs.com/store-locator/pinecrest-fl-pharmacies/store-details/storeid=5924","CVS Pharmacy at 8765 S. DIXIE HWY. PINECREST, FL 33156","8765 S. DIXIE HWY.","PINECREST","FL","33156","US","5924","3057406840","Healthhub_Ind","25.6893","-80.3071","cvs.com","MON: Open 24 Hours-Open 24 Hours, TUE: Open 24 Hours-Open 24 Hours, WED: Open 24 Hours-Open 24 Hours, THU: Open 24 Hours-Open 24 Hours, FRI: Open 24 Hours-Open 24 Hours, SAT: Open 24 Hours-Open 24 Hours, SUN: Open 24 Hours-Open 24 Hours","<MISSING>","store_number"
"https://www.cvs.com/store-locator/port-saint-lucie-fl-pharmacies/store-details/storeid=5157","CVS Pharmacy at 1300 SW ST LUCIE BLVD PORT SAINT LUCIE, FL 34986","1300 SW ST LUCIE BLVD","PORT SAINT LUCIE","FL","34986","US","5157","7728787078","Healthhub_Ind","27.3159","-80.3868","cvs.com","MON: 08:00-22:00, TUE: 08:00-22:00, WED: 08:00-22:00, THU: 08:00-22:00, FRI: 08:00-22:00, SAT: 08:00-22:00, SUN: 08:00-22:00","<MISSING>","store_number"
"https://www.cvs.com/store-locator/lehigh-acres-fl-pharmacies/store-details/storeid=1807","CVS Pharmacy at 1350 LEE BLVD LEHIGH ACRES, FL 33936","1350 LEE BLVD","LEHIGH ACRES","FL","33936","US","1807","2393692163","Healthhub_Ind","26.615","-81.6538","cvs.com","MON: Open 24 Hours-Open 24 Hours, TUE: Open 24 Hours-Open 24 Hours, WED: Open 24 Hours-Open 24 Hours, THU: Open 24 Hours-Open 24 Hours, FRI: Open 24 Hours-Open 24 Hours, SAT: Open 24 Hours-Open 24 Hours, SUN: Open 24 Hours-Open 24 Hours","<MISSING>","store_number"
"https://www.cvs.com/store-locator/new-cumberland-pa-pharmacies/store-details/storeid=6916","CVS Pharmacy at 560 OLD YORK ROAD NEW CUMBERLAND, PA 17070","560 OLD YORK ROAD","NEW CUMBERLAND","PA","17070","US","6916","7179320226","Healthhub_Ind","40.1771","-76.8319","cvs.com","MON: 08:00-21:00, TUE: 08:00-21:00, WED: 08:00-21:00, THU: 08:00-21:00, FRI: 08:00-21:00, SAT: 09:00-21:00, SUN: 10:00-19:00","<MISSING>","store_number"
"https://www.cvs.com/store-locator/harrisburg-pa-pharmacies/store-details/storeid=8979","CVS Pharmacy at 550 NORTH PROGRESS AVE. HARRISBURG, PA 17109","550 NORTH PROGRESS AVE.","HARRISBURG","PA","17109","US","8979","7176571149","Healthhub_Ind","40.2985","-76.8467","cvs.com","MON: 08:00-20:00, TUE: 08:00-20:00, WED: 08:00-20:00, THU: 08:00-20:00, FRI: 08:00-20:00, SAT: 09:00-18:00, SUN: 09:00-17:00","<MISSING>","store_number"
"https://www.cvs.com/store-locator/mechanicsburg-pa-pharmacies/store-details/storeid=1639","CVS Pharmacy at 105 S. SPORTING HILL RD. MECHANICSBURG, PA 17050","105 S. SPORTING HILL RD.","MECHANICSBURG","PA","17050","US","1639","7177634860","Healthhub_Ind","40.2368","-76.9713","cvs.com","MON: 07:00-23:00, TUE: 07:00-23:00, WED: 07:00-23:00, THU: 07:00-23:00, FRI: 07:00-23:00, SAT: 07:00-23:00, SUN: 07:00-23:00","<MISSING>","store_number"
"https://www.cvs.com/store-locator/york-pa-pharmacies/store-details/storeid=1657","CVS Pharmacy at 2080 S. QUEEN ST. YORK, PA 17403","2080 S. QUEEN ST.","YORK","PA","17403","US","1657","7178451633","Healthhub_Ind","39.936","-76.6933","cvs.com","MON: 08:00-22:00, TUE: 08:00-22:00, WED: 08:00-22:00, THU: 08:00-22:00, FRI: 08:00-23:00, SAT: 08:00-23:00, SUN: 08:00-22:00","<MISSING>","store_number"
"https://www.cvs.com/store-locator/westminster-md-pharmacies/store-details/storeid=1330","CVS Pharmacy at 275 BALTIMORE BLVD WESTMINSTER, MD 21157","275 BALTIMORE BLVD","WESTMINSTER","MD","21157","US","1330","4108579000","Healthhub_Ind","39.5751","-76.9852","cvs.com","MON: 08:00-22:00, TUE: 08:00-22:00, WED: 08:00-22:00, THU: 08:00-22:00, FRI: 08:00-22:00, SAT: 08:00-22:00, SUN: 08:00-22:00","<MISSING>","store_number"
"https://www.cvs.com/store-locator/eldersburg-md-pharmacies/store-details/storeid=5707","CVS Pharmacy at 6040 SYKESVILLE RD ELDERSBURG, MD 21784","6040 SYKESVILLE RD","ELDERSBURG","MD","21784","US","5707","4107814720","Healthhub_Ind","39.4093","-76.9508","cvs.com","MON: 08:00-22:00, TUE: 08:00-22:00, WED: 08:00-22:00, THU: 08:00-22:00, FRI: 08:00-22:00, SAT: 08:00-22:00, SUN: 08:00-22:00","<MISSING>","store_number"
"https://www.cvs.com/store-locator/towson-md-pharmacies/store-details/storeid=2216","CVS Pharmacy at 1001 YORK RD. TOWSON, MD 21204","1001 YORK RD.","TOWSON","MD","21204","US","2216","4108233900","Healthhub_Ind","39.4104","-76.6086","cvs.com","MON: Open 24 Hours-Open 24 Hours, TUE: Open 24 Hours-Open 24 Hours, WED: Open 24 Hours-Open 24 Hours, THU: Open 24 Hours-Open 24 Hours, FRI: Open 24 Hours-Open 24 Hours, SAT: Open 24 Hours-Open 24 Hours, SUN: Open 24 Hours-Open 24 Hours","<MISSING>","store_number"
"https://www.cvs.com/store-locator/thorndale-pa-pharmacies/store-details/storeid=7132","CVS Pharmacy at 3015 E. LINCOLN HIGHWAY THORNDALE, PA 19372","3015 E. LINCOLN HIGHWAY","THORNDALE","PA","19372","US","7132","6103807180","Healthhub_Ind","39.9937","-75.764","cvs.com","MON: 08:00-22:00, TUE: 08:00-22:00, WED: 08:00-22:00, THU: 08:00-22:00, FRI: 08:00-22:00, SAT: 08:00-22:00, SUN: 08:00-22:00","<MISSING>","store_number"
"https://www.cvs.com/store-locator/baltimore-md-pharmacies/store-details/storeid=4438","CVS Pharmacy at 6635-37 BELAIR RD BALTIMORE, MD 21206","6635-37 BELAIR RD","BALTIMORE","MD","21206","US","4438","4102549755","Healthhub_Ind","39.3546","-76.5303","cvs.com","MON: 08:00-21:00, TUE: 08:00-21:00, WED: 08:00-21:00, THU: 08:00-21:00, FRI: 08:00-21:00, SAT: 08:00-21:00, SUN: 08:00-21:00","<MISSING>","store_number"
"https://www.cvs.com/store-locator/frederick-md-pharmacies/store-details/storeid=2335","CVS Pharmacy at 8032 C LIBERTY ROAD FREDERICK, MD 21701","8032 C LIBERTY ROAD","FREDERICK","MD","21701","US","2335","3018460090","Healthhub_Ind","39.4493","-77.3865","cvs.com","MON: 08:00-22:00, TUE: 08:00-22:00, WED: 08:00-22:00, THU: 08:00-22:00, FRI: 08:00-22:00, SAT: 08:00-21:00, SUN: 08:00-21:00","<MISSING>","store_number"
"https://www.cvs.com/store-locator/new-market-md-pharmacies/store-details/storeid=2956","CVS Pharmacy at 5414 ROTARY AVE. NEW MARKET, MD 21774","5414 ROTARY AVE.","NEW MARKET","MD","21774","US","2956","3018650019","Healthhub_Ind","39.3826","-77.256","cvs.com","MON: 08:00-22:00, TUE: 08:00-22:00, WED: 08:00-22:00, THU: 08:00-22:00, FRI: 08:00-22:00, SAT: 08:00-22:00, SUN: 08:00-22:00","<MISSING>","store_number"
"https://www.cvs.com/store-locator/hagerstown-md-pharmacies/store-details/storeid=1435","CVS Pharmacy at 1503 POTOMAC AVE. HAGERSTOWN, MD 21742","1503 POTOMAC AVE.","HAGERSTOWN","MD","21742","US","1435","3017338515","Healthhub_Ind","39.662","-77.7005","cvs.com","MON: 08:00-22:00, TUE: 08:00-22:00, WED: 08:00-22:00, THU: 08:00-22:00, FRI: 08:00-22:00, SAT: 08:00-22:00, SUN: 09:00-20:00","<MISSING>","store_number"
"https://www.cvs.com/store-locator/exton-pa-pharmacies/store-details/storeid=2687","CVS Pharmacy at 105 E. UWCHLAN AVE. EXTON, PA 19341","105 E. UWCHLAN AVE.","EXTON","PA","19341","US","2687","6105941931","Healthhub_Ind","40.061","-75.654","cvs.com","MON: 08:00-22:00, TUE: 08:00-22:00, WED: 08:00-22:00, THU: 08:00-22:00, FRI: 08:00-22:00, SAT: 08:00-22:00, SUN: 08:00-22:00","<MISSING>","store_number"
"https://www.cvs.com/store-locator/ellicott-city-md-pharmacies/store-details/storeid=2043","CVS Pharmacy at 3300A CENTENNIAL LANE ELLICOTT CITY, MD 21042","3300A CENTENNIAL LANE","ELLICOTT CITY","MD","21042","US","2043","4107509439","Healthhub_Ind","39.2788","-76.8615","cvs.com","MON: Open 24 Hours-Open 24 Hours, TUE: Open 24 Hours-Open 24 Hours, WED: Open 24 Hours-Open 24 Hours, THU: Open 24 Hours-Open 24 Hours, FRI: Open 24 Hours-Open 24 Hours, SAT: Open 24 Hours-Open 24 Hours, SUN: Open 24 Hours-Open 24 Hours","<MISSING>","store_number"
"https://www.cvs.com/store-locator/baltimore-md-pharmacies/store-details/storeid=7952","CVS Pharmacy at 630 EXETER ST. BALTIMORE, MD 21202","630 EXETER ST.","BALTIMORE","MD","21202","US","7952","4109626520","Healthhub_Ind","39.284","-76.6006","cvs.com","MON: 07:00-00:00, TUE: 07:00-00:00, WED: 07:00-00:00, THU: 07:00-00:00, FRI: 07:00-00:00, SAT: 07:00-00:00, SUN: 07:00-00:00","<MISSING>","store_number"
"https://www.cvs.com/store-locator/kennett-square-pa-pharmacies/store-details/storeid=1074","CVS Pharmacy at 870 E. BALTIMORE PIKE KENNETT SQUARE, PA 19348","870 E. BALTIMORE PIKE","KENNETT SQUARE","PA","19348","US","1074","6104449081","Healthhub_Ind","39.8621","-75.6802","cvs.com","MON: 07:00-00:00, TUE: 07:00-00:00, WED: 07:00-00:00, THU: 07:00-00:00, FRI: 07:00-00:00, SAT: 07:00-00:00, SUN: 07:00-00:00","<MISSING>","store_number"
"https://www.cvs.com/store-locator/frederick-md-pharmacies/store-details/storeid=4650","CVS Pharmacy at 300 BALLENGER CENTER DR. FREDERICK, MD 21703","300 BALLENGER CENTER DR.","FREDERICK","MD","21703","US","4650","3016827213","Healthhub_Ind","39.3954","-77.437","cvs.com","MON: 08:00-23:00, TUE: 08:00-23:00, WED: 08:00-23:00, THU: 08:00-23:00, FRI: 08:00-23:00, SAT: 08:00-23:00, SUN: 08:00-21:00","<MISSING>","store_number"
"https://www.cvs.com/store-locator/west-chester-pa-pharmacies/store-details/storeid=1159","CVS Pharmacy at 760 MILES RD. WEST CHESTER, PA 19380","760 MILES RD.","WEST CHESTER","PA","19380","US","1159","6104293477","Healthhub_Ind","39.9639","-75.6284","cvs.com","MON: 08:00-22:00, TUE: 08:00-22:00, WED: 08:00-22:00, THU: 08:00-22:00, FRI: 08:00-22:00, SAT: 08:00-22:00, SUN: 08:00-22:00","<MISSING>","store_number"
"https://www.cvs.com/store-locator/frederick-md-pharmacies/store-details/storeid=10203","CVS Pharmacy at 3350 WORTHINGTON BLVD. FREDERICK, MD 21704","3350 WORTHINGTON BLVD.","FREDERICK","MD","21704","US","10203","2406990018","Healthhub_Ind","39.3264","-77.3448","cvs.com","MON: 07:00-23:00, TUE: 07:00-23:00, WED: 07:00-23:00, THU: 07:00-23:00, FRI: 07:00-23:00, SAT: 08:00-23:00, SUN: 08:00-22:00","<MISSING>","store_number"
"https://www.cvs.com/store-locator/elkridge-md-pharmacies/store-details/storeid=1909","CVS Pharmacy at 6480 OLD WATERLOO RD ELKRIDGE, MD 21075","6480 OLD WATERLOO RD","ELKRIDGE","MD","21075","US","1909","4107990291","Healthhub_Ind","39.1925","-76.7942","cvs.com","MON: 07:00-23:00, TUE: 07:00-23:00, WED: 07:00-23:00, THU: 07:00-23:00, FRI: 07:00-23:00, SAT: 07:00-00:00, SUN: 07:00-23:00","<MISSING>","store_number"
"https://www.cvs.com/store-locator/glen-burnie-md-pharmacies/store-details/storeid=5706","CVS Pharmacy at 7095 BALTIMORE ANNAPOLIS RD. GLEN BURNIE, MD 21061","7095 BALTIMORE ANNAPOLIS RD.","GLEN BURNIE","MD","21061","US","5706","4108593113","Healthhub_Ind","39.1985","-76.6411","cvs.com","MON: 08:00-23:00, TUE: 08:00-23:00, WED: 08:00-23:00, THU: 08:00-23:00, FRI: 08:00-23:00, SAT: 08:00-23:00, SUN: 08:00-22:00","<MISSING>","store_number"
"https://www.cvs.com/store-locator/macungie-pa-pharmacies/store-details/storeid=2296","CVS Pharmacy at 3295 PA ROUTE 100, THE SHOPPES AT MACUNGIE MACUNGIE, PA 18062","3295 PA ROUTE 100, THE SHOPPES AT MACUNGIE","MACUNGIE","PA","18062","US","2296","6109675684","Healthhub_Ind","40.5194","-75.566","cvs.com","MON: 08:00-23:00, TUE: 08:00-23:00, WED: 08:00-23:00, THU: 08:00-23:00, FRI: 08:00-23:00, SAT: 08:00-23:00, SUN: 09:00-19:00","<MISSING>","store_number"
"https://www.cvs.com/store-locator/zieglersville-pa-pharmacies/store-details/storeid=7259","CVS Pharmacy at 1206 N. GRAVEL PIKE ZIEGLERSVILLE, PA 19492","1206 N. GRAVEL PIKE","ZIEGLERSVILLE","PA","19492","US","7259","6102871032","Healthhub_Ind","40.2762","-75.48","cvs.com","MON: 08:00-22:00, TUE: 08:00-22:00, WED: 08:00-22:00, THU: 08:00-22:00, FRI: 08:00-22:00, SAT: 08:00-22:00, SUN: 08:00-22:00","<MISSING>","store_number"
"https://www.cvs.com/store-locator/fulton-md-pharmacies/store-details/storeid=7139","CVS Pharmacy at 8197 WESTSIDE BLVD. FULTON, MD 20759","8197 WESTSIDE BLVD.","FULTON","MD","20759","US","7139","3013625090","Healthhub_Ind","39.1483","-76.9089","cvs.com","MON: 08:00-23:00, TUE: 08:00-23:00, WED: 08:00-23:00, THU: 08:00-23:00, FRI: 08:00-23:00, SAT: 08:00-23:00, SUN: 08:00-22:00","<MISSING>","store_number"
"https://www.cvs.com/store-locator/agoura-hills-ca-pharmacies/store-details/storeid=9751","CVS Pharmacy at 5623 KANAN RD. AGOURA HILLS, CA 91301","5623 KANAN RD.","AGOURA HILLS","CA","91301","US","9751","8189915522","Healthhub_Ind","34.1524","-118.7589","cvs.com","MON: 07:00-00:00, TUE: 07:00-00:00, WED: 07:00-00:00, THU: 07:00-00:00, FRI: 07:00-00:00, SAT: 07:00-00:00, SUN: 07:00-00:00","<MISSING>","store_number"
"https://www.cvs.com/store-locator/thousand-oaks-ca-pharmacies/store-details/storeid=9715","CVS Pharmacy at 2791 AGOURA RD. THOUSAND OAKS, CA 91361","2791 AGOURA RD.","THOUSAND OAKS","CA","91361","US","9715","8054954938","Healthhub_Ind","34.1516","-118.825","cvs.com","MON: 06:00-23:00, TUE: 06:00-23:00, WED: 06:00-23:00, THU: 06:00-23:00, FRI: 06:00-23:00, SAT: 06:00-23:00, SUN: 06:00-23:00","<MISSING>","store_number"
"https://www.cvs.com/store-locator/woodland-hills-ca-pharmacies/store-details/storeid=9613","CVS Pharmacy at 23357 MULHOLLAND DRIVE WOODLAND HILLS, CA 91364","23357 MULHOLLAND DRIVE","WOODLAND HILLS","CA","91364","US","9613","8182238240","Healthhub_Ind","34.1581","-118.6346","cvs.com","MON: Open 24 Hours-Open 24 Hours, TUE: Open 24 Hours-Open 24 Hours, WED: Open 24 Hours-Open 24 Hours, THU: Open 24 Hours-Open 24 Hours, FRI: Open 24 Hours-Open 24 Hours, SAT: Open 24 Hours-Open 24 Hours, SUN: Open 24 Hours-Open 24 Hours","<MISSING>","store_number"
"https://www.cvs.com/store-locator/simi-valley-ca-pharmacies/store-details/storeid=9631","CVS Pharmacy at 2825 COCHRAN ST. SIMI VALLEY, CA 93065","2825 COCHRAN ST.","SIMI VALLEY","CA","93065","US","9631","8055226904","Healthhub_Ind","34.2809","-118.7411","cvs.com","MON: 08:00-23:00, TUE: 08:00-23:00, WED: 08:00-23:00, THU: 08:00-23:00, FRI: 08:00-23:00, SAT: 08:00-23:00, SUN: 08:00-23:00","<MISSING>","store_number"
"https://www.cvs.com/store-locator/reseda-ca-pharmacies/store-details/storeid=9615","CVS Pharmacy at 19353 VICTORY BLVD. RESEDA, CA 91335","19353 VICTORY BLVD.","RESEDA","CA","91335","US","9615","8189964742","Healthhub_Ind","34.1882","-118.5554","cvs.com","MON: 07:00-00:00, TUE: 07:00-00:00, WED: 07:00-00:00, THU: 07:00-00:00, FRI: 07:00-00:00, SAT: 07:00-00:00, SUN: 07:00-00:00","<MISSING>","store_number"
"https://www.cvs.com/store-locator/los-angeles-ca-pharmacies/store-details/storeid=9576","CVS Pharmacy at 10889 WELLWORTH AVENUE LOS ANGELES, CA 90024","10889 WELLWORTH AVENUE","LOS ANGELES","CA","90024","US","9576","3104742152","Healthhub_Ind","34.0573","-118.4425","cvs.com","MON: 07:00-23:00, TUE: 07:00-23:00, WED: 07:00-23:00, THU: 07:00-23:00, FRI: 07:00-23:00, SAT: 07:00-23:00, SUN: 07:00-23:00","<MISSING>","store_number"
"https://www.cvs.com/store-locator/marina-del-rey-ca-pharmacies/store-details/storeid=8871","CVS Pharmacy at 13171 MINDANAO WAY, MINDANAO AND THE 90 FREEWAY MARINA DEL REY, CA 90292","13171 MINDANAO WAY, MINDANAO AND THE 90 FREEWAY","MARINA DEL REY","CA","90292","US","8871","3108218908","Healthhub_Ind","33.9844","-118.4388","cvs.com","MON: Open 24 Hours-Open 24 Hours, TUE: Open 24 Hours-Open 24 Hours, WED: Open 24 Hours-Open 24 Hours, THU: Open 24 Hours-Open 24 Hours, FRI: Open 24 Hours-Open 24 Hours, SAT: Open 24 Hours-Open 24 Hours, SUN: Open 24 Hours-Open 24 Hours","<MISSING>","store_number"
"https://www.cvs.com/store-locator/west-hollywood-ca-pharmacies/store-details/storeid=9652","CVS Pharmacy at 8491 SANTA MONICA BLVD WEST HOLLYWOOD, CA 90069","8491 SANTA MONICA BLVD","WEST HOLLYWOOD","CA","90069","US","9652","3103607303","Healthhub_Ind","34.0902","-118.376","cvs.com","MON: 07:00-00:00, TUE: 07:00-00:00, WED: 07:00-00:00, THU: 07:00-00:00, FRI: 07:00-00:00, SAT: 07:00-00:00, SUN: 07:00-00:00","<MISSING>","store_number"
"https://www.cvs.com/store-locator/santa-clarita-ca-pharmacies/store-details/storeid=9858","CVS Pharmacy at 25880 MCBEAN PKWY. SANTA CLARITA, CA 91355","25880 MCBEAN PKWY.","SANTA CLARITA","CA","91355","US","9858","6612543766","Healthhub_Ind","34.4039","-118.5505","cvs.com","MON: 07:00-23:00, TUE: 07:00-23:00, WED: 07:00-23:00, THU: 07:00-23:00, FRI: 07:00-23:00, SAT: 07:00-23:00, SUN: 07:00-23:00","<MISSING>","store_number"
"https://www.cvs.com/store-locator/burbank-ca-pharmacies/store-details/storeid=9795","CVS Pharmacy at 511 N. HOLLYWOOD WAY BURBANK, CA 91505","511 N. HOLLYWOOD WAY","BURBANK","CA","91505","US","9795","8188410710","Healthhub_Ind","34.1598","-118.3435","cvs.com","MON: Open 24 Hours-Open 24 Hours, TUE: Open 24 Hours-Open 24 Hours, WED: Open 24 Hours-Open 24 Hours, THU: Open 24 Hours-Open 24 Hours, FRI: Open 24 Hours-Open 24 Hours, SAT: Open 24 Hours-Open 24 Hours, SUN: Open 24 Hours-Open 24 Hours","<MISSING>","store_number"
"https://www.cvs.com/store-locator/los-angeles-ca-pharmacies/store-details/storeid=10614","CVS Pharmacy at 812 S GRAND AVE LOS ANGELES, CA 90017","812 S GRAND AVE","LOS ANGELES","CA","90017","US","10614","2136277925","Healthhub_Ind","34.0459","-118.2576","cvs.com","MON: 07:00-22:00, TUE: 07:00-22:00, WED: 07:00-22:00, THU: 07:00-22:00, FRI: 07:00-22:00, SAT: 07:00-22:00, SUN: 07:00-22:00","<MISSING>","store_number"
"https://www.cvs.com/store-locator/montrose-ca-pharmacies/store-details/storeid=9647","CVS Pharmacy at 2037 VERDUGO BLVD. MONTROSE, CA 91020","2037 VERDUGO BLVD.","MONTROSE","CA","91020","US","9647","8182488018","Healthhub_Ind","34.2057","-118.2211","cvs.com","MON: Open 24 Hours-Open 24 Hours, TUE: Open 24 Hours-Open 24 Hours, WED: Open 24 Hours-Open 24 Hours, THU: Open 24 Hours-Open 24 Hours, FRI: Open 24 Hours-Open 24 Hours, SAT: Open 24 Hours-Open 24 Hours, SUN: Open 24 Hours-Open 24 Hours","<MISSING>","store_number"
"https://www.cvs.com/store-locator/torrance-ca-pharmacies/store-details/storeid=8852","CVS Pharmacy at 4235 PACIFIC COAST HIGHWAY TORRANCE, CA 90505","4235 PACIFIC COAST HIGHWAY","TORRANCE","CA","90505","US","8852","3103736847","Healthhub_Ind","33.8089","-118.3583","cvs.com","MON: 07:00-23:00, TUE: 07:00-23:00, WED: 07:00-23:00, THU: 07:00-23:00, FRI: 07:00-23:00, SAT: 07:00-23:00, SUN: 07:00-23:00","<MISSING>","store_number"
"https://www.cvs.com/store-locator/long-beach-ca-pharmacies/store-details/storeid=8876","CVS Pharmacy at 233 EAST WILLOW STREET LONG BEACH, CA 90806","233 EAST WILLOW STREET","LONG BEACH","CA","90806","US","8876","5629899868","Healthhub_Ind","33.8047","-118.191","cvs.com","MON: Open 24 Hours-Open 24 Hours, TUE: Open 24 Hours-Open 24 Hours, WED: Open 24 Hours-Open 24 Hours, THU: Open 24 Hours-Open 24 Hours, FRI: Open 24 Hours-Open 24 Hours, SAT: Open 24 Hours-Open 24 Hours, SUN: Open 24 Hours-Open 24 Hours","<MISSING>","store_number"
"https://www.cvs.com/store-locator/arcadia-ca-pharmacies/store-details/storeid=9721","CVS Pharmacy at 1401 S.  BALDWIN AVE. ARCADIA, CA 91007","1401 S.  BALDWIN AVE.","ARCADIA","CA","91007","US","9721","6264451284","Healthhub_Ind","34.1235","-118.0565","cvs.com","MON: Open 24 Hours-Open 24 Hours, TUE: Open 24 Hours-Open 24 Hours, WED: Open 24 Hours-Open 24 Hours, THU: Open 24 Hours-Open 24 Hours, FRI: Open 24 Hours-Open 24 Hours, SAT: Open 24 Hours-Open 24 Hours, SUN: Open 24 Hours-Open 24 Hours","<MISSING>","store_number"
"https://www.cvs.com/store-locator/cerritos-ca-pharmacies/store-details/storeid=9489","CVS Pharmacy at 13303 EAST SOUTH STREET CERRITOS, CA 90703","13303 EAST SOUTH STREET","CERRITOS","CA","90703","US","9489","5628650612","Healthhub_Ind","33.86","-118.0485","cvs.com","MON: 08:00-23:00, TUE: 08:00-23:00, WED: 08:00-23:00, THU: 08:00-23:00, FRI: 08:00-23:00, SAT: 08:00-23:00, SUN: 08:00-23:00","<MISSING>","store_number"
"https://www.cvs.com/store-locator/seal-beach-ca-pharmacies/store-details/storeid=8843","CVS Pharmacy at 921 PACIFIC COAST HWY. SEAL BEACH, CA 90740","921 PACIFIC COAST HWY.","SEAL BEACH","CA","90740","US","8843","5625980473","Healthhub_Ind","33.7447","-118.1015","cvs.com","MON: 07:00-00:00, TUE: 07:00-00:00, WED: 07:00-00:00, THU: 07:00-00:00, FRI: 07:00-00:00, SAT: 07:00-00:00, SUN: 07:00-00:00","<MISSING>","store_number"
"https://www.cvs.com/store-locator/buena-park-ca-pharmacies/store-details/storeid=8861","CVS Pharmacy at 8850 VALLEY VIEW STREET BUENA PARK, CA 90620","8850 VALLEY VIEW STREET","BUENA PARK","CA","90620","US","8861","7148277321","Healthhub_Ind","33.834","-118.0277","cvs.com","MON: 08:00-22:00, TUE: 08:00-22:00, WED: 08:00-22:00, THU: 08:00-22:00, FRI: 08:00-22:00, SAT: 08:00-22:00, SUN: 08:00-22:00","<MISSING>","store_number"
"https://www.cvs.com/store-locator/huntington-beach-ca-pharmacies/store-details/storeid=8850","CVS Pharmacy at 19121 BEACH BOULEVARD HUNTINGTON BEACH, CA 92648","19121 BEACH BOULEVARD","HUNTINGTON BEACH","CA","92648","US","8850","7148481522","Healthhub_Ind","33.6851","-117.9894","cvs.com","MON: Open 24 Hours-Open 24 Hours, TUE: Open 24 Hours-Open 24 Hours, WED: Open 24 Hours-Open 24 Hours, THU: Open 24 Hours-Open 24 Hours, FRI: Open 24 Hours-Open 24 Hours, SAT: Open 24 Hours-Open 24 Hours, SUN: Open 24 Hours-Open 24 Hours","<MISSING>","store_number"
"https://www.cvs.com/store-locator/yorba-linda-ca-pharmacies/store-details/storeid=9492","CVS Pharmacy at 18080 IMPERIAL HWY. YORBA LINDA, CA 92886","18080 IMPERIAL HWY.","YORBA LINDA","CA","92886","US","9492","7149611054","Healthhub_Ind","33.8927","-117.8197","cvs.com","MON: 07:00-22:00, TUE: 07:00-22:00, WED: 07:00-22:00, THU: 07:00-22:00, FRI: 07:00-22:00, SAT: 07:00-22:00, SUN: 07:00-22:00","<MISSING>","store_number"
"https://www.cvs.com/store-locator/costa-mesa-ca-pharmacies/store-details/storeid=9484","CVS Pharmacy at 1150 BAKER ST. COSTA MESA, CA 92626","1150 BAKER ST.","COSTA MESA","CA","92626","US","9484","7146627517","Healthhub_Ind","33.6805","-117.9056","cvs.com","MON: 07:00-23:00, TUE: 07:00-23:00, WED: 07:00-23:00, THU: 07:00-23:00, FRI: 07:00-23:00, SAT: 07:00-23:00, SUN: 07:00-23:00","<MISSING>","store_number"
"https://www.cvs.com/store-locator/irvine-ca-pharmacies/store-details/storeid=9497","CVS Pharmacy at 14330 CULVER DRIVE IRVINE, CA 92604","14330 CULVER DRIVE","IRVINE","CA","92604","US","9497","9495598129","Healthhub_Ind","33.7056","-117.7844","cvs.com","MON: 08:00-22:00, TUE: 08:00-22:00, WED: 08:00-22:00, THU: 08:00-22:00, FRI: 08:00-23:00, SAT: 08:00-23:00, SUN: 08:00-22:00","<MISSING>","store_number"
"https://www.cvs.com/store-locator/eastvale-ca-pharmacies/store-details/storeid=5958","CVS Pharmacy at 14220 SCHLEISMAN RD EASTVALE, CA 92880","14220 SCHLEISMAN RD","EASTVALE","CA","92880","US","5958","9513400875","Healthhub_Ind","33.9601","-117.5938","cvs.com","MON: 07:00-23:00, TUE: 07:00-23:00, WED: 07:00-23:00, THU: 07:00-23:00, FRI: 07:00-23:00, SAT: 07:00-23:00, SUN: 07:00-23:00","<MISSING>","store_number"
"https://www.cvs.com/store-locator/rancho-cucamonga-ca-pharmacies/store-details/storeid=9723","CVS Pharmacy at 11428 KENYON WAY RANCHO CUCAMONGA, CA 91701","11428 KENYON WAY","RANCHO CUCAMONGA","CA","91701","US","9723","9099481065","Healthhub_Ind","34.1356","-117.5557","cvs.com","MON: Open 24 Hours-Open 24 Hours, TUE: Open 24 Hours-Open 24 Hours, WED: Open 24 Hours-Open 24 Hours, THU: Open 24 Hours-Open 24 Hours, FRI: Open 24 Hours-Open 24 Hours, SAT: Open 24 Hours-Open 24 Hours, SUN: Open 24 Hours-Open 24 Hours","<MISSING>","store_number"
"https://www.cvs.com/store-locator/aliso-viejo-ca-pharmacies/store-details/storeid=8872","CVS Pharmacy at 26891 ALISO CREEK RD ALISO VIEJO, CA 92656","26891 ALISO CREEK RD","ALISO VIEJO","CA","92656","US","8872","9493604081","Healthhub_Ind","33.5722","-117.7255","cvs.com","MON: Open 24 Hours-Open 24 Hours, TUE: Open 24 Hours-Open 24 Hours, WED: Open 24 Hours-Open 24 Hours, THU: Open 24 Hours-Open 24 Hours, FRI: Open 24 Hours-Open 24 Hours, SAT: Open 24 Hours-Open 24 Hours, SUN: Open 24 Hours-Open 24 Hours","<MISSING>","store_number"
"https://www.cvs.com/store-locator/edgewater-md-pharmacies/store-details/storeid=2033","CVS Pharmacy at 3025 SOLOMONS ISLAND RD. EDGEWATER, MD 21037","3025 SOLOMONS ISLAND RD.","EDGEWATER","MD","21037","US","2033","4107988715","Healthhub_Ind","38.9434","-76.5603","cvs.com","MON: 07:00-22:00, TUE: 07:00-22:00, WED: 07:00-22:00, THU: 07:00-22:00, FRI: 07:00-22:00, SAT: 07:00-22:00, SUN: 08:00-22:00","<MISSING>","store_number"
"https://www.cvs.com/store-locator/annapolis-md-pharmacies/store-details/storeid=2775","CVS Pharmacy at 2601 RIVA RD. ANNAPOLIS, MD 21401","2601 RIVA RD.","ANNAPOLIS","MD","21401","US","2775","4105712090","Healthhub_Ind","38.9756","-76.5561","cvs.com","MON: Open 24 Hours-Open 24 Hours, TUE: Open 24 Hours-Open 24 Hours, WED: Open 24 Hours-Open 24 Hours, THU: Open 24 Hours-Open 24 Hours, FRI: Open 24 Hours-Open 24 Hours, SAT: Open 24 Hours-Open 24 Hours, SUN: Open 24 Hours-Open 24 Hours","<MISSING>","store_number"
"https://www.cvs.com/store-locator/dunkirk-md-pharmacies/store-details/storeid=1881","CVS Pharmacy at 10095 WARD RD, DUNKIRK MARKETPLACE DUNKIRK, MD 20754","10095 WARD RD, DUNKIRK MARKETPLACE","DUNKIRK","MD","20754","US","1881","4102570191","Healthhub_Ind","38.7184","-76.6594","cvs.com","MON: 08:00-22:00, TUE: 08:00-22:00, WED: 08:00-22:00, THU: 08:00-22:00, FRI: 08:00-22:00, SAT: 08:00-22:00, SUN: 08:00-22:00","<MISSING>","store_number"
"https://www.cvs.com/store-locator/upper-marlboro-md-pharmacies/store-details/storeid=1470","CVS Pharmacy at 7600 SE CRAIN HIGHWAY UPPER MARLBORO, MD 20772","7600 SE CRAIN HIGHWAY","UPPER MARLBORO","MD","20772","US","1470","3016276603","Healthhub_Ind","38.7846","-76.7928","cvs.com","MON: 08:00-23:00, TUE: 08:00-23:00, WED: 08:00-23:00, THU: 08:00-23:00, FRI: 08:00-23:00, SAT: 08:00-23:00, SUN: 08:00-23:00","<MISSING>","store_number"
"https://www.cvs.com/store-locator/crofton-md-pharmacies/store-details/storeid=6765","CVS Pharmacy at 2003 DAVIDSONVILLE RD. CROFTON, MD 21114","2003 DAVIDSONVILLE RD.","CROFTON","MD","21114","US","6765","4107213762","Healthhub_Ind","39.0185","-76.6935","cvs.com","MON: Open 24 Hours-Open 24 Hours, TUE: Open 24 Hours-Open 24 Hours, WED: Open 24 Hours-Open 24 Hours, THU: Open 24 Hours-Open 24 Hours, FRI: Open 24 Hours-Open 24 Hours, SAT: Open 24 Hours-Open 24 Hours, SUN: Open 24 Hours-Open 24 Hours","<MISSING>","store_number"
"https://www.cvs.com/store-locator/new-carrollton-md-pharmacies/store-details/storeid=1448","CVS Pharmacy at 8201 ANNAPOLIS RD. NEW CARROLLTON, MD 20784","8201 ANNAPOLIS RD.","NEW CARROLLTON","MD","20784","US","1448","3015776222","Healthhub_Ind","38.9551","-76.8725","cvs.com","MON: 08:00-22:00, TUE: 08:00-22:00, WED: 08:00-22:00, THU: 08:00-22:00, FRI: 08:00-23:00, SAT: 08:00-23:00, SUN: 08:00-22:00","<MISSING>","store_number"
"https://www.cvs.com/store-locator/chester-md-pharmacies/store-details/storeid=244","CVS Pharmacy at 115 S. PINEY RD. CHESTER, MD 21619","115 S. PINEY RD.","CHESTER","MD","21619","US","244","4106433007","Healthhub_Ind","38.9737","-76.2699","cvs.com","MON: 08:00-22:00, TUE: 08:00-22:00, WED: 08:00-22:00, THU: 08:00-22:00, FRI: 08:00-22:00, SAT: 08:00-22:00, SUN: 09:00-18:00","<MISSING>","store_number"
"https://www.cvs.com/store-locator/pasadena-md-pharmacies/store-details/storeid=4017","CVS Pharmacy at 28 MAGOTHY BEACH RD. PASADENA, MD 21122","28 MAGOTHY BEACH RD.","PASADENA","MD","21122","US","4017","4104376450","Healthhub_Ind","39.1197","-76.518","cvs.com","MON: Open 24 Hours-Open 24 Hours, TUE: Open 24 Hours-Open 24 Hours, WED: Open 24 Hours-Open 24 Hours, THU: Open 24 Hours-Open 24 Hours, FRI: Open 24 Hours-Open 24 Hours, SAT: Open 24 Hours-Open 24 Hours, SUN: Open 24 Hours-Open 24 Hours","<MISSING>","store_number"
"https://www.cvs.com/store-locator/millersville-md-pharmacies/store-details/storeid=5733","CVS Pharmacy at 8124 VETERANS HWY MILLERSVILLE, MD 21108","8124 VETERANS HWY","MILLERSVILLE","MD","21108","US","5733","4109875244","Healthhub_Ind","39.1172","-76.635","cvs.com","MON: 07:00-23:00, TUE: 07:00-23:00, WED: 07:00-23:00, THU: 07:00-23:00, FRI: 07:00-23:00, SAT: 07:00-23:00, SUN: 07:00-22:00","<MISSING>","store_number"
"https://www.cvs.com/store-locator/washington-dc-pharmacies/store-details/storeid=1340","CVS Pharmacy at 845 BLADENSBURG RD., N.E. WASHINGTON, DC 20002","845 BLADENSBURG RD., N.E.","WASHINGTON","DC","20002","US","1340","2023972600","Healthhub_Ind","38.9013","-76.9821","cvs.com","MON: 08:00-23:00, TUE: 08:00-23:00, WED: 08:00-23:00, THU: 08:00-23:00, FRI: 08:00-23:00, SAT: 08:00-23:00, SUN: 08:00-23:00","<MISSING>","store_number"
"https://www.cvs.com/store-locator/hyattsville-md-pharmacies/store-details/storeid=1434","CVS Pharmacy at 7939 NEW HAMPSHIRE AVENUE, LANGLEY PARK PLAZA SHOPPING CENTER HYATTSVILLE, MD 20783","7939 NEW HAMPSHIRE AVENUE, LANGLEY PARK PLAZA SHOPPING CENTER","HYATTSVILLE","MD","20783","US","1434","3014343121","Healthhub_Ind","38.9895","-76.9859","cvs.com","MON: Open 24 Hours-Open 24 Hours, TUE: Open 24 Hours-Open 24 Hours, WED: Open 24 Hours-Open 24 Hours, THU: Open 24 Hours-Open 24 Hours, FRI: Open 24 Hours-Open 24 Hours, SAT: Open 24 Hours-Open 24 Hours, SUN: Open 24 Hours-Open 24 Hours","<MISSING>","store_number"
"https://www.cvs.com/store-locator/washington-dc-pharmacies/store-details/storeid=10685","CVS Pharmacy at 675 K STREET NW WASHINGTON, DC 20001","675 K STREET NW","WASHINGTON","DC","20001","US","10685","2026820170","Healthhub_Ind","38.9028","-77.0213","cvs.com","MON: 07:00-22:00, TUE: 07:00-22:00, WED: 07:00-22:00, THU: 07:00-22:00, FRI: 07:00-22:00, SAT: 07:00-20:00, SUN: 07:00-20:00","<MISSING>","store_number"
"https://www.cvs.com/store-locator/washington-dc-pharmacies/store-details/storeid=1842","CVS Pharmacy at 1275 PENNSYLVANIA AVENUE NW, CORNER OF 13TH WASHINGTON, DC 20004","1275 PENNSYLVANIA AVENUE NW, CORNER OF 13TH","WASHINGTON","DC","20004","US","1842","2026384583","Healthhub_Ind","38.8957","-77.0292","cvs.com","MON: 07:00-22:00, TUE: 07:00-22:00, WED: 07:00-22:00, THU: 07:00-22:00, FRI: 07:00-22:00, SAT: 07:00-22:00, SUN: 07:00-22:00","<MISSING>","store_number"
"https://www.cvs.com/store-locator/white-plains-md-pharmacies/store-details/storeid=1796","CVS Pharmacy at 4200 ALTAMONT PL. WHITE PLAINS, MD 20695","4200 ALTAMONT PL.","WHITE PLAINS","MD","20695","US","1796","3016452774","Healthhub_Ind","38.5965","-76.9388","cvs.com","MON: 08:00-23:00, TUE: 08:00-23:00, WED: 08:00-23:00, THU: 08:00-23:00, FRI: 08:00-23:00, SAT: 08:00-23:00, SUN: 08:00-22:00","<MISSING>","store_number"
"https://www.cvs.com/store-locator/washington-dc-pharmacies/store-details/storeid=1347","CVS Pharmacy at 6 DUPONT CIRCLE NW WASHINGTON, DC 20036","6 DUPONT CIRCLE NW","WASHINGTON","DC","20036","US","1347","2027851466","Healthhub_Ind","38.9094","-77.0444","cvs.com","MON: Open 24 Hours-Open 24 Hours, TUE: Open 24 Hours-Open 24 Hours, WED: Open 24 Hours-Open 24 Hours, THU: Open 24 Hours-Open 24 Hours, FRI: Open 24 Hours-Open 24 Hours, SAT: Open 24 Hours-Open 24 Hours, SUN: Open 24 Hours-Open 24 Hours","<MISSING>","store_number"
"https://www.cvs.com/store-locator/alexandria-va-pharmacies/store-details/storeid=1410","CVS Pharmacy at 415 E MONROE AVENUE ALEXANDRIA, VA 22301","415 E MONROE AVENUE","ALEXANDRIA","VA","22301","US","1410","7036834433","Healthhub_Ind","38.8205","-77.0548","cvs.com","MON: 07:00-00:00, TUE: 07:00-00:00, WED: 07:00-00:00, THU: 07:00-00:00, FRI: 07:00-00:00, SAT: 07:00-00:00, SUN: 07:00-00:00","<MISSING>","store_number"
"https://www.cvs.com/store-locator/washington-dc-pharmacies/store-details/storeid=7074","CVS Pharmacy at 2240 M ST NW WASHINGTON, DC 20037","2240 M ST NW","WASHINGTON","DC","20037","US","7074","2022969876","Healthhub_Ind","38.9049","-77.0495","cvs.com","MON: 07:00-23:00, TUE: 07:00-23:00, WED: 07:00-23:00, THU: 07:00-23:00, FRI: 07:00-23:00, SAT: 07:00-23:00, SUN: 07:00-23:00","<MISSING>","store_number"
"https://www.cvs.com/store-locator/arlington-va-pharmacies/store-details/storeid=2750","CVS Pharmacy at 1201 SOUTH HAYES ST., SUITE C ARLINGTON, VA 22202","1201 SOUTH HAYES ST., SUITE C","ARLINGTON","VA","22202","US","2750","7034183790","Healthhub_Ind","38.8624","-77.0588","cvs.com","MON: 07:00-23:00, TUE: 07:00-23:00, WED: 07:00-23:00, THU: 07:00-23:00, FRI: 07:00-23:00, SAT: 08:00-23:00, SUN: 08:00-23:00","<MISSING>","store_number"
"https://www.cvs.com/store-locator/alexandria-va-pharmacies/store-details/storeid=1394","CVS Pharmacy at 1636 BELLE VIEW BOULEVARD ALEXANDRIA, VA 22307","1636 BELLE VIEW BOULEVARD","ALEXANDRIA","VA","22307","US","1394","7037687044","Healthhub_Ind","38.7765","-77.0619","cvs.com","MON: 07:00-00:00, TUE: 07:00-00:00, WED: 07:00-00:00, THU: 07:00-00:00, FRI: 07:00-00:00, SAT: 07:00-00:00, SUN: 07:00-00:00","<MISSING>","store_number"
"https://www.cvs.com/store-locator/washington-dc-pharmacies/store-details/storeid=2378","CVS Pharmacy at 2226 WISCONSIN AVENUE NW WASHINGTON, DC 20007","2226 WISCONSIN AVENUE NW","WASHINGTON","DC","20007","US","2378","2029448671","Healthhub_Ind","38.9199","-77.0715","cvs.com","MON: Open 24 Hours-Open 24 Hours, TUE: Open 24 Hours-Open 24 Hours, WED: Open 24 Hours-Open 24 Hours, THU: Open 24 Hours-Open 24 Hours, FRI: Open 24 Hours-Open 24 Hours, SAT: Open 24 Hours-Open 24 Hours, SUN: Open 24 Hours-Open 24 Hours","<MISSING>","store_number"
"https://www.cvs.com/store-locator/washington-dc-pharmacies/store-details/storeid=2174","CVS Pharmacy at 4555 WISCONSIN AVENUE, NW WASHINGTON, DC 20016","4555 WISCONSIN AVENUE, NW","WASHINGTON","DC","20016","US","2174","2025371587","Healthhub_Ind","38.9494","-77.0799","cvs.com","MON: Open 24 Hours-Open 24 Hours, TUE: Open 24 Hours-Open 24 Hours, WED: Open 24 Hours-Open 24 Hours, THU: Open 24 Hours-Open 24 Hours, FRI: Open 24 Hours-Open 24 Hours, SAT: Open 24 Hours-Open 24 Hours, SUN: Open 24 Hours-Open 24 Hours","<MISSING>","store_number"
"https://www.cvs.com/store-locator/arlington-va-pharmacies/store-details/storeid=1407","CVS Pharmacy at 3133 LEE HIGHWAY, LYONS VILLAGE SHOPPING CENTER ARLINGTON, VA 22201","3133 LEE HIGHWAY, LYONS VILLAGE SHOPPING CENTER","ARLINGTON","VA","22201","US","1407","7035220260","Healthhub_Ind","38.8965","-77.0969","cvs.com","MON: Open 24 Hours-Open 24 Hours, TUE: Open 24 Hours-Open 24 Hours, WED: Open 24 Hours-Open 24 Hours, THU: Open 24 Hours-Open 24 Hours, FRI: Open 24 Hours-Open 24 Hours, SAT: Open 24 Hours-Open 24 Hours, SUN: Open 24 Hours-Open 24 Hours","<MISSING>","store_number"
"https://www.cvs.com/store-locator/ballentine-sc-pharmacies/store-details/storeid=7012","CVS Pharmacy at 1330 DUTCH FORK RD. PO BOX 568 BALLENTINE, SC 29002","1330 DUTCH FORK RD. PO BOX 568","BALLENTINE","SC","29002","US","7012","8037491666","Healthhub_Ind","34.1249","-81.2361","cvs.com","MON: 08:00-22:00, TUE: 08:00-22:00, WED: 08:00-22:00, THU: 08:00-22:00, FRI: 08:00-22:00, SAT: 08:00-22:00, SUN: 08:00-22:00","<MISSING>","store_number"
"https://www.cvs.com/store-locator/lexington-sc-pharmacies/store-details/storeid=2497","CVS Pharmacy at 2373 AUGUSTA HWY LEXINGTON, SC 29072","2373 AUGUSTA HWY","LEXINGTON","SC","29072","US","2497","8039510786","Healthhub_Ind","33.9794","-81.3026","cvs.com","MON: 08:00-23:00, TUE: 08:00-23:00, WED: 08:00-23:00, THU: 08:00-23:00, FRI: 08:00-23:00, SAT: 08:00-23:00, SUN: 08:00-22:00","<MISSING>","store_number"
"https://www.cvs.com/store-locator/irmo-sc-pharmacies/store-details/storeid=5549","CVS Pharmacy at 1008 LAKE MURRAY BOULEVARD IRMO, SC 29063","1008 LAKE MURRAY BOULEVARD","IRMO","SC","29063","US","5549","8037493845","Healthhub_Ind","34.09","-81.1746","cvs.com","MON: Open 24 Hours-Open 24 Hours, TUE: Open 24 Hours-Open 24 Hours, WED: Open 24 Hours-Open 24 Hours, THU: Open 24 Hours-Open 24 Hours, FRI: Open 24 Hours-Open 24 Hours, SAT: Open 24 Hours-Open 24 Hours, SUN: Open 24 Hours-Open 24 Hours","<MISSING>","store_number"
"https://www.cvs.com/store-locator/lexington-sc-pharmacies/store-details/storeid=7334","CVS Pharmacy at 5608 SUNSET BLVD. LEXINGTON, SC 29072","5608 SUNSET BLVD.","LEXINGTON","SC","29072","US","7334","8039575322","Healthhub_Ind","33.9942","-81.2275","cvs.com","MON: Open 24 Hours-Open 24 Hours, TUE: Open 24 Hours-Open 24 Hours, WED: Open 24 Hours-Open 24 Hours, THU: Open 24 Hours-Open 24 Hours, FRI: Open 24 Hours-Open 24 Hours, SAT: Open 24 Hours-Open 24 Hours, SUN: Open 24 Hours-Open 24 Hours","<MISSING>","store_number"
"https://www.cvs.com/store-locator/waynesville-nc-pharmacies/store-details/storeid=7521","CVS Pharmacy at 773 RUSS AVE. WAYNESVILLE, NC 28786","773 RUSS AVE.","WAYNESVILLE","NC","28786","US","7521","8284522230","Healthhub_Ind","35.5035","-82.9908","cvs.com","MON: 08:00-22:00, TUE: 08:00-22:00, WED: 08:00-22:00, THU: 08:00-22:00, FRI: 08:00-22:00, SAT: 08:00-22:00, SUN: 08:00-22:00","<MISSING>","store_number"
"https://www.cvs.com/store-locator/lexington-sc-pharmacies/store-details/storeid=5471","CVS Pharmacy at 1071 S. LAKE DR. LEXINGTON, SC 29073","1071 S. LAKE DR.","LEXINGTON","SC","29073","US","5471","8039570605","Healthhub_Ind","33.9534","-81.2325","cvs.com","MON: 08:00-22:00, TUE: 08:00-22:00, WED: 08:00-22:00, THU: 08:00-22:00, FRI: 08:00-22:00, SAT: 08:00-22:00, SUN: 08:00-22:00","<MISSING>","store_number"
"https://www.cvs.com/store-locator/macon-ga-pharmacies/store-details/storeid=10357","CVS Pharmacy at 1544 BASS RD. MACON, GA 31210","1544 BASS RD.","MACON","GA","31210","US","10357","4784714494","Healthhub_Ind","32.9268","-83.7351","cvs.com","MON: 08:00-22:00, TUE: 08:00-22:00, WED: 08:00-22:00, THU: 08:00-22:00, FRI: 08:00-22:00, SAT: 08:00-22:00, SUN: 08:00-22:00","<MISSING>","store_number"
"https://www.cvs.com/store-locator/macon-ga-pharmacies/store-details/storeid=4160","CVS Pharmacy at 6381 ZEBULON RD. MACON, GA 31220","6381 ZEBULON RD.","MACON","GA","31220","US","4160","4784761911","Healthhub_Ind","32.8807","-83.7733","cvs.com","MON: 08:00-22:00, TUE: 08:00-22:00, WED: 08:00-22:00, THU: 08:00-22:00, FRI: 08:00-22:00, SAT: 08:00-22:00, SUN: 09:00-21:00","<MISSING>","store_number"
"https://www.cvs.com/store-locator/warner-robins-ga-pharmacies/store-details/storeid=1586","CVS Pharmacy at 3001 RICHARD B. RUSSELL PARKWAY WARNER ROBINS, GA 31088","3001 RICHARD B. RUSSELL PARKWAY","WARNER ROBINS","GA","31088","US","1586","4789530888","Healthhub_Ind","32.5806","-83.695","cvs.com","MON: 08:00-22:00, TUE: 08:00-22:00, WED: 08:00-22:00, THU: 08:00-22:00, FRI: 08:00-22:00, SAT: 08:00-22:00, SUN: 08:00-22:00","<MISSING>","store_number"
"https://www.cvs.com/store-locator/mcdonough-ga-pharmacies/store-details/storeid=5682","CVS Pharmacy at 2 N. ZACK HINTON PARKWAY MCDONOUGH, GA 30253","2 N. ZACK HINTON PARKWAY","MCDONOUGH","GA","30253","US","5682","7709572984","Healthhub_Ind","33.4473","-84.1393","cvs.com","MON: 07:00-00:00, TUE: 07:00-00:00, WED: 07:00-00:00, THU: 07:00-00:00, FRI: 07:00-00:00, SAT: 07:00-00:00, SUN: 07:00-00:00","<MISSING>","store_number"
"https://www.cvs.com/store-locator/covington-ga-pharmacies/store-details/storeid=8419","CVS Pharmacy at 4192 SALEM RD. COVINGTON, GA 30016","4192 SALEM RD.","COVINGTON","GA","30016","US","8419","7707882026","Healthhub_Ind","33.579","-83.9634","cvs.com","MON: 08:00-22:00, TUE: 08:00-22:00, WED: 08:00-22:00, THU: 08:00-22:00, FRI: 08:00-22:00, SAT: 08:00-22:00, SUN: 08:00-22:00","<MISSING>","store_number"
"https://www.cvs.com/store-locator/stockbridge-ga-pharmacies/store-details/storeid=7064","CVS Pharmacy at 5095 MOUNT ZION PKWY. STOCKBRIDGE, GA 30281","5095 MOUNT ZION PKWY.","STOCKBRIDGE","GA","30281","US","7064","7705070576","Healthhub_Ind","33.5435","-84.2837","cvs.com","MON: 07:00-00:00, TUE: 07:00-00:00, WED: 07:00-00:00, THU: 07:00-00:00, FRI: 07:00-00:00, SAT: 07:00-00:00, SUN: 07:00-00:00","<MISSING>","store_number"
"https://www.cvs.com/store-locator/fayetteville-ga-pharmacies/store-details/storeid=4760","CVS Pharmacy at 480 NORTH GLYNN ST., FAYETTEVILLE, GA 30214","480 NORTH GLYNN ST.,","FAYETTEVILLE","GA","30214","US","4760","7704613431","Healthhub_Ind","33.4579","-84.4544","cvs.com","MON: 08:00-22:00, TUE: 08:00-22:00, WED: 08:00-22:00, THU: 08:00-22:00, FRI: 08:00-22:00, SAT: 08:00-22:00, SUN: 08:00-21:00","<MISSING>","store_number"
"https://www.cvs.com/store-locator/peachtree-city-ga-pharmacies/store-details/storeid=2544","CVS Pharmacy at 101 LEXINGTON CIRCLE PEACHTREE CITY, GA 30269","101 LEXINGTON CIRCLE","PEACHTREE CITY","GA","30269","US","2544","7704861639","Healthhub_Ind","33.422","-84.5595","cvs.com","MON: 08:00-22:00, TUE: 08:00-22:00, WED: 08:00-22:00, THU: 08:00-22:00, FRI: 08:00-22:00, SAT: 08:00-22:00, SUN: 08:00-22:00","<MISSING>","store_number"
"https://www.cvs.com/store-locator/loganville-ga-pharmacies/store-details/storeid=4138","CVS Pharmacy at 2720 LOGANVILLE HWY LOGANVILLE, GA 30052","2720 LOGANVILLE HWY","LOGANVILLE","GA","30052","US","4138","7702775996","Healthhub_Ind","33.8816","-83.9374","cvs.com","MON: 08:00-23:00, TUE: 08:00-23:00, WED: 08:00-23:00, THU: 08:00-23:00, FRI: 08:00-23:00, SAT: 08:00-23:00, SUN: 08:00-23:00","<MISSING>","store_number"
"https://www.cvs.com/store-locator/decatur-ga-pharmacies/store-details/storeid=2175","CVS Pharmacy at 2738 N. DECATUR RD. DECATUR, GA 30033","2738 N. DECATUR RD.","DECATUR","GA","30033","US","2175","4045088058","Healthhub_Ind","33.7931","-84.2813","cvs.com","MON: Open 24 Hours-Open 24 Hours, TUE: Open 24 Hours-Open 24 Hours, WED: Open 24 Hours-Open 24 Hours, THU: Open 24 Hours-Open 24 Hours, FRI: Open 24 Hours-Open 24 Hours, SAT: Open 24 Hours-Open 24 Hours, SUN: Open 24 Hours-Open 24 Hours","<MISSING>","store_number"
"https://www.cvs.com/store-locator/newnan-ga-pharmacies/store-details/storeid=7214","CVS Pharmacy at 2305 HWY 34 EAST NEWNAN, GA 30265","2305 HWY 34 EAST","NEWNAN","GA","30265","US","7214","6784231043","Healthhub_Ind","33.4041","-84.7065","cvs.com","MON: 07:00-00:00, TUE: 07:00-00:00, WED: 07:00-00:00, THU: 07:00-00:00, FRI: 07:00-00:00, SAT: 07:00-00:00, SUN: 07:00-00:00","<MISSING>","store_number"
"https://www.cvs.com/store-locator/atlanta-ga-pharmacies/store-details/storeid=4604","CVS Pharmacy at 865 N HIGHLAND AVE NE ATLANTA, GA 30306","865 N HIGHLAND AVE NE","ATLANTA","GA","30306","US","4604","4047336089","Healthhub_Ind","33.7784","-84.3523","cvs.com","MON: 08:00-00:00, TUE: 08:00-00:00, WED: 08:00-00:00, THU: 08:00-00:00, FRI: 08:00-00:00, SAT: 08:00-00:00, SUN: 08:00-00:00","<MISSING>","store_number"
"https://www.cvs.com/store-locator/atlanta-ga-pharmacies/store-details/storeid=7689","CVS Pharmacy at 1520 AVENUE PLACE, SUITE B-100 ATLANTA, GA 30329","1520 AVENUE PLACE, SUITE B-100","ATLANTA","GA","30329","US","7689","4046395575","Healthhub_Ind","33.801","-84.3288","cvs.com","MON: 08:00-00:00, TUE: 08:00-00:00, WED: 08:00-00:00, THU: 08:00-00:00, FRI: 08:00-00:00, SAT: 08:00-00:00, SUN: 08:00-00:00","<MISSING>","store_number"
"https://www.cvs.com/store-locator/thomson-ga-pharmacies/store-details/storeid=4556","CVS Pharmacy at 109 WEST HILL STREET THOMSON, GA 30824","109 WEST HILL STREET","THOMSON","GA","30824","US","4556","7065956666","Healthhub_Ind","33.462","-82.5008","cvs.com","MON: 08:00-22:00, TUE: 08:00-22:00, WED: 08:00-22:00, THU: 08:00-22:00, FRI: 08:00-22:00, SAT: 09:00-22:00, SUN: 09:00-21:00","<MISSING>","store_number"
"https://www.cvs.com/store-locator/atlanta-ga-pharmacies/store-details/storeid=4717","CVS Pharmacy at 2429 MARTIN LUTHER KING JR. DR. ATLANTA, GA 30311","2429 MARTIN LUTHER KING JR. DR.","ATLANTA","GA","30311","US","4717","4046913344","Healthhub_Ind","33.7523","-84.4667","cvs.com","MON: 07:00-00:00, TUE: 07:00-00:00, WED: 07:00-00:00, THU: 07:00-00:00, FRI: 07:00-00:00, SAT: 07:00-00:00, SUN: 07:00-00:00","<MISSING>","store_number"
"https://www.cvs.com/store-locator/atlanta-ga-pharmacies/store-details/storeid=2569","CVS Pharmacy at 3637 PEACHTREE ROAD, NE ATLANTA, GA 30319","3637 PEACHTREE ROAD, NE","ATLANTA","GA","30319","US","2569","4049263541","Healthhub_Ind","33.8535","-84.3586","cvs.com","MON: 08:00-23:00, TUE: 08:00-23:00, WED: 08:00-23:00, THU: 08:00-23:00, FRI: 08:00-23:00, SAT: 08:00-23:00, SUN: 08:00-23:00","<MISSING>","store_number"
"https://www.cvs.com/store-locator/lawrenceville-ga-pharmacies/store-details/storeid=2841","CVS Pharmacy at 5710 SUGARLOAF PKWY, NORTHWEST LAWRENCEVILLE, GA 30043","5710 SUGARLOAF PKWY, NORTHWEST","LAWRENCEVILLE","GA","30043","US","2841","7702372222","Healthhub_Ind","33.9766","-84.0748","cvs.com","MON: 08:00-23:00, TUE: 08:00-23:00, WED: 08:00-23:00, THU: 08:00-23:00, FRI: 08:00-23:00, SAT: 08:00-23:00, SUN: 08:00-22:00","<MISSING>","store_number"
"https://www.cvs.com/store-locator/chamblee-ga-pharmacies/store-details/storeid=4505","CVS Pharmacy at 5764 PEACHTREE INDUSTRIAL BLVD CHAMBLEE, GA 30341","5764 PEACHTREE INDUSTRIAL BLVD","CHAMBLEE","GA","30341","US","4505","7704574401","Healthhub_Ind","33.9058","-84.2952","cvs.com","MON: Open 24 Hours-Open 24 Hours, TUE: Open 24 Hours-Open 24 Hours, WED: Open 24 Hours-Open 24 Hours, THU: Open 24 Hours-Open 24 Hours, FRI: Open 24 Hours-Open 24 Hours, SAT: Open 24 Hours-Open 24 Hours, SUN: Open 24 Hours-Open 24 Hours","<MISSING>","store_number"
"https://www.cvs.com/store-locator/dacula-ga-pharmacies/store-details/storeid=3766","CVS Pharmacy at 3027 JIM MOORE ROAD DACULA, GA 30019","3027 JIM MOORE ROAD","DACULA","GA","30019","US","3766","7703390129","Healthhub_Ind","34.0363","-83.91","cvs.com","MON: 08:00-22:00, TUE: 08:00-22:00, WED: 08:00-22:00, THU: 08:00-22:00, FRI: 08:00-22:00, SAT: 08:00-22:00, SUN: 08:00-22:00","<MISSING>","store_number"
"https://www.cvs.com/store-locator/norcross-ga-pharmacies/store-details/storeid=2108","CVS Pharmacy at 5095 PEACHTREE PKWY NORCROSS, GA 30092","5095 PEACHTREE PKWY","NORCROSS","GA","30092","US","2108","7702099299","Healthhub_Ind","33.9842","-84.2141","cvs.com","MON: 07:00-00:00, TUE: 07:00-00:00, WED: 07:00-00:00, THU: 07:00-00:00, FRI: 07:00-00:00, SAT: 07:00-00:00, SUN: 07:00-00:00","<MISSING>","store_number"
"https://www.cvs.com/store-locator/atlanta-ga-pharmacies/store-details/storeid=2089","CVS Pharmacy at 4300 PACES FERRY RD SE, SUITE 170, VININGS JUBILEE SHOPPING CENTER ATLANTA, GA 30339","4300 PACES FERRY RD SE, SUITE 170, VININGS JUBILEE SHOPPING CENTER","ATLANTA","GA","30339","US","2089","7704339437","Healthhub_Ind","33.8646","-84.4662","cvs.com","MON: 08:00-22:00, TUE: 08:00-22:00, WED: 08:00-22:00, THU: 08:00-22:00, FRI: 08:00-22:00, SAT: 08:00-22:00, SUN: 08:00-22:00","<MISSING>","store_number"
"https://www.cvs.com/store-locator/hoschton-ga-pharmacies/store-details/storeid=7637","CVS Pharmacy at 5848 HWY 124 WEST HOSCHTON, GA 30548","5848 HWY 124 WEST","HOSCHTON","GA","30548","US","7637","7066541439","Healthhub_Ind","34.1082","-83.6995","cvs.com","MON: 08:30-22:00, TUE: 08:30-22:00, WED: 08:30-22:00, THU: 08:30-22:00, FRI: 08:30-22:00, SAT: 08:00-22:00, SUN: 09:00-20:00","<MISSING>","store_number"
"https://www.cvs.com/store-locator/smyrna-ga-pharmacies/store-details/storeid=4740","CVS Pharmacy at 2994 ATLANTA ROAD SMYRNA, GA 30080","2994 ATLANTA ROAD","SMYRNA","GA","30080","US","4740","7704352178","Healthhub_Ind","33.8807","-84.5135","cvs.com","MON: Open 24 Hours-Open 24 Hours, TUE: Open 24 Hours-Open 24 Hours, WED: Open 24 Hours-Open 24 Hours, THU: Open 24 Hours-Open 24 Hours, FRI: Open 24 Hours-Open 24 Hours, SAT: Open 24 Hours-Open 24 Hours, SUN: Open 24 Hours-Open 24 Hours","<MISSING>","store_number"
"https://www.cvs.com/store-locator/buford-ga-pharmacies/store-details/storeid=5653","CVS Pharmacy at 1950 BUFORD HWY. BUFORD, GA 30518","1950 BUFORD HWY.","BUFORD","GA","30518","US","5653","7709457286","Healthhub_Ind","34.1074","-84.0029","cvs.com","MON: 08:00-22:00, TUE: 08:00-22:00, WED: 08:00-22:00, THU: 08:00-22:00, FRI: 08:00-23:00, SAT: 08:00-23:00, SUN: 08:00-22:00","<MISSING>","store_number"
"https://www.cvs.com/store-locator/austell-ga-pharmacies/store-details/storeid=4522","CVS Pharmacy at 800 E WEST CONNECTOR AUSTELL, GA 30106","800 E WEST CONNECTOR","AUSTELL","GA","30106","US","4522","7704381680","Healthhub_Ind","33.857","-84.5771","cvs.com","MON: 07:00-00:00, TUE: 07:00-00:00, WED: 07:00-00:00, THU: 07:00-00:00, FRI: 07:00-00:00, SAT: 07:00-00:00, SUN: 07:00-00:00","<MISSING>","store_number"
"https://www.cvs.com/store-locator/dallas-tx-pharmacies/store-details/storeid=2979","CVS Pharmacy at 6120 E. MOCKINGBIRD LN. DALLAS, TX 75214","6120 E. MOCKINGBIRD LN.","DALLAS","TX","75214","US","2979","2148876955","Healthhub_Ind","32.836","-96.7607","cvs.com","MON: Open 24 Hours-Open 24 Hours, TUE: Open 24 Hours-Open 24 Hours, WED: Open 24 Hours-Open 24 Hours, THU: Open 24 Hours-Open 24 Hours, FRI: Open 24 Hours-Open 24 Hours, SAT: Open 24 Hours-Open 24 Hours, SUN: Open 24 Hours-Open 24 Hours","<MISSING>","store_number"
"https://www.cvs.com/store-locator/mesquite-tx-pharmacies/store-details/storeid=5869","CVS Pharmacy at 1413 OATS DR., CORNER OF NOTHWEST HIGHWAY MESQUITE, TX 75150","1413 OATS DR., CORNER OF NOTHWEST HIGHWAY","MESQUITE","TX","75150","US","5869","9726137001","Healthhub_Ind","32.8424","-96.6246","cvs.com","MON: 07:00-23:00, TUE: 07:00-23:00, WED: 07:00-23:00, THU: 07:00-23:00, FRI: 07:00-23:00, SAT: 07:00-23:00, SUN: 07:00-23:00","<MISSING>","store_number"
"https://www.cvs.com/store-locator/dallas-tx-pharmacies/store-details/storeid=7288","CVS Pharmacy at 11661 PRESTON RD. STE 218 DALLAS, TX 75230","11661 PRESTON RD. STE 218","DALLAS","TX","75230","US","7288","2143631571","Healthhub_Ind","32.9088","-96.8054","cvs.com","MON: Open 24 Hours-Open 24 Hours, TUE: Open 24 Hours-Open 24 Hours, WED: Open 24 Hours-Open 24 Hours, THU: Open 24 Hours-Open 24 Hours, FRI: Open 24 Hours-Open 24 Hours, SAT: Open 24 Hours-Open 24 Hours, SUN: Open 24 Hours-Open 24 Hours","<MISSING>","store_number"
"https://www.cvs.com/store-locator/dallas-tx-pharmacies/store-details/storeid=7412","CVS Pharmacy at 5370 W LOVERS LN STE 310, CORNER OF INWOOD IN THE INWOOD VILLAGE SHOPPING CENTER DALLAS, TX 75209","5370 W LOVERS LN STE 310, CORNER OF INWOOD IN THE INWOOD VILLAGE SHOPPING CENTER","DALLAS","TX","75209","US","7412","2143580263","Healthhub_Ind","32.8496","-96.8206","cvs.com","MON: 07:00-00:00, TUE: 07:00-00:00, WED: 07:00-00:00, THU: 07:00-00:00, FRI: 07:00-00:00, SAT: 07:00-00:00, SUN: 07:00-00:00","<MISSING>","store_number"
"https://www.cvs.com/store-locator/richardson-tx-pharmacies/store-details/storeid=7156","CVS Pharmacy at 605 W. CAMPBELL RD. RICHARDSON, TX 75080","605 W. CAMPBELL RD.","RICHARDSON","TX","75080","US","7156","9722313522","Healthhub_Ind","32.9776","-96.7411","cvs.com","MON: 07:00-00:00, TUE: 07:00-00:00, WED: 07:00-00:00, THU: 07:00-00:00, FRI: 07:00-00:00, SAT: 07:00-00:00, SUN: 07:00-00:00","<MISSING>","store_number"
"https://www.cvs.com/store-locator/dallas-tx-pharmacies/store-details/storeid=10351","CVS Pharmacy at 3133 EAST LEMMON AVE. DALLAS, TX 75204","3133 EAST LEMMON AVE.","DALLAS","TX","75204","US","10351","2145992108","Healthhub_Ind","32.8069","-96.7979","cvs.com","MON: Open 24 Hours-Open 24 Hours, TUE: Open 24 Hours-Open 24 Hours, WED: Open 24 Hours-Open 24 Hours, THU: Open 24 Hours-Open 24 Hours, FRI: Open 24 Hours-Open 24 Hours, SAT: Open 24 Hours-Open 24 Hours, SUN: Open 24 Hours-Open 24 Hours","<MISSING>","store_number"
"https://www.cvs.com/store-locator/rowlett-tx-pharmacies/store-details/storeid=7431","CVS Pharmacy at 3430 LAKEVIEW PKWY ROWLETT, TX 75088","3430 LAKEVIEW PKWY","ROWLETT","TX","75088","US","7431","9724752597","Healthhub_Ind","32.9074","-96.5696","cvs.com","MON: 07:00-23:00, TUE: 07:00-23:00, WED: 07:00-23:00, THU: 07:00-23:00, FRI: 07:00-23:00, SAT: 08:00-23:00, SUN: 08:00-23:00","<MISSING>","store_number"
"https://www.cvs.com/store-locator/garland-tx-pharmacies/store-details/storeid=7824","CVS Pharmacy at 5702 LAVON DR GARLAND, TX 75040","5702 LAVON DR","GARLAND","TX","75040","US","7824","9724955595","Healthhub_Ind","32.9678","-96.6071","cvs.com","MON: 08:00-22:00, TUE: 08:00-22:00, WED: 08:00-22:00, THU: 08:00-22:00, FRI: 08:00-22:00, SAT: 08:00-22:00, SUN: 08:00-22:00","<MISSING>","store_number"
"https://www.cvs.com/store-locator/dallas-tx-pharmacies/store-details/storeid=5314","CVS Pharmacy at 1411 MAIN ST. DALLAS, TX 75202","1411 MAIN ST.","DALLAS","TX","75202","US","5314","2147494092","Healthhub_Ind","32.7807","-96.7998","cvs.com","MON: 07:00-00:00, TUE: 07:00-00:00, WED: 07:00-00:00, THU: 07:00-00:00, FRI: 07:00-00:00, SAT: 07:00-00:00, SUN: 07:00-00:00","<MISSING>","store_number"
"https://www.cvs.com/store-locator/plano-tx-pharmacies/store-details/storeid=8393","CVS Pharmacy at 2101 W. SPRING CREEK PKWY. PLANO, TX 75023","2101 W. SPRING CREEK PKWY.","PLANO","TX","75023","US","8393","9729430601","Healthhub_Ind","33.0598","-96.7339","cvs.com","MON: 08:00-22:00, TUE: 08:00-22:00, WED: 08:00-22:00, THU: 08:00-22:00, FRI: 08:00-22:00, SAT: 08:00-22:00, SUN: 08:00-22:00","<MISSING>","store_number"
"https://www.cvs.com/store-locator/wylie-tx-pharmacies/store-details/storeid=3292","CVS Pharmacy at 750 W. FM 544 WYLIE, TX 75098","750 W. FM 544","WYLIE","TX","75098","US","3292","9724297545","Healthhub_Ind","33.007","-96.5484","cvs.com","MON: Open 24 Hours-Open 24 Hours, TUE: Open 24 Hours-Open 24 Hours, WED: Open 24 Hours-Open 24 Hours, THU: Open 24 Hours-Open 24 Hours, FRI: Open 24 Hours-Open 24 Hours, SAT: Open 24 Hours-Open 24 Hours, SUN: Open 24 Hours-Open 24 Hours","<MISSING>","store_number"
"https://www.cvs.com/store-locator/irving-tx-pharmacies/store-details/storeid=15","CVS Pharmacy at 5500 N. MACARTHUR IRVING, TX 75038","5500 N. MACARTHUR","IRVING","TX","75038","US","15","9725181325","Healthhub_Ind","32.8856","-96.9633","cvs.com","MON: Open 24 Hours-Open 24 Hours, TUE: Open 24 Hours-Open 24 Hours, WED: Open 24 Hours-Open 24 Hours, THU: Open 24 Hours-Open 24 Hours, FRI: Open 24 Hours-Open 24 Hours, SAT: Open 24 Hours-Open 24 Hours, SUN: Open 24 Hours-Open 24 Hours","<MISSING>","store_number"
"https://www.cvs.com/store-locator/rockwall-tx-pharmacies/store-details/storeid=8337","CVS Pharmacy at 2004 NORTH GOLIAD ROCKWALL, TX 75087","2004 NORTH GOLIAD","ROCKWALL","TX","75087","US","8337","9727224706","Healthhub_Ind","32.9509","-96.4619","cvs.com","MON: 08:00-22:00, TUE: 08:00-22:00, WED: 08:00-22:00, THU: 08:00-22:00, FRI: 08:00-22:00, SAT: 08:00-22:00, SUN: 08:00-22:00","<MISSING>","store_number"
"https://www.cvs.com/store-locator/plano-tx-pharmacies/store-details/storeid=3724","CVS Pharmacy at 8940 COIT RD. PLANO, TX 75025","8940 COIT RD.","PLANO","TX","75025","US","3724","9723774966","Healthhub_Ind","33.1004","-96.7709","cvs.com","MON: 07:00-23:00, TUE: 07:00-23:00, WED: 07:00-23:00, THU: 07:00-23:00, FRI: 07:00-23:00, SAT: 07:00-23:00, SUN: 07:00-23:00","<MISSING>","store_number"
"https://www.cvs.com/store-locator/allen-tx-pharmacies/store-details/storeid=1104","CVS Pharmacy at 1540 E. MAIN ST. ALLEN, TX 75002","1540 E. MAIN ST.","ALLEN","TX","75002","US","1104","2143839765","Healthhub_Ind","33.0997","-96.6295","cvs.com","MON: 08:00-22:00, TUE: 08:00-22:00, WED: 08:00-22:00, THU: 08:00-22:00, FRI: 08:00-22:00, SAT: 08:00-22:00, SUN: 08:00-22:00","<MISSING>","store_number"
"https://www.cvs.com/store-locator/carrollton-tx-pharmacies/store-details/storeid=7196","CVS Pharmacy at 4100 STATE HWY 121, CARROLLTON, TX 75010","4100 STATE HWY 121,","CARROLLTON","TX","75010","US","7196","9729397062","Healthhub_Ind","33.0224","-96.9329","cvs.com","MON: 08:00-23:00, TUE: 08:00-23:00, WED: 08:00-23:00, THU: 08:00-23:00, FRI: 08:00-23:00, SAT: 08:00-23:00, SUN: 08:00-23:00","<MISSING>","store_number"
"https://www.cvs.com/store-locator/forney-tx-pharmacies/store-details/storeid=3197","CVS Pharmacy at 775 E. US HWY 80 FORNEY, TX 75126","775 E. US HWY 80","FORNEY","TX","75126","US","3197","9725521634","Healthhub_Ind","32.7421","-96.4502","cvs.com","MON: 07:00-23:00, TUE: 07:00-23:00, WED: 07:00-23:00, THU: 07:00-23:00, FRI: 07:00-23:00, SAT: 08:00-23:00, SUN: 08:00-23:00","<MISSING>","store_number"
"https://www.cvs.com/store-locator/frisco-tx-pharmacies/store-details/storeid=7825","CVS Pharmacy at 5401 LEBANON FRISCO, TX 75034","5401 LEBANON","FRISCO","TX","75034","US","7825","9726248170","Healthhub_Ind","33.1158","-96.8404","cvs.com","MON: 07:00-23:00, TUE: 07:00-23:00, WED: 07:00-23:00, THU: 07:00-23:00, FRI: 07:00-23:00, SAT: 08:00-23:00, SUN: 08:00-23:00","<MISSING>","store_number"
"https://www.cvs.com/store-locator/mckinney-tx-pharmacies/store-details/storeid=334","CVS Pharmacy at 8995 STACY RD. MCKINNEY, TX 75070","8995 STACY RD.","MCKINNEY","TX","75070","US","334","9725699423","Healthhub_Ind","33.1515","-96.7323","cvs.com","MON: 08:00-23:00, TUE: 08:00-23:00, WED: 08:00-23:00, THU: 08:00-23:00, FRI: 08:00-23:00, SAT: 08:00-23:00, SUN: 08:00-22:00","<MISSING>","store_number"
"https://www.cvs.com/store-locator/flower-mound-tx-pharmacies/store-details/storeid=1745","CVS Pharmacy at 1100 FLOWER MOUND RD. FLOWER MOUND, TX 75028","1100 FLOWER MOUND RD.","FLOWER MOUND","TX","75028","US","1745","9728748421","Healthhub_Ind","33.0122","-97.0458","cvs.com","MON: 08:00-22:00, TUE: 08:00-22:00, WED: 08:00-22:00, THU: 08:00-22:00, FRI: 08:00-22:00, SAT: 08:00-22:00, SUN: 08:00-22:00","<MISSING>","store_number"
"https://www.cvs.com/store-locator/grand-prairie-tx-pharmacies/store-details/storeid=7809","CVS Pharmacy at 4203 S CARRIER PKWY GRAND PRAIRIE, TX 75052","4203 S CARRIER PKWY","GRAND PRAIRIE","TX","75052","US","7809","9726423910","Healthhub_Ind","32.6716","-97.0048","cvs.com","MON: 08:00-22:00, TUE: 08:00-22:00, WED: 08:00-22:00, THU: 08:00-22:00, FRI: 08:00-22:00, SAT: 08:00-22:00, SUN: 08:00-22:00","<MISSING>","store_number"
"https://www.cvs.com/store-locator/bedford-tx-pharmacies/store-details/storeid=7462","CVS Pharmacy at 601 N INDUSTRIAL BLVD BEDFORD, TX 76021","601 N INDUSTRIAL BLVD","BEDFORD","TX","76021","US","7462","8172830161","Healthhub_Ind","32.8446","-97.1005","cvs.com","MON: 08:00-22:00, TUE: 08:00-22:00, WED: 08:00-22:00, THU: 08:00-22:00, FRI: 08:00-22:00, SAT: 08:00-22:00, SUN: 08:00-22:00","<MISSING>","store_number"
"https://www.cvs.com/store-locator/little-elm-tx-pharmacies/store-details/storeid=8336","CVS Pharmacy at 2591 FM 423 LITTLE ELM, TX 75068","2591 FM 423","LITTLE ELM","TX","75068","US","8336","9727318032","Healthhub_Ind","33.1778","-96.8867","cvs.com","MON: Open 24 Hours-Open 24 Hours, TUE: Open 24 Hours-Open 24 Hours, WED: Open 24 Hours-Open 24 Hours, THU: Open 24 Hours-Open 24 Hours, FRI: Open 24 Hours-Open 24 Hours, SAT: Open 24 Hours-Open 24 Hours, SUN: Open 24 Hours-Open 24 Hours","<MISSING>","store_number"
"https://www.cvs.com/store-locator/princeton-tx-pharmacies/store-details/storeid=10016","CVS Pharmacy at 311 E. PRINCETON DR. PRINCETON, TX 75407","311 E. PRINCETON DR.","PRINCETON","TX","75407","US","10016","9727362259","Healthhub_Ind","33.1738","-96.4961","cvs.com","MON: 08:00-22:00, TUE: 08:00-22:00, WED: 08:00-22:00, THU: 08:00-22:00, FRI: 08:00-22:00, SAT: 08:00-22:00, SUN: 08:00-22:00","<MISSING>","store_number"
"https://www.cvs.com/store-locator/cedar-hill-tx-pharmacies/store-details/storeid=7491","CVS Pharmacy at 385 E BELT LINE RD CEDAR HILL, TX 75104","385 E BELT LINE RD","CEDAR HILL","TX","75104","US","7491","9722995347","Healthhub_Ind","32.5907","-96.9368","cvs.com","MON: 08:00-00:00, TUE: 08:00-00:00, WED: 08:00-00:00, THU: 08:00-00:00, FRI: 08:00-00:00, SAT: 08:00-00:00, SUN: 08:00-00:00","<MISSING>","store_number"
"https://www.cvs.com/store-locator/springfield-oh-pharmacies/store-details/storeid=6183","CVS Pharmacy at 2987 DERR RD. SPRINGFIELD, OH 45503","2987 DERR RD.","SPRINGFIELD","OH","45503","US","6183","9373902500","Healthhub_Ind","39.9657","-83.7868","cvs.com","MON: 09:00-21:00, TUE: 09:00-21:00, WED: 09:00-21:00, THU: 09:00-21:00, FRI: 09:00-21:00, SAT: 09:00-21:00, SUN: 10:00-18:00","<MISSING>","store_number"
"https://www.cvs.com/store-locator/tipp-city-oh-pharmacies/store-details/storeid=3476","CVS Pharmacy at 914 W. MAIN ST. TIPP CITY, OH 45371","914 W. MAIN ST.","TIPP CITY","OH","45371","US","3476","9376678428","Healthhub_Ind","39.96","-84.1856","cvs.com","MON: 08:00-23:00, TUE: 08:00-23:00, WED: 08:00-23:00, THU: 08:00-23:00, FRI: 08:00-23:00, SAT: 09:00-22:00, SUN: 10:00-19:00","<MISSING>","store_number"
