{"ArrayOfStore":{"$":{"xmlns:xsd":"http://www.w3.org/2001/XMLSchema","xmlns:xsi":"http://www.w3.org/2001/XMLSchema-instance","xmlns":"http://shopnsavefood.com/api"},"Store":[{"StoreID":"330","Number":"0","Name":"AC&T Exxon Travel Center","Address1":"11564 Hopewell Rd.","City":"Hagerstown","State":"MD","Zip":"21740","Latitude":"39.631447","Longitude":"-77.784293","IsGasStation":"true","IsActive":"false","IsPumpPerk":"false","AreaID":"123"},{"StoreID":"125","Number":"0","Name":"Airport-Pittsburgh Int'l","Address1":"Pitsburgh Int'l Airport - near parking lot","City":"Aliquippa","State":"PA","Zip":"15231","Latitude":"40.4943071","Longitude":"-80.2671737","IsGasStation":"true","IsActive":"true","IsPumpPerk":"true","AreaID":"106"},{"StoreID":"126","Number":"0","Name":"Aliquippa","Address1":"2680 Brodhead Road","City":"Aliquippa","State":"PA","Zip":"15001","Latitude":"40.6061231","Longitude":"-80.2835837","IsGasStation":"true","IsActive":"true","IsPumpPerk":"true","AreaID":"106"},{"StoreID":"127","Number":"0","Name":"Aliquippa, Hopewell","Address1":"2046 Brodhead - 5 Points Intersection","City":"Aliquippa","State":"PA","Zip":"15001","Latitude":"40.5693741","Longitude":"-80.2594466","IsGasStation":"true","IsActive":"true","IsPumpPerk":"true","AreaID":"106"},{"StoreID":"128","Number":"0","Name":"Allison Park","Address1":"4785 Wm. Flynn. Hwy. Rt. 8","City":"Allison Park","State":"PA","Zip":"15101","Latitude":"40.596914","Longitude":"-79.947908","IsGasStation":"true","IsActive":"true","IsPumpPerk":"true","AreaID":"106"},{"StoreID":"26","Number":"1685","Name":"Ambridge","Website":"www.picnsav.net","Address1":"2910 Duss Avenue","Address2":"","City":"Ambridge","State":"PA","Zip":"15003","Hours":"Mon-Sat 7:00am-10:00pm","Hours2":"Sun 7:00am-8:00pm","Phone":"724-266-9758","PharmacyPhone":"","Fax":"724-266-3526","Latitude":"40.611713","Longitude":"-80.226221","IsGasStation":"false","IsActive":"true","IsPumpPerk":"false","AreaID":"10"},{"StoreID":"129","Number":"0","Name":"Ambridge","Address1":"800 Merchant Street","City":"Ambridge","State":"PA","Zip":"15003","Latitude":"40.589372","Longitude":"-80.2311673","IsGasStation":"true","IsActive":"true","IsPumpPerk":"true","AreaID":"106"},{"StoreID":"344","Number":"0","Name":"Avalon","Address1":"400 Union Ave","City":"Avalon","State":"PA","Zip":"15202","Latitude":"40.504092\r\n","Longitude":"-80.0622012\r\n","IsGasStation":"true","IsActive":"true","IsPumpPerk":"true","AreaID":"106","MiscInfo":"<label>Diesel Available</label>"},{"StoreID":"227","Number":"0","Name":"Baldwin","Address1":"Curry Hollow & Keeport","City":"Pleasant Hills","State":"PA","Zip":"15236","Latitude":"40.33514","Longitude":"-79.98324","IsGasStation":"true","IsActive":"true","IsPumpPerk":"true","AreaID":"106"},{"StoreID":"130","Number":"0","Name":"Beaver, West Bridgewater","Address1":"1199 Third Street","City":"Beaver","State":"PA","Zip":"15009","Latitude":"40.6919313","Longitude":"-80.3144308","IsGasStation":"true","IsActive":"true","IsPumpPerk":"true","AreaID":"106"},{"StoreID":"223","Number":"0","Name":"Beechview","Address1":"1721 Banksville Road.","City":"Pittsburgh","State":"PA","Zip":"15216","Latitude":"40.40009","Longitude":"-80.04617","IsGasStation":"true","IsActive":"true","IsPumpPerk":"true","AreaID":"106"},{"StoreID":"28","Number":"1041","Name":"Belington Express","Website":"","Address1":"806 Crim Avenue ","Address2":"","City":"Belington","State":"WV","Zip":"26250","Hours":"Mon-Sun 7:00-11:00","Hours2":"","Phone":"304-823-3104","PharmacyPhone":"","Fax":"304-823-3104","Latitude":"39.022257","Longitude":"-79.936953","IsGasStation":"false","IsActive":"true","IsPumpPerk":"false","AreaID":"12"},{"StoreID":"131","Number":"0","Name":"Bellevue","Address1":"4528 Ohio River Boulevard","City":"Bellevue","State":"PA","Zip":"15202","Latitude":"40.492014","Longitude":"-80.061497","IsGasStation":"true","IsActive":"true","IsPumpPerk":"true","AreaID":"106"},{"StoreID":"30","Number":"1630","Name":"Bethel Park","Website":"","Address1":"5001 Library Road","City":"Bethel Park","State":"PA","Zip":"15102","Hours":"Monday - Saturday 8am - 9pm","Hours2":"Sunday 9am - 9pm","Phone":"412-831-7177","PharmacyPhone":"412-831-0440","Fax":"412-831-5516","Latitude":"40.342063","Longitude":"-80.025895","IsGasStation":"false","IsActive":"true","IsPumpPerk":"false","AreaID":"14"},{"StoreID":"347","Number":"0","Name":"BFS - Bridgeport","Address1":"51 Genesis Blvd","City":"Bridgeport","State":"WV","Zip":"26330","Latitude":"39.3221619","Longitude":"-80.2326953","IsGasStation":"true","IsActive":"false","IsPumpPerk":"false","AreaID":"107"},{"StoreID":"348","Number":"0","Name":"BFS - Clarksburg","Address1":"106 Wilsonburg Rd","City":"Clarksburg","State":"WV","Zip":"26301","Latitude":"39.2864039","Longitude":"-80.3834048","IsGasStation":"true","IsActive":"false","IsPumpPerk":"false","AreaID":"107"},{"StoreID":"271","Number":"0","Name":"BFS - South Fairmont SNS Cheat Lake","Address1":"169 Fairchance Rd.","City":"Morgantown","State":"WV","Zip":"26508","Latitude":"39.59532","Longitude":"-79.92287","IsGasStation":"true","IsActive":"true","IsPumpPerk":"true","AreaID":"107"},{"StoreID":"274","Number":"0","Name":"BFS - South Fairmont SNS Clarksburg","Address1":"608 Emily Dr.","City":"Clarksburg","State":"WV","Zip":"26301","Latitude":"39.3287","Longitude":"-80.27337","IsGasStation":"true","IsActive":"true","IsPumpPerk":"true","AreaID":"107"},{"StoreID":"270","Number":"0","Name":"BFS - South Fairmont SNS Glenmark","Address1":"204 Venture Dr","City":"Morgantown","State":"WV","Zip":"26508","Latitude":"39.59532","Longitude":"-79.92287","IsGasStation":"true","IsActive":"true","IsPumpPerk":"true","AreaID":"107"},{"StoreID":"273","Number":"0","Name":"BFS - South Fairmont SNS Kingmont","Address1":"2201 Pleasant Valley Rd.","City":"Fairmont","State":"WV","Zip":"26554","Latitude":"39.49411","Longitude":"-80.22128","IsGasStation":"true","IsActive":"true","IsPumpPerk":"true","AreaID":"107"},{"StoreID":"275","Number":"0","Name":"BFS - South Fairmont SNS Mileground","Address1":"1766 Mileground Rd.","City":"Morgantown","State":"WV","Zip":"26505","Latitude":"39.59532","Longitude":"-79.92287","IsGasStation":"true","IsActive":"true","IsPumpPerk":"true","AreaID":"107"},{"StoreID":"272","Number":"0","Name":"BFS - South Fairmont SNS White Hall","Address1":"9615 Mall Loop","City":"Fairmont","State":"WV","Zip":"26301","Latitude":"39.429370","Longitude":"-80.187752","IsGasStation":"true","IsActive":"true","IsPumpPerk":"true","AreaID":"107"},{"StoreID":"295","Number":"0","Name":"BFS-McHenry","Address1":"24179 Garret Hwy","City":"McHenry","State":"MD","Zip":"21541","Latitude":"39.556406","Longitude":"-79.351715","IsGasStation":"true","IsActive":"false","IsPumpPerk":"false","AreaID":"112"},{"StoreID":"133","Number":"0","Name":"Bloomfield","Address1":"4068 Penn Avenue","City":"Bloomfield","State":"PA","Zip":"15224","Latitude":"40.4654193","Longitude":"-79.9555033","IsGasStation":"true","IsActive":"true","IsPumpPerk":"true","AreaID":"106"},{"StoreID":"134","Number":"0","Name":"Bloomfield","Address1":"4779 Liberty St. at Mathilda","City":"Bloomfield","State":"PA","Zip":"15224","Latitude":"40.461144","Longitude":"-79.947298","IsGasStation":"true","IsActive":"true","IsPumpPerk":"true","AreaID":"106"},{"StoreID":"31","Number":"1086","Name":"Bolivar","Website":"","Address1":"455 Main Street","Address2":"","City":"Bolivar","State":"NY","Zip":"14715","Hours":"Mon-Sun 7:00-9:00","Hours2":"","Phone":"585-928-1708","PharmacyPhone":"","Fax":"","Latitude":"42.064109","Longitude":"-78.16824","IsGasStation":"false","IsActive":"true","IsPumpPerk":"false","AreaID":"15"},{"StoreID":"135","Number":"0","Name":"Brentwood","Address1":"2929 Churchview Avenue","City":"Brentwood","State":"PA","Zip":"15227","Latitude":"40.38051","Longitude":"-79.96672","IsGasStation":"true","IsActive":"true","IsPumpPerk":"true","AreaID":"106"},{"StoreID":"136","Number":"0","Name":"Brentwood","Address1":"3299 Saw Mill Run Boulevard","City":"Brentwood","State":"PA","Zip":"15227","Latitude":"40.38051","Longitude":"-79.96672","IsGasStation":"true","IsActive":"true","IsPumpPerk":"true","AreaID":"106"},{"StoreID":"137","Number":"0","Name":"Bridgeville","Address1":"1001 Washington Pike - Route 50","City":"Bridgeville","State":"PA","Zip":"15017","Latitude":"40.35458","Longitude":"-80.09134","IsGasStation":"true","IsActive":"true","IsPumpPerk":"true","AreaID":"106"},{"StoreID":"138","Number":"0","Name":"Bridgeville","Address1":"140 Miller Run Road","City":"Bridgeville","State":"PA","Zip":"15017","Latitude":"40.35458","Longitude":"-80.09134","IsGasStation":"true","IsActive":"true","IsPumpPerk":"true","AreaID":"106"},{"StoreID":"139","Number":"0","Name":"Brookline","Address1":"533 Brookline Boulevard","City":"Brookline","State":"PA","Zip":"15226","Latitude":"40.3958975","Longitude":"-80.0225857","IsGasStation":"true","IsActive":"true","IsPumpPerk":"true","AreaID":"106"},{"StoreID":"219","Number":"0","Name":"Brookline","Address1":"1640 Saw Mill Run Road","City":"Pittsburgh","State":"PA","Zip":"15210","Latitude":"40.396446","Longitude":"-79.998606","IsGasStation":"true","IsActive":"true","IsPumpPerk":"true","AreaID":"106"},{"StoreID":"84","Number":"83","Name":"Brownsville","Website":"","Address1":"1119 Brownsville Rd","Address2":"","City":"Pittsburgh","State":"PA","Zip":"15210","Hours":"Mon-Sat 7:00am - 10:00pm","Hours2":"Sun 8:00am - 8:00pm","Phone":"412-881-4447","PharmacyPhone":"","Fax":"412-881-1967","Latitude":"40.405146","Longitude":"-79.990705","IsGasStation":"false","IsActive":"true","IsPumpPerk":"false","AreaID":"68"},{"StoreID":"140","Number":"0","Name":"Brownsville","Address1":"565 High & Broad Streets","City":"Brownsville","State":"PA","Zip":"15417","Latitude":"39.92161","Longitude":"-79.69047","IsGasStation":"true","IsActive":"true","IsPumpPerk":"true","AreaID":"106"},{"StoreID":"327","Number":"0","Name":"Burhans Blvd. Exxon","Address1":"301 N. Burhans Blvd.","City":"Hagerstown","State":"MD","Zip":"21741","Latitude":"39.649420","Longitude":"-77.724219","IsGasStation":"true","IsActive":"false","IsPumpPerk":"false","AreaID":"123"},{"StoreID":"111","Number":"1079","Name":"Buttermilk Hollow","Website":"","Address1":"4647 Buttermilk Hollow Road","City":"West Mifflin","State":"PA","Zip":"15122","Hours":"Mon-Fri 7am-10pm","Hours2":"Sat-Sun 7am-9pm","Phone":"412-462-0639","PharmacyPhone":"","Fax":"","Latitude":"40.35719","Longitude":"-79.910345","IsGasStation":"false","IsActive":"true","IsPumpPerk":"false","AreaID":"95"},{"StoreID":"32","Number":"1290","Name":"Canonsburg","Website":"","Address1":"617 West Pike Street ","City":"Canonsburg","State":"PA","Zip":"15317","Hours":"Mon-Sat 7:00-12:00","Hours2":"Sun 7:00-9:00","Phone":"724-745-2900","PharmacyPhone":"","Fax":"724-873-5735","Latitude":"40.257422","Longitude":"-80.204701","IsGasStation":"false","IsActive":"true","IsPumpPerk":"false","AreaID":"16"},{"StoreID":"141","Number":"0","Name":"Canonsburg","Address1":"404 West Pike Street","City":"Canonsburg","State":"PA","Zip":"15317","Latitude":"40.1557","Longitude":"-80.12842","IsGasStation":"true","IsActive":"true","IsPumpPerk":"true","AreaID":"106"},{"StoreID":"142","Number":"0","Name":"Canonsburg","Address1":"2300 Hill Church / Houston Rd.","City":"Canonsburg","State":"PA","Zip":"15317","Latitude":"40.1557","Longitude":"-80.12842","IsGasStation":"true","IsActive":"true","IsPumpPerk":"true","AreaID":"106"},{"StoreID":"33","Number":"1254","Name":"Carmichaels","Website":"","Address1":"560 Route 88 ","Address2":"","City":"Carmichaels","State":"PA","Zip":"15320","Hours":"Mon-Sun 8:00am-10:00pm ","Hours2":"","Phone":"724-966-7339","PharmacyPhone":"","Fax":"724-966-7752","Latitude":"39.881091","Longitude":"-79.967229","IsGasStation":"false","IsActive":"true","IsPumpPerk":"false","AreaID":"17"},{"StoreID":"85","Number":"2413","Name":"Castle Shannon","Website":"","Address1":"799 Castle Shannon Blvd ","Address2":"","City":"Pittsburgh","State":"PA","Zip":"15234","Hours":"Mon-Sun 6:00am-12:00am","Hours2":"","Phone":"412-561-1418","PharmacyPhone":"","Fax":"412-561-1709","Latitude":"40.368569","Longitude":"-80.028126","IsGasStation":"false","IsActive":"true","IsPumpPerk":"false","AreaID":"69"},{"StoreID":"144","Number":"0","Name":"Castle Shannon","Address1":"3505 Library Road","City":"Castle Shannon","State":"PA","Zip":"15234","Latitude":"40.366413","Longitude":"-80.0145257","IsGasStation":"true","IsActive":"true","IsPumpPerk":"true","AreaID":"106"},{"StoreID":"345","Number":"0","Name":"Castle Shannon","Address1":"3646 Library Road","City":"Castle Shannon","State":"PA","Zip":"15234","Latitude":"40.365042\r\n","Longitude":"-80.0200782\r\n","IsGasStation":"true","IsActive":"true","IsPumpPerk":"true","AreaID":"106","MiscInfo":"<label>Diesel Available</label>"},{"StoreID":"145","Number":"0","Name":"Cecil","Address1":"3232 Millers Run Road (Winkle's Pit Stop)","City":"Cecil","State":"PA","Zip":"15321","Latitude":"40.3270248","Longitude":"-80.1911507","IsGasStation":"true","IsActive":"true","IsPumpPerk":"true","AreaID":"106"},{"StoreID":"112","Number":"2409","Name":"Century Square","Website":"","Address1":"2381 Mountain View Drive ","City":"West Mifflin","State":"PA","Zip":"15122","Hours":"Mon-Sun 7:00am-10:00pm","Hours2":"","Phone":"412-655-7090","PharmacyPhone":"","Fax":"412-655-8374","Latitude":"40.346544","Longitude":"-79.943604","IsGasStation":"false","IsActive":"true","IsPumpPerk":"false","AreaID":"96"},{"StoreID":"146","Number":"0","Name":"Cheswick","Address1":"1001 Pittsburgh Street","City":"Cheswick","State":"PA","Zip":"15024","Latitude":"40.43443","Longitude":"-80.02481","IsGasStation":"true","IsActive":"true","IsPumpPerk":"true","AreaID":"106"},{"StoreID":"147","Number":"0","Name":"Clarksburg","Address1":"\"15389 Route 286, Highway W\"","City":"Clarksburg","State":"PA","Zip":"15725","Latitude":"40.5355325","Longitude":"-79.3771621","IsGasStation":"true","IsActive":"true","IsPumpPerk":"true","AreaID":"106"},{"StoreID":"238","Number":"0","Name":"Coraopolis","Address1":"6700 University Blvd","City":"Coraopolis","State":"PA","Zip":"15108","Latitude":"40.46926","Longitude":"-80.14022","IsGasStation":"true","IsActive":"true","IsPumpPerk":"true","AreaID":"106"},{"StoreID":"37","Number":"1087","Name":"Coudersport","Website":"","Address1":"7 West Second St.","City":"Coudersport","State":"PA","Zip":"16915","Hours":"Mon-Fri 7am-8pm, Sat 8am - 8pm","Hours2":"Sun 8am-8pm","Phone":"814-274-9102","PharmacyPhone":"","Fax":"","Latitude":"41.774624","Longitude":"-78.02222","IsGasStation":"false","IsActive":"true","IsPumpPerk":"false","AreaID":"21"},{"StoreID":"150","Number":"0","Name":"Crabtree","Address1":"226 Roosevelt Way","City":"Crabtree","State":"PA","Zip":"15670","Latitude":"40.363528","Longitude":"-79.468942","IsGasStation":"true","IsActive":"true","IsPumpPerk":"true","AreaID":"106"},{"StoreID":"151","Number":"0","Name":"Crafton","Address1":"113 Noble Avenue","City":"Pittsburgh","State":"PA","Zip":"15205","Latitude":"40.4348262","Longitude":"-80.0655022","IsGasStation":"true","IsActive":"true","IsPumpPerk":"true","AreaID":"106"},{"StoreID":"152","Number":"0","Name":"Crafton","Address1":"2373 Noblestown Road","City":"Pittsburgh","State":"PA","Zip":"15205","Latitude":"40.4322","Longitude":"-80.1021","IsGasStation":"true","IsActive":"true","IsPumpPerk":"true","AreaID":"106"},{"StoreID":"38","Number":"1078","Name":"Cranberry Township","Website":"","Address1":"1197 Freedom Road","City":"Cranberry Twp.","State":"PA","Zip":"16066","Hours":"Mon-Sun 6:00am-Midnight","Hours2":"","Phone":"724-741-2600","PharmacyPhone":"","Fax":"724-741-2610","Latitude":"40.682677","Longitude":"-80.117716","IsGasStation":"false","IsActive":"true","IsPumpPerk":"false","AreaID":"22"},{"StoreID":"283","Number":"0","Name":"Cranberry Twp","Address1":"1165 Freedom","City":"Cranberry","State":"PA","Zip":"16066","Latitude":"40.682667","Longitude":"-80.127353","IsGasStation":"true","IsActive":"true","IsPumpPerk":"true","AreaID":"106"},{"StoreID":"39","Number":"1150","Name":"Cresson","Website":"","Address1":"1213 Second Avenue ","Address2":"","City":"Cresson","State":"PA","Zip":"16630","Hours":"Mon-Sat 7:00am-10:00pm","Hours2":"Sun 7:00am-9:00pm","Phone":"814-886-7221","PharmacyPhone":"","Fax":"814-886-2923","Latitude":"40.459618","Longitude":"-78.591481","IsGasStation":"false","IsActive":"true","IsPumpPerk":"false","AreaID":"23"},{"StoreID":"40","Number":"1044","Name":"Davis Express","Website":"","Address1":"371 Williams Avenue ","Address2":"","City":"Davis","State":"WV","Zip":"26260","Hours":"Mon-Sun 8:00-9:00 ","Hours2":"","Phone":"304-259-4836","PharmacyPhone":"","Fax":"304-259-5845","Latitude":"39.045186","Longitude":"-79.405575","IsGasStation":"false","IsActive":"true","IsPumpPerk":"false","AreaID":"24"},{"StoreID":"62","Number":"1077","Name":"Deep Creek","Website":"","Address1":"24586 Garrett Highway","City":"McHenry","State":"MD","Zip":"21541","Hours":"Sun-Thur 7:30am - 9:00pm","Hours2":"Fri-Sat 7:30am - 10:00pm","Phone":"","PharmacyPhone":"","Fax":"301-387-4075","Latitude":"39.561815","Longitude":"-79.357531","IsGasStation":"false","IsActive":"true","IsPumpPerk":"false","AreaID":"46"},{"StoreID":"153","Number":"0","Name":"Delmont","Address1":"2394 St Rte 66","City":"Delmont","State":"PA","Zip":"15626","Latitude":"40.36131","Longitude":"-79.57142","IsGasStation":"true","IsActive":"true","IsPumpPerk":"true","AreaID":"106"},{"StoreID":"154","Number":"0","Name":"Derry","Address1":"5556 Route 982","City":"Derry","State":"PA","Zip":"15627","Latitude":"40.35022","Longitude":"-79.40205","IsGasStation":"true","IsActive":"true","IsPumpPerk":"true","AreaID":"106"},{"StoreID":"57","Number":"1288","Name":"Devines","Website":"","Address1":"529 North Main Street ","City":"Hubbard","State":"OH","Zip":"44425","Hours":"Mon-Sat 7:00am-10:00pm","Hours2":"Sun 8:00am-9:00pm","Phone":"330-534-3625","PharmacyPhone":"","Fax":"330-534-4344","Latitude":"41.163536","Longitude":"-80.568967","IsGasStation":"false","IsActive":"true","IsPumpPerk":"false","AreaID":"41"},{"StoreID":"155","Number":"0","Name":"Dormont","Address1":"3100 West Liberty Avenue","City":"Dormont","State":"PA","Zip":"15216","Latitude":"40.3916034","Longitude":"-80.0389877","IsGasStation":"true","IsActive":"true","IsPumpPerk":"true","AreaID":"106"},{"StoreID":"324","Number":"0","Name":"Dual Hwy. Exxon","Address1":"1701 Dual Highway","City":"Hagerstown","State":"MD","Zip":"21740","Latitude":"39.615847","Longitude":"-77.692959","IsGasStation":"true","IsActive":"false","IsPumpPerk":"false","AreaID":"123"},{"StoreID":"156","Number":"0","Name":"Duquesne","Address1":"825 Duquesne Boulevard","City":"Duquesne","State":"PA","Zip":"15110","Latitude":"40.37206","Longitude":"-79.85382","IsGasStation":"true","IsActive":"true","IsPumpPerk":"true","AreaID":"106"},{"StoreID":"157","Number":"0","Name":"East Liberty","Address1":"121 N Negley Avenue","City":"Pittsburgh","State":"PA","Zip":"15203","Latitude":"40.464328","Longitude":"-79.930481","IsGasStation":"true","IsActive":"true","IsPumpPerk":"true","AreaID":"106"},{"StoreID":"158","Number":"0","Name":"East Liberty","Address1":"514 N Highland Ave","City":"Pittsburgh","State":"PA","Zip":"15206","Latitude":"40.4662891","Longitude":"-79.9223366","IsGasStation":"true","IsActive":"true","IsPumpPerk":"true","AreaID":"106"},{"StoreID":"160","Number":"0","Name":"East Pittsburgh","Address1":"Route 30 & Centre","City":"Pittsburgh","State":"PA","Zip":"15112","Latitude":"40.43443","Longitude":"-80.02481","IsGasStation":"true","IsActive":"true","IsPumpPerk":"true","AreaID":"106"},{"StoreID":"100","Number":"1794","Name":"East Rochester","Website":"","Address1":"750 Ohio River Blvd.","Address2":"","City":"Rochester","State":"PA","Zip":"15074","Hours":"Mon-Sun 7:00am-11:00pm","Hours2":"","Phone":"724-728-6728","PharmacyPhone":"","Fax":"724-728-8017","Latitude":"40.699121","Longitude":"-80.272744","IsGasStation":"false","IsActive":"true","IsPumpPerk":"false","AreaID":"84"},{"StoreID":"161","Number":"0","Name":"Economy, Freedon & Baden Area","Address1":"Rt. 989 & 2250 Conway Wallrose Run Rd.","City":"Economy","State":"PA","Zip":"15005","Latitude":"40.61841","Longitude":"-80.2041","IsGasStation":"true","IsActive":"true","IsPumpPerk":"true","AreaID":"106"},{"StoreID":"41","Number":"1217","Name":"Elkins Express","Website":"","Address1":"1513 Harrison Avenue ","Address2":"","City":"Elkins","State":"WV","Zip":"26241","Hours":"Mon-Sun 8:00am-9:00pm","Hours2":"","Phone":"304-636-7990","PharmacyPhone":"","Fax":"304-636-7411","Latitude":"38.931672","Longitude":"-79.86685","IsGasStation":"false","IsActive":"true","IsPumpPerk":"false","AreaID":"25"},{"StoreID":"349","Number":"0","Name":"Export Sunoco","Address1":"5690 William Penn Highway","City":"Export","State":"PA","Zip":"15632","Latitude":"40.4130246","Longitude":"-79.6334408","IsGasStation":"true","IsActive":"false","IsPumpPerk":"false","AreaID":"106"},{"StoreID":"42","Number":"1229","Name":"Fairchance","Website":"www.jamiesonfamilymarkets.com","Address1":"58 West Church Street ","Address2":"","City":"Fairchance","State":"PA","Zip":"15436","Hours":"Mon-Sun 7:00am-10:00pm","Hours2":"","Phone":"724-564-7810","PharmacyPhone":"","Fax":"724-564-1027","Latitude":"39.820683","Longitude":"-79.754627","IsGasStation":"false","IsActive":"true","IsPumpPerk":"false","AreaID":"26"},{"StoreID":"163","Number":"0","Name":"Farmington","Address1":"4142 National Pike","City":"Farmington","State":"PA","Zip":"15437","Latitude":"39.79741","Longitude":"-79.59676","IsGasStation":"true","IsActive":"true","IsPumpPerk":"true","AreaID":"106"},{"StoreID":"45","Number":"1091","Name":"Fillmore","Website":"","Address1":"44 Genesee St.","City":"Fillmore","State":"NY","Zip":"14735","Hours":"","Hours2":"","Phone":"585-567-2701","PharmacyPhone":"","Fax":"585-567-2701","Latitude":"42.461634","Longitude":"-78.112364","IsGasStation":"false","IsActive":"true","IsPumpPerk":"false","AreaID":"29"},{"StoreID":"277","Number":"0","Name":"Franklin SNS Crosby's Shell","Address1":"151 North 13th St.","City":"Franklin","State":"PA","Zip":"16323","Latitude":"41.404710","Longitude":"-79.832529","IsGasStation":"true","IsActive":"true","IsPumpPerk":"true","AreaID":"109"},{"StoreID":"325","Number":"0","Name":"Fredrick St. AC&T","Address1":"724 Fredrick St.","City":"Hagerstown","State":"MD","Zip":"21740","Latitude":"39.628264","Longitude":"-77.715301","IsGasStation":"true","IsActive":"false","IsPumpPerk":"false","AreaID":"123"},{"StoreID":"47","Number":"1092","Name":"Galeton","Website":"","Address1":"28 West Street","Address2":"","City":"Galeton","State":"PA","Zip":"16922","Hours":"","Hours2":"","Phone":"814-435-6532","PharmacyPhone":"","Fax":"","Latitude":"41.733949","Longitude":"-77.649951","IsGasStation":"false","IsActive":"true","IsPumpPerk":"false","AreaID":"31"},{"StoreID":"326","Number":"0","Name":"Garland Groh AC&T","Address1":"18141 Garland Groh Blvd.","City":"Hagerstown","State":"MD","Zip":"21742","Latitude":"39.662987","Longitude":"-77.744941","IsGasStation":"true","IsActive":"false","IsPumpPerk":"false","AreaID":"123"},{"StoreID":"164","Number":"0","Name":"Gibsonia","Address1":"5600 Williams Flynn Highway","City":"Gibsonia","State":"PA","Zip":"15044","Latitude":"40.43443","Longitude":"-80.02481","IsGasStation":"true","IsActive":"true","IsPumpPerk":"true","AreaID":"106"},{"StoreID":"87","Number":"2403","Name":"Glenshaw","Website":"www.mihelicshopnsaves.com/","Address1":"917 Butler Street","City":"Pittsburgh","State":"PA","Zip":"15223","Hours":"Mon-Sun 6:00am-11:00pm","Hours2":"","Phone":"412-487-1460","PharmacyPhone":"412-492-8724","Fax":"412-487-4302","Latitude":"40.511674","Longitude":"-79.948062","IsGasStation":"false","IsActive":"true","IsPumpPerk":"false","AreaID":"105"},{"StoreID":"162","Number":"0","Name":"Glenshaw","Address1":"1020 Mt Royal Blvd","City":"Pittsburgh","State":"PA","Zip":"15223","Latitude":"40.5174163","Longitude":"-79.9589694","IsGasStation":"true","IsActive":"true","IsPumpPerk":"true","AreaID":"106"},{"StoreID":"70","Number":"1072","Name":"Gold Crown","Website":"","Address1":"1309 Shoemaker Avenue","Address2":"","City":"Nanty Glo","State":"PA","Zip":"15943","Hours":"Mon-Sat 8am-9pm","Hours2":"Sun 8am-6pm","Phone":"814-749-0121","PharmacyPhone":"","Fax":"","Latitude":"40.467601","Longitude":"-78.836324","IsGasStation":"false","IsActive":"true","IsPumpPerk":"false","AreaID":"54"},{"StoreID":"49","Number":"1094","Name":"Gowanda","Website":"","Address1":"10 Buffalo Street","Address2":"","City":"Gowanda","State":"NY","Zip":"14070","Hours":"Mon-Sat 7am-9pm","Hours2":"Sun 8am-8pm","Phone":"716-532-5545","PharmacyPhone":"","Fax":"716-532-5543","Latitude":"42.464436","Longitude":"-78.934793","IsGasStation":"false","IsActive":"true","IsPumpPerk":"false","AreaID":"33"},{"StoreID":"50","Number":"1081","Name":"Grafton Express","Website":"","Address1":"57 Maple Avenue","Address2":"","City":"Grafton","State":"WV","Zip":"26354","Hours":"Mon-Sun 7am-9pm","Hours2":"","Phone":"304-265-2070","PharmacyPhone":"","Fax":"","Latitude":"39.337617","Longitude":"-80.024006","IsGasStation":"false","IsActive":"true","IsPumpPerk":"false","AreaID":"34"},{"StoreID":"51","Number":"1071","Name":"Grantsville","Website":"","Address1":"3249 Chestnut Ridge Road","Address2":"","City":"Grantsville","State":"MD","Zip":"21536","Hours":"Mon-Sat 8:00am - 9:00pm","Hours2":"Sun 8:00am - 7:00pm","Phone":"301-895-5153","PharmacyPhone":"","Fax":"301-895-5459","Latitude":"39.697347","Longitude":"-79.09873","IsGasStation":"false","IsActive":"true","IsPumpPerk":"false","AreaID":"35"},{"StoreID":"165","Number":"0","Name":"Greensburg","Address1":"31 Mt Pleasant Street","City":"Greensburg","State":"PA","Zip":"15601","Latitude":"40.34701","Longitude":"-79.50072","IsGasStation":"true","IsActive":"true","IsPumpPerk":"true","AreaID":"106"},{"StoreID":"166","Number":"0","Name":"Greensburg","Address1":"311 W. Otterman Street","City":"Greensburg","State":"PA","Zip":"15601","Latitude":"40.34701","Longitude":"-79.50072","IsGasStation":"true","IsActive":"true","IsPumpPerk":"true","AreaID":"106"},{"StoreID":"167","Number":"0","Name":"Greensburg","Address1":"5099 Route 30","City":"Greensburg","State":"PA","Zip":"15601","Latitude":"40.34701","Longitude":"-79.50072","IsGasStation":"true","IsActive":"true","IsPumpPerk":"true","AreaID":"106"},{"StoreID":"168","Number":"0","Name":"Greensburg","Address1":"140 W Pittsburgh Street","City":"Greensburg","State":"PA","Zip":"15601","Latitude":"40.34701","Longitude":"-79.50072","IsGasStation":"true","IsActive":"true","IsPumpPerk":"true","AreaID":"106"},{"StoreID":"169","Number":"0","Name":"Greensburg","Address1":"Humphrey & Todd Rds.","City":"Greensburg","State":"PA","Zip":"15601","Latitude":"40.34701","Longitude":"-79.50072","IsGasStation":"true","IsActive":"true","IsPumpPerk":"true","AreaID":"106"},{"StoreID":"342","Number":"0","Name":"Handy Mart  #11","Address1":"202 S. Commerce Ave.","City":"Front Royal","State":"VA","Zip":"22630","Latitude":"38.916128","Longitude":"-78.185292","IsGasStation":"true","IsActive":"false","IsPumpPerk":"false","AreaID":"115"},{"StoreID":"337","Number":"0","Name":"Handy Mart  #14","Address1":"992 Millwood Pike","City":"Winchester","State":"VA","Zip":"22602","Latitude":"39.160273","Longitude":"-78.154505","IsGasStation":"true","IsActive":"false","IsPumpPerk":"false","AreaID":"117"},{"StoreID":"339","Number":"0","Name":"Handy Mart  #17","Address1":"1208 Berryville Ave.","City":"Winchester","State":"VA","Zip":"22601","Latitude":"39.185491","Longitude":"-78.139929","IsGasStation":"true","IsActive":"false","IsPumpPerk":"false","AreaID":"117"},{"StoreID":"338","Number":"0","Name":"Handy Mart  #18","Address1":"1462 N. Fredrick Pike","City":"Winchester","State":"VA","Zip":"22603","Latitude":"39.210364","Longitude":"-78.177820","IsGasStation":"true","IsActive":"false","IsPumpPerk":"false","AreaID":"117"},{"StoreID":"341","Number":"0","Name":"Handy Mart  #19","Address1":"760 Warriors Ave.","City":"Stephens City","State":"VA","Zip":"22655","Latitude":"39.095492","Longitude":"-78.178237","IsGasStation":"true","IsActive":"false","IsPumpPerk":"false","AreaID":"117"},{"StoreID":"336","Number":"0","Name":"Handy Mart  #5","Address1":"1611 Senseny Rd.","City":"Winchester","State":"VA","Zip":"22601","Latitude":"39.168635","Longitude":"-78.132815","IsGasStation":"true","IsActive":"false","IsPumpPerk":"false","AreaID":"117"},{"StoreID":"340","Number":"0","Name":"Handy Mart  #6","Address1":"2605 Valley Ave.","City":"Winchester","State":"VA","Zip":"22601","Latitude":"39.155962","Longitude":"-78.187158","IsGasStation":"true","IsActive":"false","IsPumpPerk":"false","AreaID":"117"},{"StoreID":"335","Number":"0","Name":"Handy Mart #21","Address1":"8153 John Mosby Hwy","City":"Boyce","State":"VA","Zip":"22620","Latitude":"39.082226","Longitude":"-78.083824","IsGasStation":"true","IsActive":"false","IsPumpPerk":"false","AreaID":"117"},{"StoreID":"54","Number":"1116","Name":"Harrisville Express","Website":"","Address1":"1617 E Main St","Address2":"","City":"Harrisville","State":"WV","Zip":"26362","Hours":"Mon-Sun 8am-10pm","Hours2":"","Phone":"304-643-2230","PharmacyPhone":"","Fax":"","Latitude":"39.216029","Longitude":"-81.039619","IsGasStation":"false","IsActive":"true","IsPumpPerk":"false","AreaID":"38"},{"StoreID":"65","Number":"2100","Name":"Haymaker Village","Website":"","Address1":"4548 Broadway Blvd ","Address2":"","City":"Monroeville","State":"PA","Zip":"15146","Hours":"Mon-Sat 7:00-11:00","Hours2":"Sun 7:00-9:00","Phone":"412-858-5800","PharmacyPhone":"","Fax":"412-858-5806","Latitude":"40.39044","Longitude":"-79.765956","IsGasStation":"false","IsActive":"true","IsPumpPerk":"false","AreaID":"49"},{"StoreID":"34","Number":"2402","Name":"Heidelberg","Website":"","Address1":"2100 Washington Pike ","City":"Carnegie","State":"PA","Zip":"15106","Hours":"24 Hours","Hours2":"","Phone":"412-276-5130","PharmacyPhone":"","Fax":"412-276-3363","Latitude":"40.386926","Longitude":"-80.092413","IsGasStation":"false","IsActive":"true","IsPumpPerk":"false","AreaID":"18"},{"StoreID":"75","Number":"1495","Name":"Helds","Website":"","Address1":"Rt. 66 & 16th Street ","Address2":"","City":"North Apollo","State":"PA","Zip":"15673","Hours":"Mon-Sat 7:30-9:30","Hours2":"Sun 8:00-5:00","Phone":"724-478-4751","PharmacyPhone":"","Fax":"724-478-5787","Latitude":"40.594517","Longitude":"-79.560907","IsGasStation":"false","IsActive":"true","IsPumpPerk":"false","AreaID":"59"},{"StoreID":"352","Number":"0","Name":"Herminie","Address1":"3331 Clay Pike","City":"Herminie","State":"PA","Zip":"15637","Latitude":"40.2661321","Longitude":"-79.7208425","IsGasStation":"true","IsActive":"false","IsPumpPerk":"false","AreaID":"106"},{"StoreID":"88","Number":"1432","Name":"Holiday Park","Website":"","Address1":"2362 Route 286, Holiday Park Center","Address2":"","City":"Pittsburgh","State":"PA","Zip":"15239","Hours":"Mon-Sun 6:00am-12:00am","Hours2":"","Phone":"724-325-5400","PharmacyPhone":"","Fax":"724-325-5428","Latitude":"40.462907","Longitude":"-79.705591","IsGasStation":"false","IsActive":"true","IsPumpPerk":"false","AreaID":"72"},{"StoreID":"170","Number":"0","Name":"Homestead, Munhall","Address1":"2907 Homestead Duquesne","City":"Munhall","State":"PA","Zip":"15120","Latitude":"40.3913151","Longitude":"-79.8937517","IsGasStation":"true","IsActive":"true","IsPumpPerk":"true","AreaID":"106"},{"StoreID":"56","Number":"1096","Name":"Horseheads Jubilee","Website":"www.horseheadsjubilee.com","Address1":"2898 Westinghouse Road","Address2":"","City":"Horseheads","State":"NY","Zip":"14845","Hours":"Mon-Sun 6am-11pm","Hours2":"","Phone":"607-796-2191","PharmacyPhone":"","Fax":"","Latitude":"42.176079","Longitude":"-76.836319","IsGasStation":"false","IsActive":"true","IsPumpPerk":"false","AreaID":"40"},{"StoreID":"55","Number":"1039","Name":"Houtzdale Express","Website":"","Address1":"541 Spring Street","Address2":"","City":"Houtzdale","State":"PA","Zip":"16651","Hours":"Mon-Sat 8:00am - 9:00pm","Hours2":"Sun 5:00am - 5:00pm","Phone":"814-378-7659","PharmacyPhone":"","Fax":"814-378-8922","Latitude":"40.826784","Longitude":"-78.343291","IsGasStation":"false","IsActive":"true","IsPumpPerk":"false","AreaID":"39"},{"StoreID":"78","Number":"2404","Name":"Imperial","Website":"","Address1":"600 Market Place Drive ","City":"Oakdale","State":"PA","Zip":"15071","Hours":"24 Hours","Hours2":"","Phone":"724-695-1669","PharmacyPhone":"","Fax":"724-695-1857","Latitude":"40.496309","Longitude":"-80.224915","IsGasStation":"false","IsActive":"true","IsPumpPerk":"false","AreaID":"62"},{"StoreID":"171","Number":"0","Name":"Irwin","Address1":"12970 Route 30","City":"Irwin","State":"PA","Zip":"15642","Latitude":"40.36502","Longitude":"-79.58406","IsGasStation":"true","IsActive":"true","IsPumpPerk":"true","AreaID":"106"},{"StoreID":"172","Number":"0","Name":"Irwin","Address1":"9616 Route 30","City":"Irwin","State":"PA","Zip":"15642","Latitude":"40.36502","Longitude":"-79.58406","IsGasStation":"true","IsActive":"true","IsPumpPerk":"true","AreaID":"106"},{"StoreID":"173","Number":"0","Name":"Jeannette","Address1":"1275 College Ave","City":"Jeannette","State":"PA","Zip":"15644","Latitude":"40.37457","Longitude":"-79.40791","IsGasStation":"true","IsActive":"true","IsPumpPerk":"true","AreaID":"106"},{"StoreID":"174","Number":"0","Name":"Jeannette","Address1":"Route 30 & Lewis Avenue","City":"Jeannette","State":"PA","Zip":"15644","Latitude":"40.37457","Longitude":"-79.40791","IsGasStation":"true","IsActive":"true","IsPumpPerk":"true","AreaID":"106"},{"StoreID":"351","Number":"0","Name":"Jeannette","Address1":"1110 Lowry Ave","City":"Jeannette","State":"PA","Zip":"15644","Latitude":"40.3148633","Longitude":"-79.6190527","IsGasStation":"true","IsActive":"false","IsPumpPerk":"false","AreaID":"106"},{"StoreID":"328","Number":"0","Name":"Lappans AC&T","Address1":"8650 Sharpsburg Pike","City":"Fairplay","State":"MD","Zip":"21733","Latitude":"39.553678","Longitude":"-77.737943","IsGasStation":"true","IsActive":"false","IsPumpPerk":"false","AreaID":"112"},{"StoreID":"175","Number":"0","Name":"Large","Address1":"344 Route 51","City":"Large","State":"PA","Zip":"15025","Latitude":"40.3060219","Longitude":"-79.9352102","IsGasStation":"true","IsActive":"true","IsPumpPerk":"true","AreaID":"106"},{"StoreID":"159","Number":"0","Name":"Larimer","Address1":"6481 Frankstown Road","City":"Pittsburgh","State":"PA","Zip":"15206","Latitude":"40.4607869","Longitude":"-79.9139416","IsGasStation":"true","IsActive":"true","IsPumpPerk":"true","AreaID":"106"},{"StoreID":"58","Number":"1346","Name":"Latrobe","Website":"","Address1":"1910 Dailey Avenue ","City":"Latrobe","State":"PA","Zip":"15650","Hours":"Mon-Sat 7:00-10:00","Hours2":"Sun 7:00-7:00","Phone":"724-539-3080","PharmacyPhone":"","Fax":"724-539-2120","Latitude":"40.309574","Longitude":"-79.372981","IsGasStation":"false","IsActive":"true","IsPumpPerk":"false","AreaID":"42"},{"StoreID":"176","Number":"0","Name":"Latrobe","Address1":"124 Lloyd Avenue","City":"Latrobe","State":"PA","Zip":"15650","Latitude":"40.35577","Longitude":"-79.42196","IsGasStation":"true","IsActive":"true","IsPumpPerk":"true","AreaID":"106"},{"StoreID":"177","Number":"0","Name":"Latrobe","Address1":"\"3963 Route 30, Box 211\"","City":"Latrobe","State":"PA","Zip":"15650","Latitude":"40.35577","Longitude":"-79.42196","IsGasStation":"true","IsActive":"true","IsPumpPerk":"true","AreaID":"106"},{"StoreID":"178","Number":"0","Name":"Latrobe","Address1":"Lincoln Ave & James Street","City":"Latrobe","State":"PA","Zip":"15650","Latitude":"40.35577","Longitude":"-79.42196","IsGasStation":"true","IsActive":"true","IsPumpPerk":"true","AreaID":"106"},{"StoreID":"89","Number":"2406","Name":"Lawrenceville","Website":"","Address1":"450 56th Street ","City":"Pittsburgh","State":"PA","Zip":"15201","Hours":"Mon-Sun 7:00-10:00","Hours2":"","Phone":"412-784-8701","PharmacyPhone":"","Fax":"412-784-8732","Latitude":"40.48438","Longitude":"-79.947574","IsGasStation":"false","IsActive":"true","IsPumpPerk":"false","AreaID":"73"},{"StoreID":"179","Number":"0","Name":"Lawrenceville","Address1":"5013 Butler Street","City":"Pittsburgh","State":"PA","Zip":"15201","Latitude":"40.4783131","Longitude":"-79.9562027","IsGasStation":"true","IsActive":"true","IsPumpPerk":"true","AreaID":"106"},{"StoreID":"180","Number":"0","Name":"Leechburg","Address1":"265 Market Street","City":"Leechburg","State":"PA","Zip":"15656","Latitude":"40.63896","Longitude":"-79.61096","IsGasStation":"true","IsActive":"true","IsPumpPerk":"true","AreaID":"106"},{"StoreID":"264","Number":"0","Name":"Little General - Barrackville","Address1":"213 Pike St.","City":"Barrackville","State":"WV","Zip":"26559","Latitude":"39.5039551","Longitude":"-80.167091","IsGasStation":"true","IsActive":"true","IsPumpPerk":"true","AreaID":"107"},{"StoreID":"260","Number":"0","Name":"Little General - Cheat Lake SNS","Address1":"Rt. 310 East Grafton Rd.","City":"Fairmont","State":"WV","Zip":"26554","Latitude":"39.49411","Longitude":"-80.22128","IsGasStation":"true","IsActive":"true","IsPumpPerk":"true","AreaID":"107"},{"StoreID":"262","Number":"0","Name":"Little General - East Fairmont SNS","Address1":"I-79 Exit 139 Prickett's Fort","City":"Fairmont","State":"WV","Zip":"26554","Latitude":"39.49411","Longitude":"-80.22128","IsGasStation":"true","IsActive":"true","IsPumpPerk":"true","AreaID":"107"},{"StoreID":"261","Number":"0","Name":"Little General - Fairmont","Address1":"2395 White Hall Blvd","City":"Fairmont","State":"WV","Zip":"26554","Latitude":"39.435618","Longitude":"-80.183637","IsGasStation":"true","IsActive":"true","IsPumpPerk":"true","AreaID":"107"},{"StoreID":"263","Number":"0","Name":"Little General - Mannington SNS","Address1":"2988 White Hall Blvd","City":"Fairmont","State":"WV","Zip":"26554","Latitude":"39.49411","Longitude":"-80.22128","IsGasStation":"true","IsActive":"true","IsPumpPerk":"true","AreaID":"107"},{"StoreID":"266","Number":"0","Name":"Little General - South Fairmont SNS","Address1":"7530 Huskey Hwy Rt. 250","City":"North Farmington","State":"WV","Zip":"26571","Latitude":"39.50665","Longitude":"-80.25258","IsGasStation":"true","IsActive":"true","IsPumpPerk":"true","AreaID":"107"},{"StoreID":"267","Number":"0","Name":"Little General - South Fairmont SNS","Address1":"6 East Gate Plaza Rt. 7","City":"Morgantown","State":"WV","Zip":"26505","Latitude":"39.59532","Longitude":"-79.92287","IsGasStation":"true","IsActive":"true","IsPumpPerk":"true","AreaID":"107"},{"StoreID":"268","Number":"0","Name":"Little General - South Fairmont SNS","Address1":"1314 Grafton Rd","City":"Morgantown","State":"WV","Zip":"26508","Latitude":"39.59532","Longitude":"-79.92287","IsGasStation":"true","IsActive":"true","IsPumpPerk":"true","AreaID":"107"},{"StoreID":"181","Number":"0","Name":"Mars, Seven Fields","Address1":"675 Castle Creek Drive","City":"Mars","State":"PA","Zip":"16046","Latitude":"40.6849606","Longitude":"-80.0662502","IsGasStation":"true","IsActive":"true","IsPumpPerk":"true","AreaID":"106"},{"StoreID":"182","Number":"0","Name":"Mars, Seven Fields","Address1":"19090 Perry Highway","City":"Mars","State":"PA","Zip":"16046","Latitude":"40.67387","Longitude":"-80.0974133","IsGasStation":"true","IsActive":"true","IsPumpPerk":"true","AreaID":"106"},{"StoreID":"183","Number":"0","Name":"Masontown","Address1":"R.D. #1 Box 30","City":"Masontown","State":"PA","Zip":"15461","Latitude":"39.94577","Longitude":"-79.68183","IsGasStation":"true","IsActive":"true","IsPumpPerk":"true","AreaID":"106"},{"StoreID":"210","Number":"0","Name":"McCandless","Address1":"9100 Perry Highway","City":"Pittsburgh","State":"PA","Zip":"15237","Latitude":"40.5723509","Longitude":"-80.0365907","IsGasStation":"true","IsActive":"true","IsPumpPerk":"true","AreaID":"106"},{"StoreID":"184","Number":"0","Name":"McKees Rocks","Address1":"351 Stanhope Street","City":"Pittsburgh","State":"PA","Zip":"15204","Latitude":"40.4633641","Longitude":"-80.0562387","IsGasStation":"true","IsActive":"true","IsPumpPerk":"true","AreaID":"106"},{"StoreID":"185","Number":"0","Name":"McKeesport","Address1":"2105 Walnut Street","City":"McKeesport","State":"PA","Zip":"15132","Latitude":"40.40726","Longitude":"-80.04802","IsGasStation":"true","IsActive":"true","IsPumpPerk":"true","AreaID":"106"},{"StoreID":"186","Number":"0","Name":"McKeesport","Address1":"600 Lysle Boulevard","City":"McKeesport","State":"PA","Zip":"15132","Latitude":"40.40726","Longitude":"-80.04802","IsGasStation":"true","IsActive":"true","IsPumpPerk":"true","AreaID":"106"},{"StoreID":"187","Number":"0","Name":"McMurray","Address1":"120 East McMurray Road","City":"McMurray","State":"PA","Zip":"15317","Latitude":"40.2725393","Longitude":"-80.1257361","IsGasStation":"true","IsActive":"true","IsPumpPerk":"true","AreaID":"106"},{"StoreID":"188","Number":"0","Name":"Millvale","Address1":"1329 Babcock Blvd","City":"Millvale","State":"PA","Zip":"15209","Latitude":"40.4957371","Longitude":"-79.9768987","IsGasStation":"true","IsActive":"true","IsPumpPerk":"true","AreaID":"106"},{"StoreID":"189","Number":"0","Name":"Millvale","Address1":"300 Grant Avenue","City":"Millvale","State":"PA","Zip":"15209","Latitude":"40.4795703","Longitude":"-79.9721353","IsGasStation":"true","IsActive":"true","IsPumpPerk":"true","AreaID":"106"},{"StoreID":"190","Number":"0","Name":"Monroeville","Address1":"1855 Haymaker Road","City":"Monroeville","State":"PA","Zip":"15146","Latitude":"40.54811","Longitude":"-80.23688","IsGasStation":"true","IsActive":"true","IsPumpPerk":"true","AreaID":"106"},{"StoreID":"343","Number":"0","Name":"Monroeville","Address1":"2700 Mosside Blvd","City":"Monroeville","State":"PA","Zip":"15147","Latitude":"40.4342471","Longitude":"-79.7535382","IsGasStation":"true","IsActive":"false","IsPumpPerk":"false","AreaID":"106"},{"StoreID":"66","Number":"1439","Name":"Moorefield Express","Website":"","Address1":"Route 220 N MainSt","Address2":"","City":"Moorefield","State":"WV","Zip":"26836","Hours":"Mon-Sat 8:00am-9:00pm","Hours2":"Sun 9:00am-8:00pm","Phone":"304-538-6396","PharmacyPhone":"","Fax":"304-538-2955","Latitude":"39.072595","Longitude":"-78.965564","IsGasStation":"false","IsActive":"true","IsPumpPerk":"false","AreaID":"50"},{"StoreID":"68","Number":"1147","Name":"Mount Pleasant","Website":"","Address1":"210 North Diamond Street ","City":"Mt. Pleasant","State":"PA","Zip":"15666","Hours":"Mon-Sun 7:00am-10:00pm","Hours2":"","Phone":"724-547-3581","PharmacyPhone":"","Fax":"724-547-4098","Latitude":"40.151456","Longitude":"-79.538162","IsGasStation":"false","IsActive":"true","IsPumpPerk":"false","AreaID":"52"},{"StoreID":"90","Number":"1076","Name":"Mt Washington","Website":"","Address1":"125 Virginia Ave","City":"Pittsburgh","State":"PA","Zip":"15211","Hours":"Mon - Sat 7:00am -9:00pm","Hours2":"Sun - 8:00am - 9:00pm","Phone":"412-431-1566","PharmacyPhone":"","Fax":"412-381-1430","Latitude":"40.429554","Longitude":"-80.008192","IsGasStation":"false","IsActive":"true","IsPumpPerk":"false","AreaID":"74"},{"StoreID":"191","Number":"0","Name":"Mt. Lebanon","Address1":"1630 Cochran Road","City":"Pittsburgh","State":"PA","Zip":"15220","Latitude":"40.3904987","Longitude":"-80.0587845","IsGasStation":"true","IsActive":"true","IsPumpPerk":"true","AreaID":"106"},{"StoreID":"192","Number":"0","Name":"Mt. Lebanon","Address1":"339 Cochran Road","City":"Mount Lebanon","State":"PA","Zip":"15228","Latitude":"40.3826624","Longitude":"-80.0525753","IsGasStation":"true","IsActive":"true","IsPumpPerk":"true","AreaID":"106"},{"StoreID":"244","Number":"0","Name":"Mt. Lebanon","Address1":"1710 Washington Road","City":"Pittsburgh","State":"PA","Zip":"15241","Latitude":"40.348262","Longitude":"-80.0517043","IsGasStation":"true","IsActive":"true","IsPumpPerk":"true","AreaID":"106"},{"StoreID":"193","Number":"0","Name":"Mt. Oliver","Address1":"1643 Arlington (At 18th St)","City":"Pittsburgh","State":"PA","Zip":"15210","Latitude":"40.417915","Longitude":"-79.9850892","IsGasStation":"true","IsActive":"true","IsPumpPerk":"true","AreaID":"106"},{"StoreID":"194","Number":"0","Name":"Mt. Oliver","Address1":"427 Brownsville Road","City":"Mount Oliver","State":"PA","Zip":"15210","Latitude":"40.4122307","Longitude":"-79.9873363","IsGasStation":"true","IsActive":"true","IsPumpPerk":"true","AreaID":"106"},{"StoreID":"195","Number":"0","Name":"Mt. Pleasant","Address1":"819 W. Main Street","City":"Mt. Pleasant","State":"PA","Zip":"15666","Latitude":"40.20221","Longitude":"-79.60998","IsGasStation":"true","IsActive":"true","IsPumpPerk":"true","AreaID":"106"},{"StoreID":"196","Number":"0","Name":"Mt. Washington","Address1":"304 Virginia Ave.","City":"Pittsburgh","State":"PA","Zip":"15211","Latitude":"40.4313433","Longitude":"-80.0107503","IsGasStation":"true","IsActive":"true","IsPumpPerk":"true","AreaID":"106"},{"StoreID":"197","Number":"0","Name":"Munhall","Address1":"5204 Interboro Avenue","City":"Pittsburgh","State":"PA","Zip":"15207","Latitude":"40.3702181","Longitude":"-79.9131837","IsGasStation":"true","IsActive":"true","IsPumpPerk":"true","AreaID":"106"},{"StoreID":"69","Number":"1271","Name":"Murrysville","Website":"www.shopnsavefood.com/Retailer/Charley/Charleys-ShopnSave-App","Address1":"4536 William Penn Highway","City":"Murrysville","State":"PA","Zip":"15668","Hours":"Mon-Sat 7 AM - 11 PM","Hours2":"Sun 7 AM - 9 PM","Phone":"724-733-0556","PharmacyPhone":"","Fax":"","Latitude":"40.425571","Longitude":"-79.672127","IsGasStation":"false","IsActive":"true","IsPumpPerk":"false","AreaID":"53"},{"StoreID":"198","Number":"0","Name":"Murrysville","Address1":"3980 Wm Penn Highway","City":"Murrysville","State":"PA","Zip":"15668","Latitude":"40.42329","Longitude":"-79.66328","IsGasStation":"true","IsActive":"true","IsPumpPerk":"true","AreaID":"106"},{"StoreID":"199","Number":"0","Name":"N. Belle Vernon","Address1":"15 Fayette St. at I-70","City":"North Belle Vernon","State":"PA","Zip":"15012","Latitude":"40.07026","Longitude":"-79.60342","IsGasStation":"true","IsActive":"true","IsPumpPerk":"true","AreaID":"106"},{"StoreID":"323","Number":"0","Name":"N. Martinsburg Exxon","Address1":"823 Warm Springs Rd.","City":"Martinsburg","State":"WV","Zip":"25401","Latitude":"39.490707","Longitude":"-77.958022","IsGasStation":"true","IsActive":"false","IsPumpPerk":"false","AreaID":"107"},{"StoreID":"200","Number":"0","Name":"N. Versailles Twp","Address1":"903 Lincoln Hwy","City":"North Versailles","State":"PA","Zip":"15137","Latitude":"40.3787891","Longitude":"-79.8068157","IsGasStation":"true","IsActive":"true","IsPumpPerk":"true","AreaID":"106"},{"StoreID":"71","Number":"1121","Name":"Naples","Website":"","Address1":"136 South Main Street","Address2":"","City":"Naples","State":"NY","Zip":"14512","Hours":"Mon-Sun 7am-10pm","Hours2":"","Phone":"","PharmacyPhone":"","Fax":"","Latitude":"42.613844","Longitude":"-77.402716","IsGasStation":"false","IsActive":"true","IsPumpPerk":"false","AreaID":"55"},{"StoreID":"201","Number":"0","Name":"New Castle","Address1":"1717 Wilmington Road","City":"New Castle","State":"PA","Zip":"16105","Latitude":"41.02405","Longitude":"-80.34544","IsGasStation":"true","IsActive":"true","IsPumpPerk":"true","AreaID":"106"},{"StoreID":"202","Number":"0","Name":"New Castle","Address1":"719 E. Washington Road","City":"New Castle","State":"PA","Zip":"16101","Latitude":"40.96451","Longitude":"-80.30073","IsGasStation":"true","IsActive":"true","IsPumpPerk":"true","AreaID":"106"},{"StoreID":"73","Number":"1214","Name":"New Kensington","Website":"","Address1":"336 City Central Plaza","Address2":"","City":"New Kensington","State":"PA","Zip":"15068","Hours":"Mon-Sat 8:00am-9:00pm","Hours2":"Sun 8:00am-8:00pm","Phone":"724-339-7283","PharmacyPhone":"","Fax":"","Latitude":"40.564371","Longitude":"-79.765908","IsGasStation":"false","IsActive":"true","IsPumpPerk":"false","AreaID":"57"},{"StoreID":"203","Number":"0","Name":"New Kensington","Address1":"2033 Freeport Rd. & Murray Ave.","City":"New Kensington","State":"PA","Zip":"15068","Latitude":"40.47882","Longitude":"-79.5815","IsGasStation":"true","IsActive":"true","IsPumpPerk":"true","AreaID":"106"},{"StoreID":"204","Number":"0","Name":"New Kensington","Address1":"298 Freeport Street","City":"New Kensington","State":"PA","Zip":"15068","Latitude":"40.47882","Longitude":"-79.5815","IsGasStation":"true","IsActive":"true","IsPumpPerk":"true","AreaID":"106"},{"StoreID":"205","Number":"0","Name":"New Kensington","Address1":"Rt. 366 & Caldwell","City":"New Kensington","State":"PA","Zip":"15068","Latitude":"40.47882","Longitude":"-79.5815","IsGasStation":"true","IsActive":"true","IsPumpPerk":"true","AreaID":"106"},{"StoreID":"206","Number":"0","Name":"New Salem","Address1":"6718 National Pke (RT 40)","City":"New Salem","State":"PA","Zip":"15468","Latitude":"39.94183","Longitude":"-79.84103","IsGasStation":"true","IsActive":"true","IsPumpPerk":"true","AreaID":"106"},{"StoreID":"207","Number":"0","Name":"New Stanton","Address1":"106 N. Center Street","City":"New Stanton","State":"PA","Zip":"15672","Latitude":"40.24375","Longitude":"-79.65843","IsGasStation":"true","IsActive":"true","IsPumpPerk":"true","AreaID":"106"},{"StoreID":"74","Number":"2125","Name":"Newton Falls","Website":"","Address1":"37 Ridge Road","City":"Newton Falls","State":"OH","Zip":"44444","Hours":"Mon-Sun 8:00am-9:00pm","Hours2":"","Phone":"330-872-0134","PharmacyPhone":"","Fax":"330-872-9907","Latitude":"41.190399","Longitude":"-80.978855","IsGasStation":"false","IsActive":"true","IsPumpPerk":"false","AreaID":"58"},{"StoreID":"91","Number":"2412","Name":"Noblestown","Website":"","Address1":"2103 Noblestown Road ","City":"Pittsburgh","State":"PA","Zip":"15205","Hours":"Mon-Sun 6:00am-10:00pm","Hours2":"","Phone":"412-921-0117","PharmacyPhone":"","Fax":"412-919-0688","Latitude":"40.4306668","Longitude":"-80.05415","IsGasStation":"false","IsActive":"true","IsPumpPerk":"false","AreaID":"75"},{"StoreID":"208","Number":"0","Name":"North Apollo","Address1":"1826 River Road","City":"North Apollo","State":"PA","Zip":"15673","Latitude":"40.5970811","Longitude":"-79.5593597","IsGasStation":"true","IsActive":"true","IsPumpPerk":"true","AreaID":"106"},{"StoreID":"211","Number":"0","Name":"North Huntington","Address1":"9299 Route 30","City":"North Huntington","State":"PA","Zip":"15642","Latitude":"40.3223158","Longitude":"-79.6950426","IsGasStation":"true","IsActive":"true","IsPumpPerk":"true","AreaID":"106"},{"StoreID":"220","Number":"0","Name":"North Side","Address1":"310 Cedar Avenue","City":"Pittsburgh","State":"PA","Zip":"15212","Latitude":"40.451364","Longitude":"-80.0005781","IsGasStation":"true","IsActive":"true","IsPumpPerk":"true","AreaID":"106"},{"StoreID":"353","Number":"1149","Name":"Norwin Town Square","Address1":"12120 US Route 30","City":"North Huntingdon","State":"PA","Zip":"15642","Hours":"Sun - Sat 7 AM - 10 PM","Hours2":"","Phone":"724-515-2148","Fax":"724-515-7941","Latitude":"40.3316059","Longitude":"-79.7439798","IsGasStation":"false","IsActive":"false","IsPumpPerk":"false","AreaID":"60"},{"StoreID":"77","Number":"1124","Name":"Nunda","Website":"","Address1":"9045 Route 408","City":"Nunda","State":"NY","Zip":"14517","Hours":"Mon-Sun 7am-9pm","Hours2":"","Phone":"","PharmacyPhone":"","Fax":"","Latitude":"42.58843","Longitude":"-77.940209","IsGasStation":"false","IsActive":"true","IsPumpPerk":"false","AreaID":"61"},{"StoreID":"278","Number":"1082","Name":"Oakland Express","Website":"","Address1":"406 Weber Road","Address2":"","City":"Oaklane ","State":"MD","Zip":"21550","Hours":"Mon-Thur 8am-930pm","Hours2":"Sat 8am-10pm\r\nSun 9am-9pm","Phone":"301-334-4411","Latitude":"39.401942","Longitude":"-79.391225","IsGasStation":"false","IsActive":"true","IsPumpPerk":"true","AreaID":"110"},{"StoreID":"63","Number":"1030","Name":"Olympia","Website":"","Address1":"4313 Walnut Street Store Front #4","City":"McKeesport","State":"PA","Zip":"15132","Hours":"Sun-Sat 7:00am-10:00pm","Hours2":"","Phone":"412-751-6789","PharmacyPhone":"","Fax":"412-751-4257","Latitude":"40.321469","Longitude":"-79.835544","IsGasStation":"false","IsActive":"true","IsPumpPerk":"false","AreaID":"47"},{"StoreID":"213","Number":"0","Name":"Overbrook, Pittsburgh","Address1":"601 McNeilly Rd.","City":"Pittsburgh","State":"PA","Zip":"15226","Latitude":"40.40014","Longitude":"-80.01607","IsGasStation":"true","IsActive":"true","IsPumpPerk":"true","AreaID":"106"},{"StoreID":"79","Number":"1097","Name":"Palmyra Express","Website":"","Address1":"611 E. Main St. Rt. 31","City":"Palmyra","State":"NY","Zip":"14522","Hours":"Mon-Sun 7am-9pm","Hours2":"","Phone":"315-597-9509","PharmacyPhone":"","Fax":"","Latitude":"43.062711","Longitude":"-77.220669","IsGasStation":"false","IsActive":"true","IsPumpPerk":"false","AreaID":"63"},{"StoreID":"80","Number":"1538","Name":"Parsons Express","Website":"","Address1":"302 D&W Lane","City":"Parsons","State":"WV","Zip":"26287","Hours":"Mon-Sun 8:00am-10:00pm","Hours2":"","Phone":"304-478-4803","PharmacyPhone":"","Fax":"304-478-4945","Latitude":"39.097445","Longitude":"-79.680963","IsGasStation":"false","IsActive":"true","IsPumpPerk":"false","AreaID":"64"},{"StoreID":"92","Number":"1540","Name":"Penn Hills","Website":"","Address1":"2820 Universal Road ","Address2":"","City":"Pittsburgh","State":"PA","Zip":"15235","Hours":"Mon-Sun 6:00am-12:00am","Hours2":"","Phone":"412-798-9680","PharmacyPhone":"","Fax":"412-798-0984","Latitude":"40.478333","Longitude":"-79.784686","IsGasStation":"false","IsActive":"true","IsPumpPerk":"false","AreaID":"76"},{"StoreID":"214","Number":"0","Name":"Penn Hills","Address1":"600 Rodi Road","City":"Pittsburgh","State":"PA","Zip":"15235","Latitude":"40.4493014","Longitude":"-79.8273842","IsGasStation":"true","IsActive":"true","IsPumpPerk":"true","AreaID":"106"},{"StoreID":"215","Number":"0","Name":"Penn Hills","Address1":"6500 Saltsburg Road","City":"Penn Hills Township","State":"PA","Zip":"15235","Latitude":"40.3986","Longitude":"-80.00085","IsGasStation":"true","IsActive":"true","IsPumpPerk":"true","AreaID":"106"},{"StoreID":"216","Number":"0","Name":"Penn Hills, Eastmont","Address1":"3899 Old William Penn Highway","City":"Pittsburgh","State":"PA","Zip":"15235","Latitude":"40.4441851","Longitude":"-79.8135287","IsGasStation":"true","IsActive":"true","IsPumpPerk":"true","AreaID":"106"},{"StoreID":"81","Number":"1068","Name":"Petersburg Express","Website":"","Address1":"442 Virginia Avenue","Address2":"","City":"Petersburg","State":"WV","Zip":"26847","Hours":"Mon-Sun 7am-10pm","Hours2":"","Phone":"304-257-2988","PharmacyPhone":"","Fax":"","Latitude":"38.993939","Longitude":"-79.111991","IsGasStation":"false","IsActive":"true","IsPumpPerk":"false","AreaID":"65"},{"StoreID":"82","Number":"1112","Name":"Philippi Express","Website":"","Address1":"1 Swamp Lane","Address2":"","City":"Philippi","State":"WV","Zip":"26416","Hours":"Mon-Sun 7:00am-9:00pm","Hours2":"","Phone":"304-457-1890","PharmacyPhone":"","Fax":"304-457-1891","Latitude":"39.144873","Longitude":"-80.03583","IsGasStation":"false","IsActive":"true","IsPumpPerk":"false","AreaID":"66"},{"StoreID":"93","Number":"1325","Name":"Pines Plaza","Website":"www.mihelicshopnsaves.com/","Address1":"1130 Perry Highway ","City":"Pittsburgh","State":"PA","Zip":"15237","Hours":"Mon-Sat 7:00am-10:00pm","Hours2":"Sun 7:00am-9:00pm","Phone":"412-367-5115","PharmacyPhone":"","Fax":"412-348-0100","Latitude":"40.547657","Longitude":"-80.036406","IsGasStation":"false","IsActive":"true","IsPumpPerk":"false","AreaID":"77"},{"StoreID":"217","Number":"0","Name":"Pitcairn","Address1":"Broadway & Center Street","City":"Pitcairn","State":"PA","Zip":"15140","Latitude":"40.401518","Longitude":"-79.7765612","IsGasStation":"true","IsActive":"true","IsPumpPerk":"true","AreaID":"106"},{"StoreID":"52","Number":"1060","Name":"Pittsburgh Street","Website":"www.shopnsavefood.com/Retailer/Charley/Charleys-ShopnSave-App","Address1":"730 East Pittsburgh Street ","City":"Greensburg","State":"PA","Zip":"15601","Hours":"Mon-Sat 7:00-11:00","Hours2":"Sun 7:00-9:00","Phone":"724-834-4470","PharmacyPhone":"724-853-3254","Fax":"724-834-9281","Latitude":"40.302636","Longitude":"-79.524944","IsGasStation":"false","IsActive":"true","IsPumpPerk":"false","AreaID":"36"},{"StoreID":"224","Number":"0","Name":"Pittsburgh, Hill District","Address1":"2350 Centre Avenue","City":"Pittsburgh","State":"PA","Zip":"15219","Latitude":"40.37535","Longitude":"-80.01707","IsGasStation":"true","IsActive":"true","IsPumpPerk":"true","AreaID":"106"},{"StoreID":"221","Number":"0","Name":"Pittsburgh, Oakland","Address1":"195 North Craig Street","City":"Pittsburgh","State":"PA","Zip":"15213","Latitude":"40.449451","Longitude":"-79.9509173","IsGasStation":"true","IsActive":"true","IsPumpPerk":"true","AreaID":"106"},{"StoreID":"222","Number":"0","Name":"Pittsburgh, Oakland","Address1":"301 Craft Avenue","City":"Pittsburgh","State":"PA","Zip":"15213","Latitude":"40.4356181","Longitude":"-79.9608687","IsGasStation":"true","IsActive":"true","IsPumpPerk":"true","AreaID":"106"},{"StoreID":"218","Number":"0","Name":"Pittsburgh, Southside","Address1":"2401 East Carson St.","City":"Pittsburgh","State":"PA","Zip":"15203","Latitude":"40.4285057","Longitude":"-79.9708035","IsGasStation":"true","IsActive":"true","IsPumpPerk":"true","AreaID":"106"},{"StoreID":"225","Number":"0","Name":"Pleasant Hills","Address1":"104 Clairton Boulevard","City":"Pleasant Hills","State":"PA","Zip":"15236","Latitude":"40.3387026","Longitude":"-79.9598431","IsGasStation":"true","IsActive":"true","IsPumpPerk":"true","AreaID":"106"},{"StoreID":"228","Number":"0","Name":"Pleasant Hills","Address1":"575 Old Clairton Rd","City":"Pleasant Hills","State":"PA","Zip":"15236","Latitude":"40.3259741","Longitude":"-79.9561947","IsGasStation":"true","IsActive":"true","IsPumpPerk":"true","AreaID":"106"},{"StoreID":"322","Number":"1135","Name":"Pleasant Hills","Address1":"649 Old Clairton Rd","City":"Pleasant Hills","State":"PA","Zip":"15236","Hours":"Mon-Sun 7:00am - 10:00pm","Phone":"412-655-1755","Fax":"412-655-1756","Latitude":"40.3242622","Longitude":"-79.9590808","IsGasStation":"false","IsActive":"false","IsPumpPerk":"false","AreaID":"52"},{"StoreID":"237","Number":"0","Name":"Plum - Penn Hills","Address1":"255 Unity Center Road","City":"Pittsburgh","State":"PA","Zip":"15239","Latitude":"40.4899975","Longitude":"-79.7805172","IsGasStation":"true","IsActive":"true","IsPumpPerk":"true","AreaID":"106"},{"StoreID":"98","Number":"1099","Name":"Port Allegany","Website":"","Address1":"50 West Mill Street","Address2":"","City":"Port Allegany","State":"PA","Zip":"16743","Hours":"","Hours2":"","Phone":"814-642-2034","PharmacyPhone":"","Fax":"","Latitude":"41.809852","Longitude":"-78.282373","IsGasStation":"false","IsActive":"true","IsPumpPerk":"false","AreaID":"82"},{"StoreID":"276","Number":"0","Name":"Punxsutawney SNS","Address1":"22727 Rt. 119","City":"Punxsutawney","State":"PA","Zip":"15767","Latitude":"40.94453","Longitude":"-78.97984","IsGasStation":"true","IsActive":"true","IsPumpPerk":"true","AreaID":"108"},{"StoreID":"284","Number":"1544","Name":"Punxsy SHOP 'n Save","Address1":"201 North Hampton Ave","City":"Punxsutawney","State":"PA","Zip":"15767","Hours":"24 hrs","Phone":"814-938-2820","Fax":"814-938-5960","Latitude":"40.945635","Longitude":"-78.967519","IsGasStation":"false","IsActive":"true","IsPumpPerk":"true","AreaID":"107"},{"StoreID":"99","Number":"1420","Name":"Reedsville Express","Website":"","Address1":"PO Box 680 ","Address2":"","City":"Reedsville","State":"WV","Zip":"26547","Hours":"Mon-Sat 7am-830pm","Hours2":"Mon-Sat 7am-830pm","Phone":"304-864-5150","PharmacyPhone":"","Fax":"304-864-6034","Latitude":"39.512947","Longitude":"-79.806318","IsGasStation":"false","IsActive":"true","IsPumpPerk":"false","AreaID":"83"},{"StoreID":"297","Number":"0","Name":"Ridge Road","Address1":"37 Ridge Road","City":"Newton Falls","State":"OH","Zip":"44444","Latitude":"41.1901527","Longitude":"-80.9811211","IsGasStation":"true","IsActive":"false","IsPumpPerk":"false","AreaID":"113"},{"StoreID":"229","Number":"0","Name":"Rochester","Address1":"854 Ohio River Blvd.","City":"Rochester","State":"PA","Zip":"15074","Latitude":"40.68647","Longitude":"-80.32653","IsGasStation":"true","IsActive":"true","IsPumpPerk":"true","AreaID":"106"},{"StoreID":"94","Number":"1118","Name":"Rochester Road","Website":"www.mihelicshopnsaves.com","Address1":"184 Rochester Rd ","City":"Pittsburgh","State":"PA","Zip":"15229","Hours":"Mon-Sat 7:00am-10:00pm","Hours2":"Sun 7am-9pm","Phone":"412-931-0743","PharmacyPhone":"","Fax":"412-931-2541","Latitude":"40.520166","Longitude":"-80.017787","IsGasStation":"false","IsActive":"true","IsPumpPerk":"false","AreaID":"104"},{"StoreID":"209","Number":"0","Name":"Ross Township","Address1":"3278 Babcock Blvd.","City":"Pittsburgh","State":"PA","Zip":"15237","Latitude":"40.5303765","Longitude":"-80.0177849","IsGasStation":"true","IsActive":"true","IsPumpPerk":"true","AreaID":"106"},{"StoreID":"64","Number":"1038","Name":"Ross's Fifth Ave","Website":"","Address1":"815 Fifth Avenue","Address2":"","City":"McKeesport","State":"PA","Zip":"15132","Hours":"Mon-Sun 7:00am-9:00pm","Hours2":"","Phone":"412-672-7820","PharmacyPhone":"","Fax":"412-672-5972","Latitude":"40.354099","Longitude":"-79.856443","IsGasStation":"false","IsActive":"true","IsPumpPerk":"false","AreaID":"48"},{"StoreID":"29","Number":"1053","Name":"Rostraver","Website":"","Address1":"600 Willowbrook Plaza","City":"Belle Vernon","State":"PA","Zip":"15012","Hours":"Mon-Sat 6:00am-11:00pm","Hours2":"Sun 7:00am-10:00pm","Phone":"724-379-9000","PharmacyPhone":"","Fax":"724-379-0133","Latitude":"40.184775","Longitude":"-79.810299","IsGasStation":"false","IsActive":"true","IsPumpPerk":"false","AreaID":"13"},{"StoreID":"230","Number":"0","Name":"Rostraver","Address1":"3405 Street Route 51 (Intersection of I-70 & 51)","City":"Rostraver","State":"PA","Zip":"15012","Latitude":"40.1580775","Longitude":"-79.7775583","IsGasStation":"true","IsActive":"true","IsPumpPerk":"true","AreaID":"106"},{"StoreID":"53","Number":"1270","Name":"Route 66","Website":"www.shopnsavefood.com/Retailer/Charley/Charleys-ShopnSave-App","Address1":"990 North Main Street ","City":"Greensburg","State":"PA","Zip":"15601","Hours":"Mon-Sat 7:00am-11:00pm","Hours2":"Sun 8:00am-11:00pm","Phone":"724-834-5714","PharmacyPhone":"","Fax":"724-834-7212","Latitude":"40.326737","Longitude":"-79.546273","IsGasStation":"false","IsActive":"true","IsPumpPerk":"false","AreaID":"37"},{"StoreID":"48","Number":"2405","Name":"Route 8","Website":"www.mihelicshopnsaves.com","Address1":"RD #3, 5375 William Flynn Highway ","City":"Gibsonia","State":"PA","Zip":"15044","Hours":"Mon-Sun 6:00am-10:00pm","Hours2":"","Phone":"724-443-8420","PharmacyPhone":"724-443-5990","Fax":"724-443-1861","Latitude":"40.619963","Longitude":"-79.944656","IsGasStation":"false","IsActive":"true","IsPumpPerk":"false","AreaID":"32"},{"StoreID":"101","Number":"1560","Name":"Russellton","Website":"","Address1":"Box 67 Deer Lakes Plaza ","Address2":"","City":"Russellton","State":"PA","Zip":"15076","Hours":"Mon-Sat 8:00am-10:00pm","Hours2":"Sun 8:00am-7:00pm","Phone":"724-265-2858","PharmacyPhone":"","Fax":"724-265-2849","Latitude":"40.613952","Longitude":"-79.837303","IsGasStation":"false","IsActive":"true","IsPumpPerk":"false","AreaID":"85"},{"StoreID":"102","Number":"1566","Name":"Saltsburg","Website":"","Address1":"543 Salt Street ","Address2":"","City":"Saltsburg","State":"PA","Zip":"15681","Hours":"Mon-Sat 7:00am-11:00pm","Hours2":"Sun 9:00am-7:00pm","Phone":"724-639-3637","PharmacyPhone":"","Fax":"724-639-3200","Latitude":"40.486192","Longitude":"-79.450765","IsGasStation":"false","IsActive":"true","IsPumpPerk":"false","AreaID":"86"},{"StoreID":"232","Number":"0","Name":"Saltsburg","Address1":"2687 Rt. 286 (2937)","City":"Saltsburg","State":"PA","Zip":"15681","Latitude":"40.54287","Longitude":"-79.3978","IsGasStation":"true","IsActive":"true","IsPumpPerk":"true","AreaID":"106"},{"StoreID":"233","Number":"0","Name":"Scottdale","Address1":"800 Water Street","City":"Scottsdale","State":"PA","Zip":"15683","Latitude":"40.1093501","Longitude":"-79.5847636","IsGasStation":"true","IsActive":"true","IsPumpPerk":"true","AreaID":"106"},{"StoreID":"95","Number":"1581","Name":"Shaler","Website":"www.edandmarks.com/","Address1":"1620 Babcock Blvd.","Address2":"","City":"Pittsburgh","State":"PA","Zip":"15209","Hours":"Mon-Sat 7:00am-9:00pm","Hours2":"Sun 7:00am-7:00pm","Phone":"412-821-1400","PharmacyPhone":"","Fax":"412-821-1840","Latitude":"40.499222","Longitude":"-79.979364","IsGasStation":"false","IsActive":"true","IsPumpPerk":"false","AreaID":"79"},{"StoreID":"329","Number":"0","Name":"Sharpsburg Pike AC&T","Address1":"1449 South Potomac Rd.","City":"Hagerstown","State":"MD","Zip":"21740","Latitude":"39.609499","Longitude":"-77.729859","IsGasStation":"true","IsActive":"false","IsPumpPerk":"false","AreaID":"123"},{"StoreID":"103","Number":"1105","Name":"Shinglehouse","Website":"","Address1":"115 North Mill St., PO Box 119","Address2":"","City":"Shinglehouse","State":"PA","Zip":"16748","Hours":"","Hours2":"","Phone":"814-697-7145","PharmacyPhone":"","Fax":"","Latitude":"41.963607","Longitude":"-78.190212","IsGasStation":"false","IsActive":"true","IsPumpPerk":"false","AreaID":"87"},{"StoreID":"234","Number":"0","Name":"Smithfield","Address1":"25 Main Street","City":"Smithfield","State":"PA","Zip":"15478","Latitude":"39.8042271","Longitude":"-79.8050047","IsGasStation":"true","IsActive":"true","IsPumpPerk":"true","AreaID":"106"},{"StoreID":"333","Number":"0","Name":"Smithsburg Exxon","Address1":"22507 Jefferson Blvd","City":"Smithsburg","State":"MD","Zip":"21783","Latitude":"39.642323","Longitude":"-77.585341","IsGasStation":"true","IsActive":"false","IsPumpPerk":"false","AreaID":"112"},{"StoreID":"124","Number":"0","Name":"SNS Express - Devine's SHOP 'n SAVE Express","Address1":"368 N. Main St.","City":"Hubbard","State":"Oh","Zip":"44425","Latitude":"41.160968","Longitude":"-80.569429","IsGasStation":"true","IsActive":"true","IsPumpPerk":"true","AreaID":"106"},{"StoreID":"120","Number":"0","Name":"SNS Express - Glenshaw","Address1":"917 Butler Street","City":"Pittsburgh","State":"PA","Zip":"15223","Latitude":"40.511424","Longitude":"-79.949159","IsGasStation":"true","IsActive":"true","IsPumpPerk":"true","AreaID":"106"},{"StoreID":"123","Number":"0","Name":"SNS Express - Rochester Road","Address1":"184 Rochester Rd","City":"Pittsburgh","State":"PA","Zip":"15229","Latitude":"40.43443","Longitude":"-80.02481","IsGasStation":"true","IsActive":"true","IsPumpPerk":"true","AreaID":"106"},{"StoreID":"122","Number":"0","Name":"SNS Express - Wilkins Township","Address1":"3335 William Penn Highway","City":"Pittsburgh","State":"PA","Zip":"15235","Latitude":"40.432257","Longitude":"-79.8162104","IsGasStation":"true","IsActive":"true","IsPumpPerk":"true","AreaID":"106"},{"StoreID":"285","Number":"0","Name":"South Fairmont SNS Fuel Center","Address1":"1208 Fairmont Ave","City":"Fairmont","State":"WV","Zip":"26554","Latitude":"39.468470","Longitude":"-80.155097","IsGasStation":"true","IsActive":"false","IsPumpPerk":"false","AreaID":"107"},{"StoreID":"269","Number":"0","Name":"South Fairmont SNS In & Out","Address1":"1501 Locust St.","City":"Fairmont","State":"WV","Zip":"26554","Latitude":"39.49411","Longitude":"-80.22128","IsGasStation":"true","IsActive":"true","IsPumpPerk":"true","AreaID":"107"},{"StoreID":"236","Number":"0","Name":"South Park","Address1":"5660 Brownsville Rd.","City":"South Park","State":"PA","Zip":"15236","Latitude":"40.330742","Longitude":"-79.9876707","IsGasStation":"true","IsActive":"true","IsPumpPerk":"true","AreaID":"106"},{"StoreID":"350","Number":"0","Name":"Sunoco","Address1":"3850 Washington Ave","City":"Finleyville","State":"PA","Zip":"15332","Latitude":"40.25327","Longitude":"-80.0016854","IsGasStation":"true","IsActive":"false","IsPumpPerk":"false","AreaID":"106"},{"StoreID":"105","Number":"1070","Name":"Terra Alta","Website":"","Address1":"PO Box 107, Rt 7 W","Address2":"","City":"Terra Alta","State":"WV","Zip":"26764","Hours":"Mon-Sun 8:00am-9:00pm","Hours2":"","Phone":"304-789-5880","PharmacyPhone":"","Fax":"304-789-5881","Latitude":"39.44481","Longitude":"-79.533892","IsGasStation":"false","IsActive":"true","IsPumpPerk":"false","AreaID":"89"},{"StoreID":"106","Number":"6197","Name":"Tiltonsville Express","Website":"","Address1":"206 Walden Avenue","Address2":"","City":"Tiltonsville","State":"OH","Zip":"43963","Hours":"Mon-Sun 730am-10pm","Hours2":"","Phone":"740-859-0318","PharmacyPhone":"","Fax":"","Latitude":"40.172791","Longitude":"-80.696683","IsGasStation":"false","IsActive":"true","IsPumpPerk":"false","AreaID":"90"},{"StoreID":"239","Number":"0","Name":"Uniontown","Address1":"2013 Morgantown Rd.","City":"Uniontown","State":"PA","Zip":"15437","Latitude":"39.79741","Longitude":"-79.59676","IsGasStation":"true","IsActive":"true","IsPumpPerk":"true","AreaID":"106"},{"StoreID":"240","Number":"0","Name":"Uniontown","Address1":"55 Morgantown Street","City":"Uniontown","State":"PA","Zip":"15401","Latitude":"39.94488","Longitude":"-79.77006","IsGasStation":"true","IsActive":"true","IsPumpPerk":"true","AreaID":"106"},{"StoreID":"241","Number":"0","Name":"Uniontown","Address1":"55 Connellsville Road","City":"Uniontown","State":"PA","Zip":"15401","Latitude":"39.94488","Longitude":"-79.77006","IsGasStation":"true","IsActive":"true","IsPumpPerk":"true","AreaID":"106"},{"StoreID":"242","Number":"0","Name":"Uniontown","Address1":"417 W. Main St. (formerly Bob's)","City":"Uniontown","State":"PA","Zip":"15401","Latitude":"39.94488","Longitude":"-79.77006","IsGasStation":"true","IsActive":"true","IsPumpPerk":"true","AreaID":"106"},{"StoreID":"132","Number":"0","Name":"Upper St. Clair","Address1":"2520 Washington Road","City":"Bethel Park","State":"PA","Zip":"15241","Latitude":"40.33226","Longitude":"-80.08102","IsGasStation":"true","IsActive":"true","IsPumpPerk":"true","AreaID":"106"},{"StoreID":"243","Number":"0","Name":"Upper St. Clair","Address1":"127 McMurray Road","City":"Pittsburgh","State":"PA","Zip":"15241","Latitude":"40.3265301","Longitude":"-80.0655327","IsGasStation":"true","IsActive":"true","IsPumpPerk":"true","AreaID":"106"},{"StoreID":"245","Number":"0","Name":"Vandergrift","Address1":"600 Hancock Street","City":"Vandergrift","State":"PA","Zip":"15690","Latitude":"40.40041","Longitude":"-79.54685","IsGasStation":"true","IsActive":"true","IsPumpPerk":"true","AreaID":"106"},{"StoreID":"246","Number":"0","Name":"Verona","Address1":"280 Hulton Road","City":"Verona","State":"PA","Zip":"15147","Latitude":"40.35146","Longitude":"-80.01157","IsGasStation":"true","IsActive":"true","IsPumpPerk":"true","AreaID":"106"},{"StoreID":"107","Number":"1612","Name":"Walnut Hill","Website":"www.jamiesonfamilymarkets.com","Address1":"150 Walnut Hill Road ","Address2":"","City":"Uniontown","State":"PA","Zip":"15401","Hours":"Mon-Sun 7:00am-11:00pm","Hours2":"","Phone":"724-437-2764","PharmacyPhone":"","Fax":"724-437-2767","Latitude":"39.882013","Longitude":"-79.736173","IsGasStation":"false","IsActive":"true","IsPumpPerk":"false","AreaID":"91"},{"StoreID":"108","Number":"1620","Name":"Washington","Website":"","Address1":"125 W. Beau St.","City":"Washington","State":"PA","Zip":"15301","Hours":"Mon-Sat 6:00am-11:00pm","Hours2":"Sun 7:00am-11:00pm","Phone":"724-223-5494","PharmacyPhone":"","Fax":"724-223-5499","Latitude":"40.170758","Longitude":"-80.248711","IsGasStation":"false","IsActive":"true","IsPumpPerk":"false","AreaID":"92"},{"StoreID":"247","Number":"0","Name":"Washington","Address1":"1 Park Place Drive","City":"Washington","State":"PA","Zip":"15301","Latitude":"40.13539","Longitude":"-80.1467","IsGasStation":"true","IsActive":"true","IsPumpPerk":"true","AreaID":"106"},{"StoreID":"248","Number":"0","Name":"Washington","Address1":"1550 West Chestnut Street","City":"Washington","State":"PA","Zip":"15301","Latitude":"40.13539","Longitude":"-80.1467","IsGasStation":"true","IsActive":"true","IsPumpPerk":"true","AreaID":"106"},{"StoreID":"249","Number":"0","Name":"Washington","Address1":"195 Murtland Avenue","City":"Washington","State":"PA","Zip":"15301","Latitude":"40.13539","Longitude":"-80.1467","IsGasStation":"true","IsActive":"true","IsPumpPerk":"true","AreaID":"106"},{"StoreID":"346","Number":"0","Name":"Washington","Address1":"501 Jefferson Ave.","City":"Washington","State":"PA","Zip":"15301","Latitude":"40.1760732\r\n","Longitude":"-80.2579146\r\n","IsGasStation":"true","IsActive":"true","IsPumpPerk":"true","AreaID":"106","MiscInfo":"<label>Diesel Available</label>"},{"StoreID":"334","Number":"0","Name":"Waynesboro Exxon","Address1":"11055 Buchanan Trail East","City":"Waynesboro","State":"PA","Zip":"17268","Latitude":"39.739116","Longitude":"-77.534717","IsGasStation":"true","IsActive":"false","IsPumpPerk":"false","AreaID":"125"},{"StoreID":"250","Number":"0","Name":"Waynesburg","Address1":"10 E. Greene Street","City":"Waynesburg","State":"PA","Zip":"15370","Latitude":"39.87477","Longitude":"-80.08057","IsGasStation":"true","IsActive":"true","IsPumpPerk":"true","AreaID":"106"},{"StoreID":"109","Number":"1664","Name":"Weirton","Website":"","Address1":"273 Penco Road ","City":"Weirton","State":"WV","Zip":"26062","Hours":"Mon-Sat 7:00am-10:00pm","Hours2":"Sun 7:30am-9:30pm","Phone":"304-723-1025","PharmacyPhone":"","Fax":"304-723-1026","Latitude":"40.410212","Longitude":"-80.546501","IsGasStation":"false","IsActive":"true","IsPumpPerk":"false","AreaID":"93"},{"StoreID":"251","Number":"0","Name":"Weirton","Address1":"1228 Penn Avenue (Convenient Mart)","City":"Weirton","State":"VW","Zip":"26062","Latitude":"40.50772","Longitude":"-80.56529","IsGasStation":"true","IsActive":"true","IsPumpPerk":"true","AreaID":"106"},{"StoreID":"252","Number":"0","Name":"Weirton","Address1":"Three Springs Drive","City":"Weirton","State":"VW","Zip":"26062","Latitude":"40.50772","Longitude":"-80.56529","IsGasStation":"true","IsActive":"true","IsPumpPerk":"true","AreaID":"106"},{"StoreID":"332","Number":"0","Name":"Wesel Blvd. AC&T","Address1":"1615 Wesel Blvd.","City":"Hagerstown","State":"MD","Zip":"21740","Latitude":"39.631422","Longitude":"-77.760724","IsGasStation":"true","IsActive":"false","IsPumpPerk":"false","AreaID":"123"},{"StoreID":"110","Number":"1657","Name":"West Kittanning","Website":"","Address1":"#1 Franklin Village Mall ","Address2":"","City":"West Kittanning","State":"PA","Zip":"16201","Hours":"Mon-Sat 7:00am-10:00pm","Hours2":"Sun 8:00am-7:00pm","Phone":"724-543-6389","PharmacyPhone":"","Fax":"724-543-3330","Latitude":"40.812478","Longitude":"-79.54859","IsGasStation":"false","IsActive":"true","IsPumpPerk":"false","AreaID":"94"},{"StoreID":"114","Number":"1315","Name":"West Mifflin-Village","Website":"","Address1":"1886 Homeville Road","Address2":"","City":"West Mifflin","State":"PA","Zip":"15122","Hours":"Mon-Sun 7am-10pm","Hours2":"Sun 8:00am - 8:00pm","Phone":"412-466-1112","PharmacyPhone":"","Fax":"412- 346-0040","Latitude":"40.3736775","Longitude":"-79.8737336","IsGasStation":"false","IsActive":"true","IsPumpPerk":"false","AreaID":"98"},{"StoreID":"253","Number":"0","Name":"West Newton","Address1":"150 Mt. Pleasant Rd.","City":"West Newton","State":"PA","Zip":"15089","Latitude":"40.2018","Longitude":"-79.72723","IsGasStation":"true","IsActive":"true","IsPumpPerk":"true","AreaID":"106"},{"StoreID":"115","Number":"2010","Name":"West Union Express","Website":"","Address1":"201 Marie Street ","Address2":"","City":"West Union","State":"WV","Zip":"26456","Hours":"Mon-Sun 8:00am-9:00pm","Hours2":"","Phone":"304-873-2685","PharmacyPhone":"","Fax":"304-873-2732","Latitude":"39.296513","Longitude":"-80.776591","IsGasStation":"false","IsActive":"true","IsPumpPerk":"false","AreaID":"99"},{"StoreID":"254","Number":"0","Name":"West View","Address1":"100 Rochester Road","City":"West View","State":"PA","Zip":"15229","Latitude":"40.5205578","Longitude":"-80.0252208","IsGasStation":"true","IsActive":"true","IsPumpPerk":"true","AreaID":"106"},{"StoreID":"255","Number":"0","Name":"West View","Address1":"5457 Perrysville Road","City":"West View","State":"PA","Zip":"15229","Latitude":"40.513599","Longitude":"-80.0293133","IsGasStation":"true","IsActive":"true","IsPumpPerk":"true","AreaID":"106"},{"StoreID":"116","Number":"1050","Name":"Weston Express","Website":"","Address1":"402 B Medical Drive","Address2":"","City":"Weston","State":"WV","Zip":"26452","Hours":"Mon-Sun 7:00am-9:00pm","Hours2":"","Phone":"304-269-5830","PharmacyPhone":"","Fax":"304-269-1962","Latitude":"39.651483","Longitude":"-79.961736","IsGasStation":"false","IsActive":"true","IsPumpPerk":"false","AreaID":"100"},{"StoreID":"256","Number":"0","Name":"White Oak","Address1":"1969 Lincoln Way","City":"White Oak","State":"PA","Zip":"15131","Latitude":"40.3397861","Longitude":"-79.8107175","IsGasStation":"true","IsActive":"true","IsPumpPerk":"true","AreaID":"106"},{"StoreID":"257","Number":"0","Name":"White Oak","Address1":"2904 Fifth Avenue","City":"White Oak","State":"PA","Zip":"15131","Latitude":"40.3583807","Longitude":"-79.8300649","IsGasStation":"true","IsActive":"true","IsPumpPerk":"true","AreaID":"106"},{"StoreID":"226","Number":"0","Name":"Whitehall","Address1":"4639 Clairton Boulevard","City":"Pleasant Hills","State":"PA","Zip":"15236","Latitude":"40.3559744","Longitude":"-79.9796451","IsGasStation":"true","IsActive":"true","IsPumpPerk":"true","AreaID":"106"},{"StoreID":"96","Number":"1631","Name":"Wilkins Township","Website":"","Address1":"3335 William Penn Highway ","City":"Pittsburgh","State":"PA","Zip":"15235","Hours":"Mon-Sun 6:00am-1:00am","Hours2":"","Phone":"412-829-2900","PharmacyPhone":"412-829-7370","Fax":"412-829-7536","Latitude":"40.448253","Longitude":"-79.846058","IsGasStation":"false","IsActive":"true","IsPumpPerk":"false","AreaID":"80"},{"StoreID":"118","Number":"1107","Name":"Williamson Express","Website":"","Address1":"4090 Piearsall Street","City":"Williamson","State":"NY","Zip":"14589","Hours":"Mon-Sun 7am-9pm","Hours2":"","Phone":"315-589-9691","PharmacyPhone":"","Fax":"315-589-9413","Latitude":"43.232119","Longitude":"-77.185543","IsGasStation":"false","IsActive":"true","IsPumpPerk":"false","AreaID":"102"},{"StoreID":"331","Number":"0","Name":"Williamsport AC&T","Address1":"16504 Virginia Ave.","City":"Williamsport","State":"MD","Zip":"21795","Latitude":"39.608354","Longitude":"-77.797288","IsGasStation":"true","IsActive":"false","IsPumpPerk":"false","AreaID":"112"},{"StoreID":"119","Number":"1122","Name":"Youngwood","Website":"www.jamiesonfamilymarkets.com","Address1":"250 South Third Street","Address2":"","City":"Youngwood","State":"PA","Zip":"15697","Hours":"Mon-Sun 7am-10pm","Hours2":"","Phone":"724-925-1810","PharmacyPhone":"","Fax":"","Latitude":"40.2358062","Longitude":"-79.5807462","IsGasStation":"false","IsActive":"true","IsPumpPerk":"false","AreaID":"103"},{"StoreID":"258","Number":"0","Name":"Youngwood","Address1":"506 S. Fourth Street","City":"Youngwood","State":"PA","Zip":"15697","Latitude":"40.24053","Longitude":"-79.50588","IsGasStation":"true","IsActive":"true","IsPumpPerk":"true","AreaID":"106"},{"StoreID":"259","Number":"0","Name":"Zelienople","Address1":"129 N. Main Street","City":"Zelienople","State":"PA","Zip":"16063","Latitude":"40.7609","Longitude":"-80.10939","IsGasStation":"true","IsActive":"true","IsPumpPerk":"true","AreaID":"106"}]}}