"page_url","location_name","street_address","city","state","zip","country_code","store_number","phone","location_type","latitude","longitude","locator_domain","hours_of_operation","raw_address"
"<MISSING>","MUJI ChinaCentralPlace Beijing","<MISSING>","<MISSING>","<MISSING>","<MISSING>","CN","CN500008","010-5969-5948","MUJI ChinaCentralPlace Beijing","39.9088755372","116.4798461028","muji.com","MON-SUN 10:00~22:00","<MISSING>"
"<MISSING>","MUJI Metro City Shanghai","<MISSING>","<MISSING>","<MISSING>","<MISSING>","CN","CN500017","021-3461-0480","MUJI Metro City Shanghai","31.193576","121.439615","muji.com","10:00～22:00","<MISSING>"
"<MISSING>","MUJI ZhongnanCity Mall Nantong","<MISSING>","<MISSING>","<MISSING>","<MISSING>","CN","CN500035","0513-5501-9012","MUJI ZhongnanCity Mall Nantong","31.968001","120.891488","muji.com","10:00-22:00","<MISSING>"
"<MISSING>","MUJI Xinguang Chongqing","<MISSING>","<MISSING>","<MISSING>","<MISSING>","CN","CN500036","023-6265-3700","MUJI Xinguang Chongqing","29.523974","106.571001","muji.com","10:00-22:00","<MISSING>"
"<MISSING>","MUJI POLY SUNNYWALK GUANGZHOU","<MISSING>","<MISSING>","<MISSING>","<MISSING>","CN","CN500045","020-83706181","MUJI POLY SUNNYWALK GUANGZHOU","23.1368131229","113.2820632417","muji.com","MON-SUN  10:00~22:00","<MISSING>"
"<MISSING>","MUJI to GO Wuhan Airport T3","<MISSING>","<MISSING>","<MISSING>","<MISSING>","CN","CN500046","027-65590352","MUJI to GO Wuhan Airport T3","30.773143335","114.2172230273","muji.com","MON-SUN  6:30~22:00","<MISSING>"
"<MISSING>","MUJI Guangzhou New Park","<MISSING>","<MISSING>","<MISSING>","<MISSING>","CN","CN500055","020-31235682","MUJI Guangzhou New Park","23.2383240265","113.2916254179","muji.com","MON-SUN  10:00~22:00","<MISSING>"
"<MISSING>","MUJI Wuxi Maoye Plaza","<MISSING>","<MISSING>","<MISSING>","<MISSING>","CN","CN500056","0510-85762650","MUJI Wuxi Maoye Plaza","31.549356","120.310371","muji.com","MON-THUR 9:30～21:30　FRI-SUN 9:30～22:00","<MISSING>"
"<MISSING>","MUJI MixC Mall Chengdu","<MISSING>","<MISSING>","<MISSING>","<MISSING>","CN","CN500065","028-8315-6960","MUJI MixC Mall Chengdu","30.650629","104.117898","muji.com","SUN-THU 10:00～22:00　FRI,SAT  10:00～22:30","<MISSING>"
"<MISSING>","MUJI to GO Zhengzhou International airport T2","<MISSING>","<MISSING>","<MISSING>","<MISSING>","CN","CN500081","0371-89909679","MUJI to GO Zhengzhou International airport T2","34.5250148147","113.8540380778","muji.com","MON-SUN 7:30~22:30","<MISSING>"
"<MISSING>","MUJI Longhu Chongqing","<MISSING>","<MISSING>","<MISSING>","<MISSING>","CN","CN500131","023-63103627","MUJI Longhu Chongqing","29.539309","106.510863","muji.com","MON-SUN 10:00～22:00","<MISSING>"
"<MISSING>","MUJI Newcentry Mall Chengdu","<MISSING>","<MISSING>","<MISSING>","<MISSING>","CN","CN500150","028-6873-0251","MUJI Newcentry Mall Chengdu","30.570866","104.063961","muji.com","10:00～22:00","<MISSING>"
"<MISSING>","MUJI Yajule Mall Shanghai","<MISSING>","<MISSING>","<MISSING>","<MISSING>","CN","CN500182","021-63462096","MUJI Yajule Mall Shanghai","31.236119","121.473565","muji.com","10:00~22:00","<MISSING>"
"<MISSING>","MUJI Yangguang Chengdu","<MISSING>","<MISSING>","<MISSING>","<MISSING>","CN","CN500218","028-62508262","MUJI Yangguang Chengdu","30.6430921389","104.0914642547","muji.com","10:00~22:00","<MISSING>"
"<MISSING>","MUJI Fuli Mall Chengdu","<MISSING>","<MISSING>","<MISSING>","<MISSING>","CN","CN500266","028-61867961","MUJI Fuli Mall Chengdu","30.666391","104.070272","muji.com","10:00~22:00","<MISSING>"
"<MISSING>","MUJI IFS Chengdu","<MISSING>","<MISSING>","<MISSING>","<MISSING>","CN","CN500272","028-65187171","MUJI IFS Chengdu","30.6562375875","104.0806923035","muji.com","10:00-22:00","<MISSING>"
"<MISSING>","MUJI Reel Mall Shanghai","<MISSING>","<MISSING>","<MISSING>","<MISSING>","CN","CN500275","021-32536002","MUJI Reel Mall Shanghai","31.223904","121.447631","muji.com","10:00-22:00","<MISSING>"
"<MISSING>","MUJI Hunter City Mall Guiyang","<MISSING>","<MISSING>","<MISSING>","<MISSING>","CN","CN500315","0851-85628775","MUJI Hunter City Mall Guiyang","26.5760722327","106.7192167993","muji.com","SUN-THU 10:30~22:00　FRI-SAT 10:30~22:30","<MISSING>"
"<MISSING>","MUJI Chengdu IY","<MISSING>","<MISSING>","<MISSING>","<MISSING>","CN","CN500334","028-8338-6512","MUJI Chengdu IY","30.6451513542","104.0211743702","muji.com","SUN-THU 9:00~22:30  　FRI,SAT  9:00~23:00","<MISSING>"
"<MISSING>","MUJI FoShan NanHai WanKe Plaza","<MISSING>","<MISSING>","<MISSING>","<MISSING>","CN","CN500337","0757-81637680","MUJI FoShan NanHai WanKe Plaza","23.0351880129","113.1551716676","muji.com","SUN-THU 10:00~22:00　FRI,SAT 10:00~22:30","<MISSING>"
"<MISSING>","MUJI ShangHai ChamTime Plaza","<MISSING>","<MISSING>","<MISSING>","<MISSING>","CN","CN500413","021-68589002","MUJI ShangHai ChamTime Plaza","31.2047615488","121.6013835265","muji.com","10:00~22:00","<MISSING>"
"<MISSING>","MUJI Shanghai The Hub Mall","<MISSING>","<MISSING>","<MISSING>","<MISSING>","CN","CN500422","021-5473-1700","MUJI Shanghai The Hub Mall","31.1924277092","121.3149031861","muji.com","10:00~22:00","<MISSING>"
"<MISSING>","MUJI Chengdu Joy City","<MISSING>","<MISSING>","<MISSING>","<MISSING>","CN","CN500444","028-82363711","MUJI Chengdu Joy City","30.6270716734","104.0100491305","muji.com","MON-THU  10:00~22:00 　FRI-SUN    10:00~22:30","<MISSING>"
"<MISSING>","Muji Shanghai The River Mall","<MISSING>","<MISSING>","<MISSING>","<MISSING>","CN","CN500446","021-68782675","Muji Shanghai The River Mall","31.1822662558","121.493188787","muji.com","10:00~22:00","<MISSING>"
"<MISSING>","MUJI Chongqing ZhongYu Plaza","<MISSING>","<MISSING>","<MISSING>","<MISSING>","CN","CN500448","023-67795139","MUJI Chongqing ZhongYu Plaza","29.5977011635","106.5212909845","muji.com","10:00~22:00","<MISSING>"
"<MISSING>","MUJI ShangHai Westgate Mall","<MISSING>","<MISSING>","<MISSING>","<MISSING>","CN","CN500480","021-62415277","MUJI ShangHai Westgate Mall","31.2285402645","121.4567053061","muji.com","10:00~22:00","<MISSING>"
"<MISSING>","MUJI Wangfujing Chongqing Shapingba","<MISSING>","<MISSING>","<MISSING>","<MISSING>","CN","CN500498","023-65802752","MUJI Wangfujing Chongqing Shapingba","29.5571430306","106.464283906","muji.com","10:00～21:50　10:00～22:00","<MISSING>"
"<MISSING>","MUJI HangZhou Binjiang Powerlong Mall","<MISSING>","<MISSING>","<MISSING>","<MISSING>","CN","CN500530","0571-8779-1925","MUJI HangZhou Binjiang Powerlong Mall","30.1891271102","120.1654994861","muji.com","SUN-THU 10:00～22:00　FRI-SAT 10:00～22:30","<MISSING>"
"<MISSING>","MUJI NanTong WenFeng CITY SQUARE","<MISSING>","<MISSING>","<MISSING>","<MISSING>","CN","CN500538","0513-55010056","MUJI NanTong WenFeng CITY SQUARE","31.9968516529","120.8842963887","muji.com","SUN-THU 10:00~21:30　FRI-SAT 10:00~22:00","<MISSING>"
"<MISSING>","MUJI to GO ChongQing Airport T3A","<MISSING>","<MISSING>","<MISSING>","<MISSING>","CN","CN500624","023-67156380","MUJI to GO ChongQing Airport T3A","29.7081487004","106.6553676205","muji.com","MON-SUN 07:00～22:00","<MISSING>"
"<MISSING>","MUJI HangZhou XIXI INTIME","<MISSING>","<MISSING>","<MISSING>","<MISSING>","CN","CN500644","0571-87095978","MUJI HangZhou XIXI INTIME","30.2920176565","120.0760784958","muji.com","MON-SUN 10:00～22:00","<MISSING>"
"<MISSING>","MUJI WuHu YaoHan Living Plaza","<MISSING>","<MISSING>","<MISSING>","<MISSING>","CN","CN500646","0553-5598166","MUJI WuHu YaoHan Living Plaza","31.3405739547","118.3664165269","muji.com","MON-THU : 10:00~21:30　FRI-SUN : 10:00~22:00","<MISSING>"
"<MISSING>","MUJI Nanchang Wangfujing Mall","<MISSING>","<MISSING>","<MISSING>","<MISSING>","CN","CN500666","0791-86209938","MUJI Nanchang Wangfujing Mall","28.6542990828","115.9049325866","muji.com","MON-SUN 10:00~22:00","<MISSING>"
"<MISSING>","MUJI Yancheng Zhong Nan Cheng Shopping Mall","<MISSING>","<MISSING>","<MISSING>","<MISSING>","CN","CN500674","0515-88333311","MUJI Yancheng Zhong Nan Cheng Shopping Mall","33.3224460175","120.1785268237","muji.com","MON-SUN 10:00～22:00","<MISSING>"
"<MISSING>","MUJI to GO ShenZhen Airport Chu Fa","<MISSING>","<MISSING>","<MISSING>","<MISSING>","CN","CN500685","0755-23453420","MUJI to GO ShenZhen Airport Chu Fa","22.6245489837","113.8111434817","muji.com","MON-SUN 8:00～22:00","<MISSING>"
"<MISSING>","MUJI to GO ShenZhen Airport Yuan Ji Wei","<MISSING>","<MISSING>","<MISSING>","<MISSING>","CN","CN500687","0755-23453245","MUJI to GO ShenZhen Airport Yuan Ji Wei","22.6300238921","113.8100670216","muji.com","MON-SUN 7:00~22:00","<MISSING>"
"<MISSING>","MUJI Chang Chun MoTian Huolicheng MALL","<MISSING>","<MISSING>","<MISSING>","<MISSING>","CN","CN500698","0431-80518827","MUJI Chang Chun MoTian Huolicheng MALL","43.8351553687","125.3792758714","muji.com","MON-SUN  10:00~22:00","<MISSING>"
"<MISSING>","MUJI Diner Shanghai Huaihai 755","<MISSING>","<MISSING>","<MISSING>","<MISSING>","CN","CN500701","021-3356-5883","MUJI Diner Shanghai Huaihai 755","31.2187703716","121.464120745","muji.com","10:00～22：00","<MISSING>"
"<MISSING>","MUJI Shang Zhi Du Xin Guang Chang","B-1F No.4 SuZhou RdLuYang Dist","<MISSING>","AnHui Prov","<MISSING>","CN","CN500608","0551-65994147","MUJI Shang Zhi Du Xin Guang Chang","31.8592609491","117.2898764729","muji.com","Summer SUN-THU 10:00～21:30 FRI-SAT 10:00～22:00　Winter SUN-THU 10:00～21:00 FRI-SAT 10:00～21:30","<MISSING>"
"<MISSING>","MUJI HeFei ID Mall","1F No.2868 LuZhou AvBinHu New Area","<MISSING>","AnHui Prov.","<MISSING>","CN","CN500544","0551-66019201","MUJI HeFei ID Mall","31.740183948","117.3027832361","muji.com","SUN~THU 10:00~21:30　FRI~SAT 10:00~22:00","<MISSING>"
"<MISSING>","MUJI Tianehu Wanda Hefei","1F No.3818 South 2nd Ring Rd Shushan Dist","<MISSING>","Anhui Prov.","<MISSING>","CN","CN500071","0551-65990190","MUJI Tianehu Wanda Hefei","31.819212","117.221653","muji.com","MON~SUN 10:00-22:00","<MISSING>"
"<MISSING>","MUJI WuHu Golden Eagle Shopping mall","1F No.189 South ZhongShan Rd Yijiang Dist","<MISSING>","Anhui Prov.","<MISSING>","CN","CN500370","0553-2885606","MUJI WuHu Golden Eagle Shopping mall","31.3163093532","118.3663673572","muji.com","MON-THU 10:00～21:30　FRI-SUN 10:00～22:00","<MISSING>"
"<MISSING>","MUJI COFCO SHINE CITY Beijing","1F building No.7","<MISSING>","Antai Street Shunyi Dist.Beijing","<MISSING>","CN","CN500658","010-80494468","MUJI COFCO SHINE CITY Beijing","40.0892213572","116.5375861608","muji.com","MON-SUN 10:00～21:00","<MISSING>"
"<MISSING>","MUJI Chaoyang Joycity Beijing","3F NO.101 Chaoyang(N)Rd","<MISSING>","BeiJing","<MISSING>","CN","CN500098","010-85526752","MUJI Chaoyang Joycity Beijing","39.9245420507","116.5189386938","muji.com","Mon-Sun 10:00~22:00","<MISSING>"
"<MISSING>","MUJI Beijing BHG Mall Tiantongyuan","1F Buiding FTiantong Zhongyuan (E) Xiaokou Town","<MISSING>","Beijing","<MISSING>","CN","CN500454","010-57859558","MUJI Beijing BHG Mall Tiantongyuan","40.0703931317","116.4144727661","muji.com","9:30~21:30","<MISSING>"
"<MISSING>","MUJI Youtown plaza Beijing","2F NO.5 Sanfeng Beili","<MISSING>","Beijing","<MISSING>","CN","CN500033","010-8563-5386","MUJI Youtown plaza Beijing","39.921783","116.440247","muji.com","10:00-22:00","<MISSING>"
"<MISSING>","MUJI Indigo Beijing","2F NO.18 Jiuxianqiao Rd","<MISSING>","Beijing","<MISSING>","CN","CN500209","010-84260883","MUJI Indigo Beijing","39.969161","116.49044","muji.com","10:00~22:00","<MISSING>"
"<MISSING>","MUJI  Shimao Plaza Beijing","1F Building 3 NO.13 Workers Stadium(N) Rd","<MISSING>","Beijing","<MISSING>","CN","CN500260","010-84185438","MUJI  Shimao Plaza Beijing","39.934536","116.449388","muji.com","10:00-22:00","<MISSING>"
"<MISSING>","MUJI BeiJing Liang Ma Qiao Guan She","2F No.19 Dongfang(E) Rd Liangmaqiao","<MISSING>","Beijing","<MISSING>","CN","CN500401","010-85315253","MUJI BeiJing Liang Ma Qiao Guan She","39.951874","116.46365","muji.com","MON-SUN 10:00~22:00","<MISSING>"
"<MISSING>","MUJI Beijing BHG Changying Mall","1FNo.17 Chaoyang(N) Rd","<MISSING>","Beijing","<MISSING>","CN","CN500450","010-56857395","MUJI Beijing BHG Changying Mall","39.9261064399","116.5968045213","muji.com","MON~SUN 9:30-21:30","<MISSING>"
"<MISSING>","MUJI BEIJING THE PLACE","1F Building No.2No.9 Guanghua Rd","<MISSING>","Beijing","<MISSING>","CN","CN500679","010-65075107","MUJI BEIJING THE PLACE","39.916138295","116.4518821161","muji.com","MON-SUN 10:00～22:00","<MISSING>"
"<MISSING>","MUJI Wangfujing Bejing","3F No.251-253Wangfujing Str","<MISSING>","Beijing","<MISSING>","CN","CN500010","010-6528-2148","MUJI Wangfujing Bejing","39.913793","116.410333","muji.com","10:00～22:00","<MISSING>"
"<MISSING>","MUJI GloryMall Beijing","2F Unit 1NO.18 Chongwen Men Wai Str","<MISSING>","Beijing","<MISSING>","CN","CN500011","010-67191889","MUJI GloryMall Beijing","39.897555","116.419287","muji.com","MON-SUN 10:00～22:00","<MISSING>"
"<MISSING>","MUJI Beijing harmony plaza","1F No.68 Wanfeng Rd","<MISSING>","Beijing","<MISSING>","CN","CN500419","010-63259192","MUJI Beijing harmony plaza","39.8830391102","116.2955943596","muji.com","May.1st-Qct.7th  MON-SUN 10:00~22:00　Oct.8th-Apr.30th   MON-SUN 10:00~21:30","<MISSING>"
"<MISSING>","MUJI Beijing Aeonmall  Fengtai","1F Building No.1 No.88 Fengbao Rd","<MISSING>","Beijing","<MISSING>","CN","CN500464","010-83628072","MUJI Beijing Aeonmall  Fengtai","39.8180403256","116.2905344601","muji.com","MON-SUN 10:00～22:00","<MISSING>"
"<MISSING>","MUJI Beijing SOLANA","2F No.69 Fuxing Rd","<MISSING>","Beijing","<MISSING>","CN","CN500490","010-88199421","MUJI Beijing SOLANA","39.9133356039","116.2794222593","muji.com","MON-SUN 10:30~22:00","<MISSING>"
"<MISSING>","MUJI CapitaMall Crystal Beijing","2F NO.51 Fuxing Rd","<MISSING>","Beijing","<MISSING>","CN","CN500254","010-88197483","MUJI CapitaMall Crystal Beijing","39.908296","116.29747","muji.com","10:00-22:00","<MISSING>"
"<MISSING>","MUJI BEIJING JINYUAN NEW SHOPPING MALL","2F No 1 Yuanda Rd","<MISSING>","Beijing","<MISSING>","CN","CN500407","010-88875158","MUJI BEIJING JINYUAN NEW SHOPPING MALL","39.9592216255","116.2896459257","muji.com","MON‐THU 10:00~21:00 　FRI‐SUN  10:00~22:00","<MISSING>"
"<MISSING>","MUJI Beijing Hualian Wanliu Shopping","1F No.2Bagou Rd","<MISSING>","Beijing","<MISSING>","CN","CN500456","010-82584989","MUJI Beijing Hualian Wanliu Shopping","39.973605","116.29513","muji.com","9:30~21:30","<MISSING>"
"<MISSING>","MUJI BeiJing Aegean","1F hospitaNo.2Building No.12","<MISSING>","Beijing","<MISSING>","CN","CN500364","010-84242620","MUJI BeiJing Aegean","39.9724376557","116.4346716518","muji.com","10:00~22:00","<MISSING>"
"<MISSING>","MUJI Beijing BHG Shun Yi  Mall","1FUnit 1 No.8 Xinshunnan StrRenHe Town","<MISSING>","Beijing","<MISSING>","CN","CN500452","010-61429693","MUJI Beijing BHG Shun Yi  Mall","40.1280017837","116.6523592659","muji.com","MON-SUN9:30-21:30","<MISSING>"
"<MISSING>","MUJI to GO BeiJing Airport T2","2F Capital airport T2 terminal","<MISSING>","Beijing","<MISSING>","CN","CN500522","010-8416-6188","MUJI to GO BeiJing Airport T2","40.0800533199","116.5944932889","muji.com","MON～SUN 06:00～22:00","<MISSING>"
"<MISSING>","AEONMALL FUTTSU","Aeon Mall Futtsu 1F Tochikukaku-seiritchinai200GaikuAoki","<MISSING>","Chiba","293-0012","JA","045434","0439-80-1162","AEONMALL FUTTSU","35.3301619274318","139.846718163609","muji.com","10:00～21:00","<MISSING>"
"<MISSING>","MUJI Fortune Mall Chongqing","Fortune MallNO.1","<MISSING>","Chongqing","<MISSING>","CN","CN500104","023-63011925","MUJI Fortune Mall Chongqing","29.607822","106.512296","muji.com","10:00-22:00","<MISSING>"
"<MISSING>","MUJI Starlight 68 Chongqing","201-203 2F Starlight 68NO.68","<MISSING>","Chongqing","<MISSING>","CN","CN500026","023-6711-5708","MUJI Starlight 68 Chongqing","29.578207","106.530443","muji.com","10:00～22:00","<MISSING>"
"<MISSING>","MUJI ChongQing PARK 108 GuoTaiYouHuoChengShiGuangChang","L1 No.108 ZouRong Rd","<MISSING>","Chongqing City","<MISSING>","CN","CN500652","023-63836275","MUJI ChongQing PARK 108 GuoTaiYouHuoChengShiGuangChang","29.5578502504","106.576028674","muji.com","MON-SUN 10:00～22:00","<MISSING>"
"<MISSING>","MUJI Parc 66","2 F HengLong Plaza No 188 Quancheng Rd Lixia Dist","<MISSING>","City，Shandong Prov.","<MISSING>","CN","CN500030","0531-5563-8108","MUJI Parc 66","36.664615","117.023918","muji.com","10:00-22:00","<MISSING>"
"<MISSING>","MUJI Wanda Taiyuan Sreet Shenyang","1F NO.2 Taiyuan (S) RdHeping Dist","<MISSING>","Dalian Prov.","<MISSING>","CN","CN500197","024-23581833","MUJI Wanda Taiyuan Sreet Shenyang","41.792137","123.399627","muji.com","MON-THU 9:30~21:30　FRI-SAT 9:30~22:00","<MISSING>"
"<MISSING>","MUJI Fu Zhou  Wangfujing Department Store","2F No.128 WuSi RdGuLou Dist","<MISSING>","FuJian Prov","<MISSING>","CN","CN500622","0591-87620770","MUJI Fu Zhou  Wangfujing Department Store","26.091157569","119.305882173","muji.com","MON-SUN 10:00～22:00","<MISSING>"
"<MISSING>","MUJI QuanZhou MS City","2F No.668 FengZe StrFengZe Dist","<MISSING>","FuJian Prov.","<MISSING>","CN","CN500620","0595-22302221","MUJI QuanZhou MS City","24.9026126587","118.607740241","muji.com","SUN-THU 10:00~22:00　FRI-SAT  10:00~22:30","<MISSING>"
"<MISSING>","MUJI ONE MALL","1F","<MISSING>","Fujian Prov.","<MISSING>","CN","CN500667","0592-5256657","MUJI ONE MALL","24.4850706156","118.1735970783","muji.com","MON-SUN 10:00～22:00","<MISSING>"
"<MISSING>","MUJI Wanda Fuzhou","1F","<MISSING>","Fujian Prov.","<MISSING>","CN","CN500037","0591-8825-7481","MUJI Wanda Fuzhou","26.0361608186","119.2751815514","muji.com","MON-SUN 10:00~22:00","<MISSING>"
"<MISSING>","MUJI Puxi Wanda Quanzhou","2F","<MISSING>","Fujian Prov.","<MISSING>","CN","CN500095","0595-28686088","MUJI Puxi Wanda Quanzhou","24.8829517784","118.5985572964","muji.com","MON~SUN 10:00-22:00","<MISSING>"
"<MISSING>","MUJI Quanzhou SCE World City","1F No.69 Anji(S) Rd Fengze Dist","<MISSING>","Fujian Prov.","<MISSING>","CN","CN500504","0595-28800696","MUJI Quanzhou SCE World City","24.9200639496","118.6582883443","muji.com","SUN-THU 10:00~22:00　FRI-SAT 10:00~22:30","<MISSING>"
"<MISSING>","MUJI SM Store Xiamen","1F NO.399 Jiahe RdSiming Dist","<MISSING>","Fujian Prov.","<MISSING>","CN","CN500024","0592-5313-505","MUJI SM Store Xiamen","24.500251","118.125365","muji.com","10:00～22:00","<MISSING>"
"<MISSING>","MUJI Xiamen China city","２F Xiamen China city，NO.175 Siming(S) Rd. Siming Dist","<MISSING>","Fujian Prov.","<MISSING>","CN","CN500257","0592-2130030","MUJI Xiamen China city","24.4525184115","118.0832226524","muji.com","MON-THU 10:00~22:00　FRI-SUN 10：00~22:30","<MISSING>"
"<MISSING>","MUJI  XiaMen WuYuanWan TianHong CCMall","1F XiaMen WuYuanWan TianHong CCMall，No.516 Jinhu Rd Huli Dist","<MISSING>","Fujian Prov.","<MISSING>","CN","CN500638","0592-5060638","MUJI  XiaMen WuYuanWan TianHong CCMall","24.5107694623","118.1602375304","muji.com","MON-THU 10:00~22:00　FRI-SUN 10:00~22:30","<MISSING>"
"<MISSING>","MUJI Xiamen Yuzhou World Trade Center","1F Area BNo. 882-888 Xiahe Rd Siming Distric","<MISSING>","Fujian Prov.","<MISSING>","CN","CN500482","0592-2028938","MUJI Xiamen Yuzhou World Trade Center","24.4670448704","118.112929439","muji.com","10:00~22:00","<MISSING>"
"<MISSING>","MUJI LanZhou Guo Fang Bai Huo","2F No.4-6 GuangChang(S)Rd ChengGuan Dist","<MISSING>","Gansu Prov.","<MISSING>","CN","CN500560","0931-8634941","MUJI LanZhou Guo Fang Bai Huo","36.0518932919","103.8442350543","muji.com","May.1st-Oct.31th  SUN-THU 9:30~21:30; FRI-SAT 9:30~22:00　Nov.1st-Apr.30th  SUN-THU 9:30~21:00; FRI-SAT 9:30~21:30","<MISSING>"
"<MISSING>","MUJI LANZHOU CENTER","1F lanzhou center No.16 Xijin(W)Rd Qilihe Dist","<MISSING>","Gansu Prov.","<MISSING>","CN","CN500691","0931-2312594","MUJI LANZHOU CENTER","36.0700092745","103.7741004688","muji.com","Oct 1st-Apr 30th:MON-SUN :10:00~21:30　May 1st-Sep 30th:MON-SUN : 10:00~22:00","<MISSING>"
"<MISSING>","MUJI G5 Guangzhou","1F","<MISSING>","Guangdong Prov.","<MISSING>","CN","CN500248","020-36484863","MUJI G5 Guangzhou","23.182295","113.264515","muji.com","10:00~22:00","<MISSING>"
"<MISSING>","MUJI Popark mall Guangzhou","B1Popark Mall NO.63 Mid Linhe RdTianhe Dist","<MISSING>","Guangdong Prov.","<MISSING>","CN","CN500157","020-38096163","MUJI Popark mall Guangzhou","23.146743","113.325196","muji.com","MON-SUN 10:00～22:00","<MISSING>"
"<MISSING>","MUJI Metropolitan Plaza Guangzhou","B1 Metropolitan Plaza No.8 Sand AvenueLiwan Dist","<MISSING>","Guangdong Prov.","<MISSING>","CN","CN500327","020-81536581","MUJI Metropolitan Plaza Guangzhou","23.1128681162","113.2364552962","muji.com","10:00~22:00","<MISSING>"
"<MISSING>","MUJI happy valley guangzhou","1F No.36 Racecourse Rd Tianhe Dist","<MISSING>","Guangdong Prov.","<MISSING>","CN","CN500404","020-38325302","MUJI happy valley guangzhou","23.123711","113.34438","muji.com","10:00~22:00","<MISSING>"
"<MISSING>","MUJI Guangzhou One Link Walk","B1 One Link WalkRoom No.232 Tianhe RdTianhe Dist","<MISSING>","Guangdong Prov.","<MISSING>","CN","CN500442","020-38875565","MUJI Guangzhou One Link Walk","23.132755031","113.3290333916","muji.com","10:00-22:00","<MISSING>"
"<MISSING>","MUJI GuangZhou Jiangyan Road Vankely","B1No.99 Jiangyan Rd Haizhu Dist","<MISSING>","Guangdong Prov.","<MISSING>","CN","CN500462","020-89635521","MUJI GuangZhou Jiangyan Road Vankely","23.0821235969","113.2784968965","muji.com","10:00~22:00","<MISSING>"
"<MISSING>","MUJI MixC Shenzhen","3F Mixc Mall Phase1No.1881 Baoan(S) Rd. Luohu Dist","<MISSING>","Guangdong Prov.","<MISSING>","CN","CN500059","0755-8266-5710","MUJI MixC Shenzhen","22.5391778085","114.1112103445","muji.com","SUN-THU 10:00～22:00　FRI,SAT,Days before holidays10:00～22:30","<MISSING>"
"<MISSING>","MUJI CocoPark Shenzhen","L2 Cocopark No.269 Fuhua 3rd RdFutian Dist","<MISSING>","Guangdong Prov.","<MISSING>","CN","CN500080","0755-83270706","MUJI CocoPark Shenzhen","22.5329606238","114.054526406","muji.com","SUN-THU 10:00～22:00　SAT,SUN 10:00～22:30","<MISSING>"
"<MISSING>","MUJI Shenzhen Scpg Center","2FShenzhen Scpg Center No.69 Nonglin RdFutian Dist","<MISSING>","Guangdong Prov.","<MISSING>","CN","CN500125","0755-82561517","MUJI Shenzhen Scpg Center","22.544666","114.011028","muji.com","SUN-THU 10:00～22:00 　FRI,SAT  10:00～22:30","<MISSING>"
"<MISSING>","MUJI ShenZhen Coastal City","3F No.33 Wenxin 5 RdNanShan Dist","<MISSING>","Guangdong Prov.","<MISSING>","CN","CN500137","0755-26918106","MUJI ShenZhen Coastal City","22.5169352056","113.9356522792","muji.com","SUN-THU 10:00~22:00　FRI-SAT 10:00~22:30","<MISSING>"
"<MISSING>","MUJI All City Shenzen","1F NO.2233 Zhongxin Rd. Nanshan Dist","<MISSING>","Guangdong Prov.","<MISSING>","CN","CN500140","0755-36889098","MUJI All City Shenzen","22.5005320724","113.9385903583","muji.com","SUN-THU 10:00～22:00　FRI,SAT 10:00～22:30","<MISSING>"
"<MISSING>","MUJI Zhuoyue INTOWN Shenzhen","2F Zhuoyue INTOWN Shenzhen，South of No.3 Fuhua Rd West of HaiTian Rd Futian Dist","<MISSING>","Guangdong Prov.","<MISSING>","CN","CN500245","0755-82713230","MUJI Zhuoyue INTOWN Shenzhen","22.53239","114.064036","muji.com","10:00~22:00","<MISSING>"
"<MISSING>","MUJI Shenzhen MH Mall","L1 No.8 Golf RdLonghua New Dist","<MISSING>","Guangdong Prov.","<MISSING>","CN","CN500306","0755-23771703","MUJI Shenzhen MH Mall","22.7226137712","114.0761525897","muji.com","SUN-THU 10:00-22:00　FRI.SAT 10:00~22:30","<MISSING>"
"<MISSING>","MUJI OCTBAY Happy Mall Shenzhen","G OCTBAY Happy Mall No.8 Baishi(E) RdNanshan Dist","<MISSING>","Guangdong Prov.","<MISSING>","CN","CN500309","0755-86966232","MUJI OCTBAY Happy Mall Shenzhen","22.5250833409","113.9878179495","muji.com","10:00-22:00","<MISSING>"
"<MISSING>","MUJI Shenzhen Longhua 9 square","1F Shenzhen Longhua 9 square，No.2020 Renmin Rd Longhua Dist","<MISSING>","Guangdong Prov.","<MISSING>","CN","CN500318","0755-23025796","MUJI Shenzhen Longhua 9 square","22.627886","114.023902","muji.com","MON-THU 10:00~22:00　FRI-SUN 10:00~22:30","<MISSING>"
"<MISSING>","MUJI to GO Shenzhen Airport GTC","2F GTC Terminal T3 International AirportBaoan Dist","<MISSING>","Guangdong Prov.","<MISSING>","CN","CN500331","0755-23453079","MUJI to GO Shenzhen Airport GTC","22.623661","113.81335","muji.com","MON-SUN  7:30~22:00","<MISSING>"
"<MISSING>","MUJI Shenzhen  Huaqiangbei 9Square Mall","2F No. 1018 Huafu Rd Futian Dist","<MISSING>","Guangdong Prov.","<MISSING>","CN","CN500470","0755-23482273","MUJI Shenzhen  Huaqiangbei 9Square Mall","22.5432829264","114.0843120566","muji.com","SUN-THU 10:00-22:00　FRI.SAT.On the eve of public holidays 10:00-22:30","<MISSING>"
"<MISSING>","MUJI ShenZhen City Mall","LG NO. 1095 Shennan (M) RdFutian Dist","<MISSING>","Guangdong Prov.","<MISSING>","CN","CN500492","0755-25895661","MUJI ShenZhen City Mall","22.5395127121","114.0984982404","muji.com","10:00～22:00","<MISSING>"
"<MISSING>","MUJI ShenZhen UNIWALK","1F UNIWALK No.99 Xinhu Rd BaoAn Dist","<MISSING>","Guangdong Prov.","<MISSING>","CN","CN500630","0755-23002373","MUJI ShenZhen UNIWALK","22.5523156869","113.8891129904","muji.com","SUN-THU 10:00~22:00 　FRI-SAT 10:00~22:30","<MISSING>"
"<MISSING>","MUJI ShenZhen Mixc World","1FNo.9668 ShenNan Avenue YueHai StrNanShan Dist","<MISSING>","Guangdong Prov.","<MISSING>","CN","CN500634","0755-86682816","MUJI ShenZhen Mixc World","22.5437052988","113.9563705792","muji.com","MON-SUN 10:00～22:00","<MISSING>"
"<MISSING>","MUJI MixC Nanning","2/F-201、W215","<MISSING>","Guangxi Prov.","<MISSING>","CN","CN500077","0771-5828223","MUJI MixC Nanning","22.812066","108.392143","muji.com","SUN-THU 10:00～22:00 FRI,SAT 10:00～22:30","<MISSING>"
"<MISSING>","MUJI NanNing Hang Yang City","L2 No.131 National Rd","<MISSING>","Guangxi Zhuang Autonomous Region","<MISSING>","CN","CN500340","0771-5582502","MUJI NanNing Hang Yang City","22.8135779405","108.3850770329","muji.com","SUN-THU 10:00~22:00 　FRI,SAT 10:00~22:30","<MISSING>"
"<MISSING>","MUJI ZhuHai YangMing Plaza 2Qi","1F ZhuHai YangMing Plaza 2 phase No.1066 Phoenix RdXiangzhou Dist","<MISSING>","Guangzhou Prov.","<MISSING>","CN","CN500376","0756-6129306","MUJI ZhuHai YangMing Plaza 2Qi","22.2756331375","113.5793207672","muji.com","SUN-THU 10:00~22:00　FRI-SAT  10:00~22:30","<MISSING>"
"<MISSING>","MUJI Baoli Estee City Guiyang","2F No.42 Shinan RdNanming Dist","<MISSING>","Guizhou Prov.","<MISSING>","CN","CN500312","0851-85514448","MUJI Baoli Estee City Guiyang","26.563522","106.724007","muji.com","MON-FRI 10:30～22:00　SAT,SUN 10:00～22:00","<MISSING>"
"<MISSING>","MUJI HaiKou Yi Xin Cheng","1F No.8 Mingzhu Rd Longhua Distric","<MISSING>","HaiNan Prov.","<MISSING>","CN","CN500367","0898-68505760","MUJI HaiKou Yi Xin Cheng","20.0244120925","110.3130564051","muji.com","MON-SUN 09:30～22:30","<MISSING>"
"<MISSING>","MUJI HaiKou MOVA Plaza","1F No.8 GuoXing AvenueQiongShan Dist","<MISSING>","HaiNan Prov.","<MISSING>","CN","CN500552","0898-66726460","MUJI HaiKou MOVA Plaza","20.015510261","110.3484173464","muji.com","MON-SUN 10:00~22:00","<MISSING>"
"<MISSING>","MUJI NEW COMMERCIAL PLAZA","1F New Commercial Plaza BeiKuo，No. 29 Zhonghua North Str CongTai Dist","<MISSING>","HeBei Prov.","<MISSING>","CN","CN500049","0310-2042276","MUJI NEW COMMERCIAL PLAZA","36.6105709489","114.4946362017","muji.com","JUL-SEPT：MON-FRI：10:00~22:00 SAT-SUN：9:30~22:00　OCT-JUN：MON-FRI：10:00~21:00 SAT-SUN：9:30-21:00","<MISSING>"
"<MISSING>","MUJI HanDan TianHongGuangChang","1F No.505 Lianfang (E)RdCongTai Dist","<MISSING>","HeBei Prov.","<MISSING>","CN","CN500640","0310-7078601","MUJI HanDan TianHongGuangChang","36.6266188587","114.5202999045","muji.com","MON-SUN 09:30～21:00","<MISSING>"
"<MISSING>","MUJI TangShan Lerthai center","1F NO.298 BeiXinXi Road","<MISSING>","HeBei Prov.","<MISSING>","CN","CN500596","0315-3797937","MUJI TangShan Lerthai center","39.6341009576","118.1049698793","muji.com","June 1st.-Sep 30th. MON-THU : 9:30~21:00 FRI-SUN : 9:30~21:30　Oct 1st.-May 31th. MON-THU : 10:00~21:00 FRI-SUN : 9:30~21:30","<MISSING>"
"<MISSING>","MUJI TangShan Pelagic Mall","1F NO.128 Jianshe(N)RdLuBei Dist","<MISSING>","HeBei Prov.","<MISSING>","CN","CN500594","0315-2790791","MUJI TangShan Pelagic Mall","39.6677185278","118.1761358433","muji.com","MON-SUN 09:30～21:30　May～Step SUN～THU 09:30～21:30 FRI、SAT 09:30～22:00","<MISSING>"
"<MISSING>","MUJI Vanbo Plaza Baoding","2F NO.99 Chaoyang (N) AveXinshi Dist","<MISSING>","Hebei Prov.","<MISSING>","CN","CN500194","0312-6095440","MUJI Vanbo Plaza Baoding","38.877036","115.469526","muji.com","10:00~22:00","<MISSING>"
"<MISSING>","MUJI Wanda Shijiazhuang","1F","<MISSING>","Hebei Prov.","<MISSING>","CN","CN500044","0311-67567118","MUJI Wanda Shijiazhuang","38.023332","114.545633","muji.com","MON-SUN 10:00~22:00","<MISSING>"
"<MISSING>","MUJI Xiantianxia Shijiazhuang","3F Xiantianxia PlazaNO.58 Yucai Str. Changan Dist","<MISSING>","Hebei Prov.","<MISSING>","CN","CN500119","0311-85936386","MUJI Xiantianxia Shijiazhuang","38.042008","114.527149","muji.com","MON-THU 10:00～21:30　FRI-SUN 10:00~22:00","<MISSING>"
"<MISSING>","MUJI ShiJiaZhuang Lerthai Center","1F No.39 Zhongshan(E) Rd Qiaodong Dist","<MISSING>","Hebei Prov.","<MISSING>","CN","CN500592","0311-68128659","MUJI ShiJiaZhuang Lerthai Center","38.0437410026","114.506951258","muji.com","Summer  MON~SUN 10:00-22:30 　Winter MON~SUN 10:00-22:00","<MISSING>"
"<MISSING>","MUJI Harbin HongBo Central Park","B1NO.339 Hong Qi Str NanGang DistJingkai Dist","<MISSING>","HeiLongJiang Prov.","<MISSING>","CN","CN500434","0451-85998598","MUJI Harbin HongBo Central Park","45.7569040802","126.6976275536","muji.com","MON-SUN 09:30～21:00","<MISSING>"
"<MISSING>","MUJI Harbin WEST RED SQUARE","1F NO.299 HaXi StrNanGang Dist","<MISSING>","HeiLongJiang Prov.","<MISSING>","CN","CN500648","0451-51501896","MUJI Harbin WEST RED SQUARE","45.7039803972","126.5920531375","muji.com","Summer（May 1st~October.20th）Mon-Sun 9:30~21:30　Winter（Oct.21st~Apr.30th）Mon-Sun 9:30~21:00","<MISSING>"
"<MISSING>","MUJI HARBIN CHARTER PHASE II","1F HARBIN CHARTER PHASE II NO.99 Shanghai StrDaoli Dist","<MISSING>","HeiLongJiang Prov.","<MISSING>","CN","CN500671","0451-51181668","MUJI HARBIN CHARTER PHASE II","45.7605233289","126.6027691962","muji.com","Oct.1st-Apr.30th  MON-SUN 10:00~21:00　May.1st-Nov.30th  MON-SUN 10:00~21:30","<MISSING>"
"<MISSING>","MUJI XINTIAN 360 PLAZA of Guomao Zhengzhou","2F Int.Trade 360 Plaza No. 39 Huayuan Rd","<MISSING>","Henan Prov.","<MISSING>","CN","CN500068","0371-87092566","MUJI XINTIAN 360 PLAZA of Guomao Zhengzhou","34.784695","113.681374","muji.com","MON-THU 10:00～22:00　FRI-SUN 10:00~22:30","<MISSING>"
"<MISSING>","MUJI Funcity Changsha","1F FuncityNo.36 Wanjiali(M) RdYuhua Dist","<MISSING>","Hu'nan Prov.","<MISSING>","CN","CN500185","0731-84118206","MUJI Funcity Changsha","28.130781","113.037223","muji.com","9:30～22:00","<MISSING>"
"<MISSING>","MUJI WuHan MALL","1F WuHan MALL First Period Building A No.6 LongYang AveHanyang Dist","<MISSING>","HuBei Prov.","<MISSING>","CN","CN500616","027-84597616","MUJI WuHan MALL","30.5585567037","114.2081502173","muji.com","MON-SUN 10:00～22:00","<MISSING>"
"<MISSING>","MUJI ChangSha I City Lifestyle Center","1F I City No.416 Furong(M)Rd 1st Sec KaiFu Dist","<MISSING>","HuNan Prov.","<MISSING>","CN","CN500534","0731-88232367","MUJI ChangSha I City Lifestyle Center","28.2087170809","112.9840373842","muji.com","MON-SUN 10:00～22:00","<MISSING>"
"<MISSING>","MUJI Wanda Hanjie Wuhan","J2-4-22 No.48","<MISSING>","Hubei Prov","<MISSING>","CN","CN500039","027-8711-0717","MUJI Wanda Hanjie Wuhan","30.556829","114.341749","muji.com","10:00-22:00","<MISSING>"
"<MISSING>","MUJI Int. Plaza Wuhan","2F Wuhan Int. Plaza Shopping Center No.690 Jiefang Ave. Jianghan Dist","<MISSING>","Hubei Prov.","<MISSING>","CN","CN500032","027-8571-1619","MUJI Int. Plaza Wuhan","30.580699","114.270192","muji.com","MON-THU 9:30～21:30　FRI 9:30～22:00,SAT 9:00～22:00,SUN 9:00～21:30","<MISSING>"
"<MISSING>","MUJI Zhongxin store Wuhan","1F NO.129 Jianghan Rd. Jianghan Dist","<MISSING>","Hubei Prov.","<MISSING>","CN","CN500173","027-82887908","MUJI Zhongxin store Wuhan","30.581697","114.290189","muji.com","MON-FRI 10:00~22:00　SAT,SUN 9:45~22:00","<MISSING>"
"<MISSING>","MUJI Wuhan Orsun century plaza","1F Centry Plaza No.809 Heping Ave. Qingshan Dist","<MISSING>","Hubei Prov.","<MISSING>","CN","CN500203","027-86388283","MUJI Wuhan Orsun century plaza","30.6170517452","114.3607053448","muji.com","10:00～21:30","<MISSING>"
"<MISSING>","MUJI ShoppingMall Wuhan","1F Shopping Mall N.18 Xudong AveWuchang Dist","<MISSING>","Hubei Prov.","<MISSING>","CN","CN500224","027-68898818","MUJI ShoppingMall Wuhan","30.589095","114.343731","muji.com","MON-FRI   9:45~21:30 　FRI-SAT   9:45~21:45","<MISSING>"
"<MISSING>","MUJI Worldcity Wuhan","1F World City Plaza No.766 Luoyu RdDonghu New Tech-Development Dist","<MISSING>","Hubei Prov.","<MISSING>","CN","CN500239","027-87581098","MUJI Worldcity Wuhan","30.5064137004","114.4051529298","muji.com","MON-THU 10:00~21:30     　FRI 10:00~21:30  SAT 9:30~22:00  SUN 9:30~21:30","<MISSING>"
"<MISSING>","MUJI Wuhan STAR CITY","2F Wuhan STAR CITY NO.120 Xudong Ave.Wuchang Dist","<MISSING>","Hubei Prov.","<MISSING>","CN","CN500672","027-88857720","MUJI Wuhan STAR CITY","30.5843519003","114.3497405547","muji.com","MON-SUN 10:00～22:00","<MISSING>"
"<MISSING>","MUJI Wuhan chicony square #2","1FWuhan chicony square #2 No.10 Luoyu RdHongshan Dist","<MISSING>","Hubei Prov.","<MISSING>","CN","CN500692","027-87453008","MUJI Wuhan chicony square #2","30.5256255141","114.3549161748","muji.com","Sun-Thu 9:30～21:30　Fri-Sat 9:30～22:00","<MISSING>"
"<MISSING>","MUJI HuHeHaoTe Hai Liang Plaza","1F","<MISSING>","Huimin Dist.Hohhot","<MISSING>","CN","CN500343","0471-5203881","MUJI HuHeHaoTe Hai Liang Plaza","40.8161399394","111.6694734043","muji.com","May 1st-Sep 30th SUN-THU 9:30~21:30 FRI-SAT 9:30~22:00　OCT 1st-APR 30th SUN-THU 9:30~21:00 FRI-SAT 9:30~21:30","<MISSING>"
"<MISSING>","MUJI Changsha The Mall of Spledors","L1 NO.1177 Huanhu Rd Yuelu Dist","<MISSING>","Hunan Prov.","<MISSING>","CN","CN500514","0731-89510681","MUJI Changsha The Mall of Spledors","28.1967447962","112.9016131566","muji.com","MON-SUN 10:00～22:00","<MISSING>"
"<MISSING>","MUJI ChangSha Gojoin STREET","Suite B106-110 B Floor No.78 Huangxing (M) Rd Tianxin Dist","<MISSING>","Hunan Prov.","<MISSING>","CN","CN500632","0731-85512401","MUJI ChangSha Gojoin STREET","28.1934931323","112.976640975","muji.com","MON-SUN 09:30～22:30","<MISSING>"
"<MISSING>","MUJI Zhongxin ID mall Changsha","1F NO.216 Pozi St. Tianxin Dist","<MISSING>","Hunan Prov.","<MISSING>","CN","CN500089","0731-8996-2828","MUJI Zhongxin ID mall Changsha","28.189856","112.975604","muji.com","SUN-MON  10:00-22:00","<MISSING>"
"<MISSING>","MUJI Changsha HEIWADO AUX","2F AUX No.57 YueLu Ave YueLu Dist","<MISSING>","Hunan Prov.","<MISSING>","CN","CN500556","0731-8448-4556","MUJI Changsha HEIWADO AUX","28.2229746981","112.9544838796","muji.com","MON-SUN 09:00～22:00","<MISSING>"
"<MISSING>","MUJI ChangSha Max City","G NO.1099 3Rd Fenglin","<MISSING>","Hunan Prov.","<MISSING>","CN","CN500500","0731-8834-2332","MUJI ChangSha Max City","28.1994360625","112.8615127861","muji.com","MON-SUN 10:00~22:00","<MISSING>"
"<MISSING>","MUJI Zhuzhou Heiwado Store","1F NO.61 Chezhan Rd LuSong Dist","<MISSING>","Hunan Prov.","<MISSING>","CN","CN500532","0731-22162317","MUJI Zhuzhou Heiwado Store","27.8340360502","113.1539491919","muji.com","MON-SUN 09:00～22:00","<MISSING>"
"<MISSING>","MIKAGE CLASSE","Mikage Classe 3F 3-2-1 Mikagenakamachi Higashinada-ku","<MISSING>","Hyogo","658-0054","JA","045445","078-858-7271","MIKAGE CLASSE","34.7156694513493","135.255138285531","muji.com","10:00～21:00","<MISSING>"
"<MISSING>","FASHION CRUISE HITACHINAKA","Newport Hitachinaka Fashion Cruise 1F 35 Shinkocho","<MISSING>","Ibaragi","312-0005","JA","045706","029-265-1201","FASHION CRUISE HITACHINAKA","36.404886","140.586945","muji.com","10:00～20:00","<MISSING>"
"<MISSING>","MUJI ChangChun Village Plaza","1F NO.88 ChongQing Rd NanGuan Dist","<MISSING>","JiLin Prov.","<MISSING>","CN","CN500542","0431-81876326","MUJI ChangChun Village Plaza","43.8914690047","125.333412448","muji.com","May 1st~Oct 31st   MON-SUN 10:00~22:00　Nov 1st~Apr 30th   MON-SUN：10:00~21:30","<MISSING>"
"<MISSING>","MUJI XuZhou House Of Fraser","1F NO.26-8 South JieFang Rd QuanShan Dist","<MISSING>","JiangSu Prov","<MISSING>","CN","CN500626","0516-83996629","MUJI XuZhou House Of Fraser","34.2235453574","117.1950318294","muji.com","May.1st-Sept.30th MON-FRI 10:00~22:00; SAT-SUN 9:30~22:00　Oct.1st-Apr.30th    SUN-THU 10:00~21:30; RFI-SAT 10:00~22:00","<MISSING>"
"<MISSING>","MUJI SuZhou Jin Ying Shi Shan","1F No.298 ShiShan Rd GaoXin Dist","<MISSING>","JiangSu Prov.","<MISSING>","CN","CN500558","0512-6583-9619","MUJI SuZhou Jin Ying Shi Shan","31.2931230222","120.5508546264","muji.com","MON-SUN 9：30～22:00","<MISSING>"
"<MISSING>","MUJI SuZhou Center","1F SuZhou Center NO.68 Building Suzhou Industrial Site","<MISSING>","JiangSu Prov.","<MISSING>","CN","CN500610","0512-69883011","MUJI SuZhou Center","31.3193661134","120.6768105823","muji.com","MON-SUN 10:00～22:00","<MISSING>"
"<MISSING>","MUJI NanTong WenFeng Da Shi Jie","1Floor NO.3-21 NanDa Street ChongChuan District","<MISSING>","JiangSu Province","<MISSING>","CN","CN500550","0513-55087601","MUJI NanTong WenFeng Da Shi Jie","32.0152541096","120.8661614281","muji.com","SUN~THU 9:30~22:00　FRI~SAT 9:30~22:30","<MISSING>"
"<MISSING>","MUJI ZhuJiangLu JinYingTianDi NanJing","2F No.1 Zhujiang RdXuanwu Dist","<MISSING>","Jiangshu Prov.","<MISSING>","CN","CN500361","025-52306557","MUJI ZhuJiangLu JinYingTianDi NanJing","32.0508671326","118.7850365304","muji.com","MON-SUN 10:00～22:00","<MISSING>"
"<MISSING>","MUJI Zhenjiang XieXinXingGuang Shidai guang chang","1F Zhenjiang XieXinXingGuang Shidai guang chang No. 92 ZhongShan(W) Rd Runzhou Dist","<MISSING>","Jiangsu Pro.","<MISSING>","CN","CN500682","0511-83828080","MUJI Zhenjiang XieXinXingGuang Shidai guang chang","32.2021392372","119.4387547754","muji.com","MON-SUN 10:00~22:00","<MISSING>"
"<MISSING>","MUJI AquaCity Nanjing","B1 NO.1 Jiangkang Rd","<MISSING>","Jiangsu Prov.","<MISSING>","CN","CN500006","025-8223-3574","MUJI AquaCity Nanjing","32.023641","118.785843","muji.com","MON-SUN 10:00～22:00","<MISSING>"
"<MISSING>","MUJI Wuxi Coastal City","1F No.168 Lixin Ave.","<MISSING>","Jiangsu Prov.","<MISSING>","CN","CN500188","0510-85170133","MUJI Wuxi Coastal City","31.4867936392","120.3035601987","muji.com","SUN-THU 10:00~21:30　FRI,SAT 10:00～22:00","<MISSING>"
"<MISSING>","MUJI Injoy Plaza Changzhou","2F No.188 Wuyi(M) RdWujin Dist","<MISSING>","Jiangsu Prov.","<MISSING>","CN","CN500050","0519-8806-5926","MUJI Injoy Plaza Changzhou","31.727036","119.942672","muji.com","SUN-THU 10:00~21:30　FRI,SAT 10:00~22:00","<MISSING>"
"<MISSING>","MUJI WuXi Suning Plaza","1F NO.111 Renmin(M) Rd","<MISSING>","Jiangsu Prov.","<MISSING>","CN","CN500602","0510-82706786","MUJI WuXi Suning Plaza","31.5759930304","120.3026073918","muji.com","SUN-THU 09:30～22:00　FRI-SAT 09:30～22:30","<MISSING>"
"<MISSING>","MUJI Wanda Plaza Nanjing","1F NO. 98 Jiangdong(M) RdJianye Dist","<MISSING>","Jiangsu Prov.","<MISSING>","CN","CN500134","025-87786101","MUJI Wanda Plaza Nanjing","32.032091","118.735256","muji.com","MON-THU 10:00~22:00, FRI 10:00~22:30　SAT 9:30~22:30, SUN 9:30~22:00","<MISSING>"
"<MISSING>","MUJI Nanjing RSUN PLAZA","B1 No.48 Daqiao (N) RdPukou Dist","<MISSING>","Jiangsu Prov.","<MISSING>","CN","CN500662","025-58627001","MUJI Nanjing RSUN PLAZA","32.1346641892","118.7279131711","muji.com","MON-SUN 10:00～22:00","<MISSING>"
"<MISSING>","MUJI Nanjing House of Fraser","1-2F Nanjing House of Fraser No.2 Zhongshan(S) RdQinhuai Dist","<MISSING>","Jiangsu Prov.","<MISSING>","CN","CN500678","025-52382885","MUJI Nanjing House of Fraser","32.0405421482","118.783787996","muji.com","SUN-THU 10:00~22:00　FRI-SAT  10:00~22:30","<MISSING>"
"<MISSING>","MUJI ONE MALL","B1 Nanjing HuaCai TianDi，No. 258 Jiangdong Middle Rd Jianye Dist","<MISSING>","Jiangsu Prov.","<MISSING>","CN","CN500686","025-85655661","MUJI ONE MALL","31.996773576","118.7217766748","muji.com","MON-SUN 10:00~22:00","<MISSING>"
"<MISSING>","Cafe&Meal MUJI Nanjing House of Fraser","2F Nanjing House of Fraser No.2 Zhongshan(S) RdQinhuai Dist","<MISSING>","Jiangsu Prov.","<MISSING>","CN","CN500707","025-52382883","Cafe&Meal MUJI Nanjing House of Fraser","32.0405421482","118.7837343518","muji.com","SUN-THU 10:00~22:00　FRI-SAT  10:00~22:30","<MISSING>"
"<MISSING>","MUJI Suzhou Incity Plaza","3F IN CITY No.1699 Modern AveSuzhou Industrial Park","<MISSING>","Jiangsu Prov.","<MISSING>","CN","CN500005","0512-6956-6121","MUJI Suzhou Incity Plaza","31.318081","120.657177","muji.com","10:00～22:00","<MISSING>"
"<MISSING>","MUJI Tower Dept.Store Suzhou","B1 NO.372 Renmin RdGusu Dist","<MISSING>","Jiangsu Prov.","<MISSING>","CN","CN500027","0512-6933-2208","MUJI Tower Dept.Store Suzhou","31.2897934849","120.6252586682","muji.com","MON-SUN 10:00～22:00","<MISSING>"
"<MISSING>","MUJI WUJIANG MIXC ONE","1F Wujiang Wanxianghui No.2299 Kaiping Road Wujiang Dist","<MISSING>","Jiangsu Prov.","<MISSING>","CN","CN500057","0512-63018006","MUJI WUJIANG MIXC ONE","31.1365497247","120.6181484787","muji.com","SUN-THU 10:00~21:30　FRI-SAT 10:00~22:00","<MISSING>"
"<MISSING>","MUJI Harmony City Suzhou","1FNo.269 Wangdun RdIndustrial Dist","<MISSING>","Jiangsu Prov.","<MISSING>","CN","CN500206","0512-6696-8108","MUJI Harmony City Suzhou","31.318931","120.715635","muji.com","MON-SUN 10:00~22:00","<MISSING>"
"<MISSING>","MUJI Vanke Midtown Suzhou","1FNo.229 Zhongxin AveIndustrial Area","<MISSING>","Jiangsu Prov.","<MISSING>","CN","CN500215","0512-62883505","MUJI Vanke Midtown Suzhou","31.305501","120.652386","muji.com","10:00-22:00","<MISSING>"
"<MISSING>","Suzhou RAINBOW CC.MALL SHOPPING CENTER","1F No.219 South Guangji RdGusu Dist","<MISSING>","Jiangsu Prov.","<MISSING>","CN","CN500278","0512-65899650","Suzhou RAINBOW CC.MALL SHOPPING CENTER","31.3093562661","120.5983958386","muji.com","MON-SUN 10:00~22:00","<MISSING>"
"<MISSING>","MUJI XuZhou Suning Plaza","B1 NO.29 Huaihai(E) Rd Gulou Dist","<MISSING>","Jiangsu Prov.","<MISSING>","CN","CN500604","0516-8100-6800","MUJI XuZhou Suning Plaza","34.2639015891","117.1884709864","muji.com","May.1st-Oct.8th SUN-THU 9:20~22:00; FRI-SAT 9:20~22:30　Oct.9th-Apr.30th SUN-THU 9:20~21:30; FRI-SAT 9:20~22:00","<MISSING>"
"<MISSING>","MUJI YangZhou Hua Mao Shopping Center","1F No.555 Wenchang M Rd Hanjiang Dist","<MISSING>","Jiangsu Prov.","<MISSING>","CN","CN500466","0514-8218-5133","MUJI YangZhou Hua Mao Shopping Center","32.3931944929","119.4258972452","muji.com","SUN-THU 9:30～21:30　FRI-SAT 9:30～22:00","<MISSING>"
"<MISSING>","MUJI Core Pacific City Living Mall YangZhou","2F No.168 Jinghua Rd Hanjiang Dist","<MISSING>","Jiangsu Prov.","<MISSING>","CN","CN500668","0514-82823773","MUJI Core Pacific City Living Mall YangZhou","32.3853432514","119.3742196542","muji.com","Summer（May.1st-Nov.30th） MON-THU9:30~22:00;  FRI-SUN9:30~22:30　Winter（Dec.1st-Apr.30th） MON-THU 9:30~21:30;  FRI-SUN 9:30~22:00","<MISSING>"
"<MISSING>","MUJI ZhenJiang Suning Plaza","1F No.301 Zhongshan(E)RdJingkou Dist","<MISSING>","Jiangsu Prov.","<MISSING>","CN","CN500669","0511-85016156","MUJI ZhenJiang Suning Plaza","32.2041800003","119.4530952726","muji.com","SUN-THU 9:30~21:30　FRI-SAT 9:30~22:00","<MISSING>"
"<MISSING>","MUJI Injoy International Changzhou","2F NO.123 Yanling(W) Rd","<MISSING>","Jiangsu Prov.","<MISSING>","CN","CN500263","0519-83983501","MUJI Injoy International Changzhou","31.781355","119.948628","muji.com","SUN-THU 10:00~21:30　FRI,SAT 10:00~22:00","<MISSING>"
"<MISSING>","MUJI Kunshan Core Hopsca 9 Square","1F No.666Middle Xiaolin Rd","<MISSING>","Jiangsu Prov.","<MISSING>","CN","CN500352","0512-5519-4568","MUJI Kunshan Core Hopsca 9 Square","31.4043068071","120.9546288208","muji.com","SUN-THU 10:00~22:00　FRI-SAT  10:00~22:30","<MISSING>"
"<MISSING>","MUJI NanChang T16 Mall","L1 No.369 South Lushan AvenueHongGuTan New Area","<MISSING>","Jiangxi Prov.","<MISSING>","CN","CN500518","0791-86122938","MUJI NanChang T16 Mall","28.7009232833","115.8665079593","muji.com","MON-SUN 10:00~22:00","<MISSING>"
"<MISSING>","MUJI JIANGXI PARKSON RETAIL CO.,LTD","1F No.177 Zhongshan RdDonghu Dist","<MISSING>","Jiangxi Prov.","<MISSING>","CN","CN500670","0791-86122958","MUJI JIANGXI PARKSON RETAIL CO.,LTD","28.6756957203","115.8918132739","muji.com","MON-SUN 10:00～22:00","<MISSING>"
"<MISSING>","MUJI Changzhou Jiangnan Global Harbor","1F No.598 Tongjiang(M) RdXinbei Dist","<MISSING>","Jiansu Prov.","<MISSING>","CN","CN500516","0519-85257706","MUJI Changzhou Jiangnan Global Harbor","31.8400288069","119.9806252948","muji.com","Mon-Sun 10:00～22:00","<MISSING>"
"<MISSING>","MUJI Changchun Ou Ya Mai Chang","1F NO.5178 KaiYun Str. Chaoyang Dist","<MISSING>","Jilin Prov","<MISSING>","CN","CN500431","0431-8443-5856","MUJI Changchun Ou Ya Mai Chang","43.8434497223","125.2467552988","muji.com","MON-SUN 9:10～20:00","<MISSING>"
"<MISSING>","MUJI Changchun Ou Ya Commercial Capital","2F NO.1128 GongNOng Str Chaoyang Dist","<MISSING>","Jilin Prov.","<MISSING>","CN","CN500428","0431-8565-2128","MUJI Changchun Ou Ya Commercial Capital","43.8704176942","125.299802637","muji.com","May 1st-Sep 30th：MON-SUN:9:00~21:00　Oct 1st-Apr 30th：MON-SUN : 9:00~20:30","<MISSING>"
"<MISSING>","MUJI ChangChun  New World LIVING MALL","1F NO.1138 YaTai Str NanGuan Dist","<MISSING>","Jilin Province","<MISSING>","CN","CN500548","0431-89302720","MUJI ChangChun  New World LIVING MALL","43.8992074959","125.3448037008","muji.com","MON-SUN 09:30～21:00","<MISSING>"
"<MISSING>","Cafe MUJI Shanghai Joy City","Room302-14、15 3F Joycity","<MISSING>","Jin'an District，Shanghai","<MISSING>","CN","CN500702","021-60400982","Cafe MUJI Shanghai Joy City","31.2445327725","121.4723476021","muji.com","MON-SUN 10:00～22:00","<MISSING>"
"<MISSING>","AUROLA MALL HIGASHITOTSUKA","Aurora Mall Higashitotsuka 3F 537-1 Shinanomachi Totsuka-ku","<MISSING>","Kanagawa","244-0801","JA","045489","045-828-2421","AUROLA MALL HIGASHITOTSUKA","35.430145099381","139.558534993059","muji.com","10:00～20:00","<MISSING>"
"<MISSING>","MUJI Wanda Plaza Dalian","1F NO.500 Huangpu Rd","<MISSING>","Liaoning Prov.","<MISSING>","CN","CN500179","0411-39021728","MUJI Wanda Plaza Dalian","38.862342","121.532221","muji.com","MON-SUN 9:30～21:00","<MISSING>"
"<MISSING>","MUJI Peace Plaza Dalian","2F NO.707 Gaoerji Rd","<MISSING>","Liaoning Prov.","<MISSING>","CN","CN500021","0411-8434-2227","MUJI Peace Plaza Dalian","38.8964391032","121.5886668281","muji.com","9:30~21:00","<MISSING>"
"<MISSING>","MUJI Shenyang Joycity","2F Shenyang Joycity NO.6 Xiaodong RdDadong Dist","<MISSING>","Liaoning Prov.","<MISSING>","CN","CN500012","024-2435-7227","MUJI Shenyang Joycity","41.802299","123.467753","muji.com","MON-SUN 10:00～22:00","<MISSING>"
"<MISSING>","MUJI LONGEMONTSHOPPING","1F No.2 Jianshe West Road Tiexi Dist","<MISSING>","Liaoning Prov.","<MISSING>","CN","CN500058","024-81848390","MUJI LONGEMONTSHOPPING","41.8042124356","123.343816635","muji.com","MON-SUN  9:30~21:30","<MISSING>"
"<MISSING>","MUJI K11 Art mall ShenYang","L1FNo.2 jia 1 Bolan RdHeping Dist","<MISSING>","Liaoning Prov.","<MISSING>","CN","CN500612","024-66917133","MUJI K11 Art mall ShenYang","41.7512418674","123.4378337642","muji.com","Apr 1st-Oct 31th:MON-SUN 10:00～22:00　Nov 1st-Mar 31th:MON-SUN:10:00~21:30","<MISSING>"
"<MISSING>","MUJI  Wanda Shenyang","1F NO.1 Beiyi (M) Rd","<MISSING>","Liaoning Prov.","<MISSING>","CN","CN500113","024-31223486","MUJI  Wanda Shenyang","41.81457","123.380671","muji.com","MON-SUN 9:30~21:30","<MISSING>"
"<MISSING>","MUJI Dalian Parkland","3F NO.19 Jiefang Rd","<MISSING>","Liaoning Prov.","<MISSING>","CN","CN500395","0411-62498712","MUJI Dalian Parkland","38.916366","121.63638","muji.com","9:30~21:00","<MISSING>"
"<MISSING>","MUJI XiNing TangTown 637","1F","<MISSING>","NO. XiGuan Street ChengXi Dist  XiNing City Qinghai Prov.","<MISSING>","CN","CN500650","0971-6271917","MUJI XiNing TangTown 637","36.6420366438","101.7187400037","muji.com","MON-SUN 10:00～22:00","<MISSING>"
"<MISSING>","MUJI YinChuan Guo Fang Department Store","1FNorth GuoFang Department XinHua(E) StrXingQing Dist","<MISSING>","Ningxia Hui Autonomous Region","<MISSING>","CN","CN500562","0951-5966861","MUJI YinChuan Guo Fang Department Store","38.4617827684","106.2837622173","muji.com","May 1st-Oct 31th : MON-THU : 9:30~21:30   FRI-SUN : 9:30~22:00　Nov 1st-Apr 30th : MON-THU：9:30~21:00    FRI-SUN : 9:30~21:30","<MISSING>"
"<MISSING>","MUJI NanJing Yu Hua Ke Ting E-PARK","1F","<MISSING>","No. Ruanjiandadao，Yuhuatai Dist，Nanjing City，Jiangsu Prov.","<MISSING>","CN","CN500683","025-89669626","MUJI NanJing Yu Hua Ke Ting E-PARK","31.9789535852","118.7643790849","muji.com","MON-SUN 10:00～22:00","<MISSING>"
"<MISSING>","PEONY-WALK HIGASHIMATSUYAMA","25-1 gai-ku toshikeikakujigyo Takasaka-eki higashiguchi dai2tokuteitochikukaku seirijigyochinai","<MISSING>","Saitama","355-8606","JA","045259","0493-31-0081","PEONY-WALK HIGASHIMATSUYAMA","36.0052816040777","139.410925768706","muji.com","10:00～21:00","<MISSING>"
"<MISSING>","MUJI Yongningmen Mall Xi'an","B1 No.88 Nanguanzheng Str.Beilin Dist","<MISSING>","ShaanXi Prov.","<MISSING>","CN","CN500494","029-87651733","MUJI Yongningmen Mall Xi'an","34.2479233549","108.9460215325","muji.com","MON-SUN 10:00-22:00","<MISSING>"
"<MISSING>","MUJI Cityon Xi'an Shopping Center","1F No.170 Weiyang RdEconomic development Zone","<MISSING>","ShaanXi Prov.","<MISSING>","CN","CN500496","029-89609275","MUJI Cityon Xi'an Shopping Center","34.3376055455","108.9453529759","muji.com","MON-SUN 10:00～22:00","<MISSING>"
"<MISSING>","MUJI XiAn MOMO PARK Shopping Mall","1F MOMO PARK，No.232 Xiao Zhai (W) Rd Yanta Dist","<MISSING>","ShaanXi Prov.","<MISSING>","CN","CN500642","029-89350508","MUJI XiAn MOMO PARK Shopping Mall","34.2224384915","108.9328060297","muji.com","MON-SUN 10:00～22:00","<MISSING>"
"<MISSING>","MUJI Tang West Shoppingmall Xian","2F No.118 Laodong(S) Rd Lianhu Dist","<MISSING>","Shaanxi Prov.","<MISSING>","CN","CN500324","029-88772473","MUJI Tang West Shoppingmall Xian","34.246681","108.908712","muji.com","Summer  MON~SUN 10:00-22:00　Winter  MON~SUN 10:00-21:30","<MISSING>"
"<MISSING>","MUJI Century Ginwa Sigo Shopping Center","1F Saigao Str.No.150 Weiyang Rd Jingkai Dist","<MISSING>","Shaanxi Prov.","<MISSING>","CN","CN500392","029-89240561","MUJI Century Ginwa Sigo Shopping Center","34.3284581967","108.9464802946","muji.com","May.1st-Sep.30th  MON-SUN10:00~22:00　Oct.1st-Apr.30th MON-SUN 10:00~21:30","<MISSING>"
"<MISSING>","MUJI to GO XiAn Airport T3","Airport T3 Departure Level Weicheng Dist","<MISSING>","Shaanxi Prov.","<MISSING>","CN","CN500410","029-88799796","MUJI to GO XiAn Airport T3","34.4364101062","108.7605865898","muji.com","MON‐FRI 6:00~22:00　SAT.SUN 6:00~22:30","<MISSING>"
"<MISSING>","MUJI Ji Nan Ling Xiu Cheng","1F NO.2688 Erhuan (S) RdShiZhong Dist","<MISSING>","ShanDong Prov.","<MISSING>","CN","CN500440","0531-55535198","MUJI Ji Nan Ling Xiu Cheng","36.5968762516","117.0031357573","muji.com","Oct.1st~Mar.31st  MON-SUN 10:00～21:30　Apr.1st~Sep.30th  MON-SUN 10:00～22:00","<MISSING>"
"<MISSING>","MUJI QingDao Lion Mall","1F No195 HongKong (E) RdLaoShan Dist","<MISSING>","ShanDong Prov.","<MISSING>","CN","CN500524","0532-55716400","MUJI QingDao Lion Mall","36.0947210796","120.4626179934","muji.com","Summer  MON-SUN 10:00~22:00　Winter  SUN-THU 10:00~21:30; FRI-SAT 10:00~22:00","<MISSING>"
"<MISSING>","MUJI QINGDAO CITY MEDIA PlAZA","1F NO.588 ZhuJiang RdHuangDao Dist","<MISSING>","ShanDong Prov.","<MISSING>","CN","CN500656","0532-86106910","MUJI QINGDAO CITY MEDIA PlAZA","35.9537494048","120.2034386636","muji.com","SUN-THU 10:00～21:30　FRI、SAT  10:00～22:00","<MISSING>"
"<MISSING>","MUJI TaiYuan MAOYE Plaza","1F Building 3No.79 Qianxian(N) Rd","<MISSING>","ShanXi Prov.","<MISSING>","CN","CN500512","0351-8616-787","MUJI TaiYuan MAOYE Plaza","37.8237670126","112.5661780432","muji.com","SUN-THU 10:00～22:00　FRI-SAT 10:00～22:30","<MISSING>"
"<MISSING>","MUJI JiNan HARMONY MALL","1F NO.22799 Jingshi Rd Huaiyin Dist","<MISSING>","Shandong Prov","<MISSING>","CN","CN500606","0531-55588060","MUJI JiNan HARMONY MALL","36.6492694648","116.9789314231","muji.com","Summer  SUN-THU 9:30~21:30; FRI-SAT 9:30~22:00　Winter  MON-SUN 9:30~21:30","<MISSING>"
"<MISSING>","MUJI lin Yi Harmonymall","2F Building No.1 lin Yi Harmonymall NO.158 Jiefang RdLanshan Dist","<MISSING>","Shandong Prov.","<MISSING>","CN","CN500684","0539-7169896","MUJI lin Yi Harmonymall","35.0655751654","118.3281107274","muji.com","MON-SUN 9:30~21:30","<MISSING>"
"<MISSING>","MUJI Jinan Zhenhua department store","1F","<MISSING>","Shandong Prov.","<MISSING>","CN","CN500349","0531-55773808","MUJI Jinan Zhenhua department store","36.662535","117.00523","muji.com","May.1st-Oct31st MON-THU 10:00~22:00,FRI 10:00~22:30,SAT 9:40~22:30,SUN  9:40~22:00,Holiday  9:40~22:30　Nov.1st-Apr.30th  MON-SUN 10:00~22:00","<MISSING>"
"<MISSING>","MUJI RockCity Qingdao","1F NO.1 Xiazhuang RdLicang Dist","<MISSING>","Shandong Prov.","<MISSING>","CN","CN500143","0532-58703088","MUJI RockCity Qingdao","36.161491","120.42743","muji.com","MON-SUN 9:30~22:00","<MISSING>"
"<MISSING>","MUJI Thumb Plaza QingDao","1F NO.880 Tongan Rd Laoshan Dist","<MISSING>","Shandong Prov.","<MISSING>","CN","CN500251","0532-67786986","MUJI Thumb Plaza QingDao","36.109415","120.447897","muji.com","MON-SUN 10:00～21:30","<MISSING>"
"<MISSING>","MUJI MixC Qingdao","2F NO.10 Shandong RdShinan Dist","<MISSING>","Shandong Prov.","<MISSING>","CN","CN500300","0532-5557-5238","MUJI MixC Qingdao","36.0703877134","120.3771427084","muji.com","SUN-THU 10:00~22:00　FRI-SAT 10:00~22:30","<MISSING>"
"<MISSING>","MUJI WeiFang Tai Hua Cheng","1F WeiFang Tai Hua Cheng No.8580 Dongfeng (E) Strkuiwen Dist","<MISSING>","Shandong Prov.","<MISSING>","CN","CN500696","0536-2109806","MUJI WeiFang Tai Hua Cheng","36.7118271947","119.1107363034","muji.com","Oct.8th-Apr.30th SUN-THUR 9:30~21:30 FRI-SAT 9:30~21:30　May.1th-Oct.7th SUN-THUR 9:30~22:00  FRI-SAT 9:30~22:30","<MISSING>"
"<MISSING>","MUJI Zhenhua Yantai","2F NO.8 East AveZhifu Dist","<MISSING>","Shandong Prov.","<MISSING>","CN","CN500230","0535-6862066","MUJI Zhenhua Yantai","37.54126","121.380354","muji.com","MON-SUN 9:30~21:30","<MISSING>"
"<MISSING>","MUJI Joy City Yantai","1F NO.150 BeiMA RdZhifu Dist","<MISSING>","Shandong Prov.","<MISSING>","CN","CN500284","0535-3392378","MUJI Joy City Yantai","37.5487104918","121.3874137505","muji.com","10:00~22:00","<MISSING>"
"<MISSING>","MUJI  ZiBo Vientiane remit","1F NO.66 Jinjing Rd Zhangdian Dist","<MISSING>","Shandong Prov.","<MISSING>","CN","CN500287","0533-6280831","MUJI  ZiBo Vientiane remit","36.801726423","118.0619687828","muji.com","Summer  MON-THU 10:00~22:00; FRI-SUN  10:00~22:30　Winter MON-THU 10:00~21:30; FRI-SUN   10:00~22:00","<MISSING>"
"<MISSING>","MUJI Shanghai Cloud Nine Shopping Mall","B2 No.1018 ChangNing Rd","<MISSING>","Shanghai","<MISSING>","CN","CN500486","021-32588011","MUJI Shanghai Cloud Nine Shopping Mall","31.2196068479","121.4172759659","muji.com","MON-SUN 10:00～22:00","<MISSING>"
"<MISSING>","Cafe&Meal MUJI Shanghai LONGEMONT Shopping Mall","B2 No.1018 ChangNing Rd","<MISSING>","Shanghai","<MISSING>","CN","CN500703","021-3258-8013","Cafe&Meal MUJI Shanghai LONGEMONT Shopping Mall","31.2199233471","121.4176378512","muji.com","MON-SUN 10:00～22:00","<MISSING>"
"<MISSING>","MUJI Shanghai THE PLACE","Room 1-L213、1-L214 B Building No.100 Zunyi Road","<MISSING>","Shanghai","<MISSING>","CN","CN500536","021-52990122","MUJI Shanghai THE PLACE","31.2075527097","121.4089670949","muji.com","MON-SUN 10:00～22:00","<MISSING>"
"<MISSING>","MUJI iAPM Mall Shanghai","3F APM Mall NO.999","<MISSING>","Shanghai","<MISSING>","CN","CN500160","021-64756855","MUJI iAPM Mall Shanghai","31.215811","121.457999","muji.com","10:00~23:00","<MISSING>"
"<MISSING>","MUJI Shanghai Huaihai 755","1F-3F No.755 Huaihai ( M )Rd","<MISSING>","Shanghai","<MISSING>","CN","CN500416","021-33565881","MUJI Shanghai Huaihai 755","31.218677","121.464344","muji.com","10:00~22:00","<MISSING>"
"<MISSING>","MUJI Shanghai Qibao Powerlong Mall","Room S1-1F-012b/019C 1F S1 Building","<MISSING>","Shanghai","<MISSING>","CN","CN500508","021-54780278","MUJI Shanghai Qibao Powerlong Mall","31.157088283","121.3551408423","muji.com","MON-SUN 10:00～22:00","<MISSING>"
"<MISSING>","MUJI Joy City Shanghai","Room 302-14-15 3FNO.198","<MISSING>","Shanghai","<MISSING>","CN","CN500025","021-60731685","MUJI Joy City Shanghai","31.242485","121.471817","muji.com","10:00～22:00","<MISSING>"
"<MISSING>","MUJI Superbrand Mall Shanghai","4F NO.168 West Lujiazui Rd","<MISSING>","Shanghai","<MISSING>","CN","CN500191","021-5047-2338","MUJI Superbrand Mall Shanghai","31.238105","121.49967","muji.com","10:00～22:00","<MISSING>"
"<MISSING>","MUJI Shanghai LCM","1F Shanghai LCM NO.2389 Zhangyang Rd","<MISSING>","Shanghai","<MISSING>","CN","CN500681","021-58370788","MUJI Shanghai LCM","31.2418966208","121.5548918334","muji.com","MON-SUN 10:00～22:00","<MISSING>"
"<MISSING>","MUJI IFCmall Shanghai","3F NO.8 Centry Ave","<MISSING>","Shanghai","<MISSING>","CN","CN500163","021-20287468","MUJI IFCmall Shanghai","31.236234","121.502779","muji.com","10:00~22:00","<MISSING>"
"<MISSING>","MUJI ShangHai BaiLian ShiJi Shopping Mall","2F No.1217 Shiji Avenue","<MISSING>","Shanghai","<MISSING>","CN","CN500540","021-50676825","MUJI ShangHai BaiLian ShiJi Shopping Mall","31.2296210936","121.5278359836","muji.com","MON-SUN 10:00～22:00","<MISSING>"
"<MISSING>","MUJI Shanghai Bailian Chuansha Shopping Mall","1F Chuansha town 55 neighborhood 1/9 Qiu","<MISSING>","Shanghai","<MISSING>","CN","CN500600","021-5826-7881","MUJI Shanghai Bailian Chuansha Shopping Mall","31.1846374539","121.6976074109","muji.com","MON-SUN 10:00~21:30","<MISSING>"
"<MISSING>","MUJI to GO Shanghai Pudong International Airport T2","The public area between Gate 27-28 of Pudong International Airport T2 Yingbin Road No8000","<MISSING>","Shanghai","<MISSING>","CN","CN500598","021-6835-1802","MUJI to GO Shanghai Pudong International Airport T2","31.1511270951","121.8086050967","muji.com","MON-SUN 6:30～23:30","<MISSING>"
"<MISSING>","MUJI ShangHai GALA MALL","Suite105-1061F No.66Yincheng Road","<MISSING>","Shanghai","<MISSING>","CN","CN500654","021-50761606","MUJI ShangHai GALA MALL","31.2411104453","121.5106705816","muji.com","MON-SUN 10:00～22:00","<MISSING>"
"<MISSING>","MUJI Yuexing Shanghai","2F NO.3300 North Zhongshan Rd","<MISSING>","Shanghai","<MISSING>","CN","CN500110","021-62855893","MUJI Yuexing Shanghai","31.231858","121.411435","muji.com","10:00-22:00","<MISSING>"
"<MISSING>","MUJI Parkside Joycity","1F Parkside Joycity No.196 Daduhe Rd","<MISSING>","Shanghai","<MISSING>","CN","CN500676","021-52387772","MUJI Parkside Joycity","31.2233633411","121.3954326611","muji.com","MON-SUN 10:00~22:00","<MISSING>"
"<MISSING>","MUJI Pacific Everbright Shanghai","2F No.218","<MISSING>","Shanghai","<MISSING>","CN","CN500092","021-32560651","MUJI Pacific Everbright Shanghai","31.24526","121.45699","muji.com","10:00-22:00","<MISSING>"
"<MISSING>","MUJI Wujiaochang Shanghai","3F NO.8 Songhu Rd","<MISSING>","Shanghai","<MISSING>","CN","CN500022","021-6548-5127","MUJI Wujiaochang Shanghai","31.301728","121.515505","muji.com","10:00～22:00","<MISSING>"
"<MISSING>","MUJI Yueda 889 Shanghai","1F NO.889 Wanhangdu Rd","<MISSING>","Shanghai","<MISSING>","CN","CN500016","021-3252-7877","MUJI Yueda 889 Shanghai","31.228803","121.428967","muji.com","MON-SUN 10:00～22:00","<MISSING>"
"<MISSING>","MUJI Shanghai Mixc","2F Shanghai Mixc No. 1599 Wuzhong Rd","<MISSING>","Shanghai City","<MISSING>","CN","CN500064","<MISSING>","MUJI Shanghai Mixc","31.169855865","121.367238139","muji.com","SUN-THU 10:00~21:30　FRI-SAT 10:00~22:00","<MISSING>"
"<MISSING>","MUJI Beimei Mall Taiyuan","2F Beimei Mall No.116 Changfeng Str.Xiaodian Dist","<MISSING>","Shanxi Prov.","<MISSING>","CN","CN500281","0351-7856571","MUJI Beimei Mall Taiyuan","37.816497","112.562515","muji.com","10:00-22:00","<MISSING>"
"<MISSING>","MUJI to GO Chengdu Airpoart T2","Suite DEP-R-29 9EXIT Departures ShuangLiu International Airport Terminal 2 ShuangLiu Dist","<MISSING>","SiChuan Prov","<MISSING>","CN","CN500614","028-85207191","MUJI to GO Chengdu Airpoart T2","30.5700189772","103.9550136657","muji.com","MON-SUN 06:00～22:00","<MISSING>"
"<MISSING>","MUJI Wangfujing Chengdu","2F NO.2 Middle Kehua RdWuhou Dist","<MISSING>","Sichuan Prov.","<MISSING>","CN","CN500034","028-8502-3861","MUJI Wangfujing Chengdu","30.619007","104.076005","muji.com","SUN-THU 10:00-22:00　FRI,SAT  10:00-22:30","<MISSING>"
"<MISSING>","MUJI Perennial Qingyang Mall Chengdu","1FNo.55 North 3Rd Guanghua RdQingyang Dist","<MISSING>","Sichuan Prov.","<MISSING>","CN","CN500269","028-86635852","MUJI Perennial Qingyang Mall Chengdu","30.66885","103.961525","muji.com","10:00-22:00","<MISSING>"
"<MISSING>","MUJI JF Chengdu","1F No.88 Middle Fucheng RdHigh-tech Dist","<MISSING>","Sichuan Prov.","<MISSING>","CN","CN500373","028-61312875","MUJI JF Chengdu","30.5891516306","104.0645596692","muji.com","10:00~22:00","<MISSING>"
"<MISSING>","Cafe&Meal MUJI Chengdu Sino-Ocean Taikoo Li","3FNO.19 Sino-Ocean Taik Dacisi RdJinjiang Dist","<MISSING>","Sichuan Prov.","<MISSING>","CN","CN500700","028-8676-5438","Cafe&Meal MUJI Chengdu Sino-Ocean Taikoo Li","30.6546150027","104.0845914353","muji.com","MON-THU 10:00~22:00  　FRI-SUN  10:00~22:30","<MISSING>"
"<MISSING>","MUJI ChengDu Tai Gu Li","NO.19 Dacisi Road Sino-Ocean TaikJinjiang District","<MISSING>","Sichuan Province","<MISSING>","CN","CN500321","028-86765437","MUJI ChengDu Tai Gu Li","30.6547055875","104.0852073035","muji.com","MON‐THU  10:00~22:00　FRI‐SUN  10:00~22:30","<MISSING>"
"<MISSING>","MUJI Baotou maoye plaza","1F No.31 GangTie StrKunDuLun Dist","<MISSING>","The Inner Mongolia Autonomous Region","<MISSING>","CN","CN500502","0472-6980-168","MUJI Baotou maoye plaza","40.6572304406","109.8369286238","muji.com","SUN-THU 10:00~21:00　FRI-SAT  10:00~21:30","<MISSING>"
"<MISSING>","MUJI Suning Plaza","1F Suning Plaza No.27 Steel StrKun dist","<MISSING>","The Inner Mongolia Autonomous Region","<MISSING>","CN","CN500695","0472-6189788","MUJI Suning Plaza","40.6571532781","109.8434574226","muji.com","May.1st-Oct30th  SUN-THU 10:00~21:30, FRI-SAT 10:00~22:00　Oct.1st-Apr.30th  SUN-SAT 10:00~21:15, FRI-SAT 10:00~21:30","<MISSING>"
"<MISSING>","MUJI Metropolitan Plaza Tianjin","1F NO.181 NanJing Rd","<MISSING>","TianJin City","<MISSING>","CN","CN500488","022-59907658","MUJI Metropolitan Plaza Tianjin","39.1177679577","117.1986002807","muji.com","MON-SUN 10:00-22:00","<MISSING>"
"<MISSING>","MUJI TianJin YuanYang WeiLai Plaza","1F NO.71 Xinkai Rd","<MISSING>","Tianjin City","<MISSING>","CN","CN500398","022-5895-8898","MUJI TianJin YuanYang WeiLai Plaza","39.1386396875","117.2215624468","muji.com","summer 10:00~22:00 　winter 10:00~21:30","<MISSING>"
"<MISSING>","MUJI Millenio Tianjin","3F NO. 209 Nanjing Rd","<MISSING>","Tianjin City","<MISSING>","CN","CN500013","022-2722-0514","MUJI Millenio Tianjin","39.118707","117.195561","muji.com","MON-SUN 10:00～22:00","<MISSING>"
"<MISSING>","MUJI  Joycity Tianjin","2F","<MISSING>","Tianjin City","<MISSING>","CN","CN500053","022-5810-0558","MUJI  Joycity Tianjin","39.1363081237","117.1798288871","muji.com","10:00～22:00","<MISSING>"
"<MISSING>","MUJI Zhenhua Tianjin","1F NO.172 Heping Rd","<MISSING>","Tianjing City","<MISSING>","CN","CN500236","022-27303920","MUJI Zhenhua Tianjin","39.129222","117.193375","muji.com","SUN‐THU 9:30~21:00 　FRI.SAT 9:30~21:30","<MISSING>"
"<MISSING>","YOUMETOWN TOKUSHIMA","YoumeTown Tokushima 1F 88-1 Okuno aza Higashinakazu Aizumicho","<MISSING>","Tokushima","771-1202","JA","061737","088-693-0821","YOUMETOWN TOKUSHIMA","34.1178676924615","134.49943307299","muji.com","10:00～22:00","<MISSING>"
"<MISSING>","MUJI to GO Urumqi Airport T3","3F No.1341 Yingbin Rd","<MISSING>","Urumqi City Xinjiang Uygur Autonomous Region","<MISSING>","CN","CN500618","0991-3802080","MUJI to GO Urumqi Airport T3","43.8994804662","87.4755422043","muji.com","MON-SUN 06:00~23:30","<MISSING>"
"<MISSING>","MUJI Xidan Joycity Beijing","3F No.131","<MISSING>","Xicheng Dist. Beijing","<MISSING>","CN","CN500029","010-5971-6248","MUJI Xidan Joycity Beijing","39.910979","116.373292","muji.com","MON-SUN：10:00~22:00","<MISSING>"
"<MISSING>","MUJI Urumqi Maison Mode","1F No.689 Youhao(N) RdShayibake Dist","<MISSING>","Xinjiang Uygur Autonomous Region","<MISSING>","CN","CN500468","0991-6991269","MUJI Urumqi Maison Mode","43.8208977178","87.5872171706","muji.com","Nov~Apr MON～THU  11:00～21:00  FRI~SUN,official holiday 11:00～21:30　May～Oct  MON～THU  11:00～22:00  FRI~SUN,official holiday 11:00～22:30","<MISSING>"
"<MISSING>","MUJI Urumqi Wuika Times","1F No.147 Beijing (M)Rd Xinshi Dist","<MISSING>","Xinjiang Uygur Autonomous Region","<MISSING>","CN","CN500474","0991-3686626","MUJI Urumqi Wuika Times","43.8761933804","87.5572219441","muji.com","SUN-THU11:00-21:30 　FRI、SAT 11:00-22:00","<MISSING>"
"<MISSING>","MUJI Urumqi YOUHAO Fashion Shopping Mall","1F NO.989 Xihuan (N) RdXinshi Dist","<MISSING>","Xinjiang Uygur Autonomous Region","<MISSING>","CN","CN500526","0991-3728502","MUJI Urumqi YOUHAO Fashion Shopping Mall","43.8604526875","87.5357645124","muji.com","summer MON-THU 11:00～22:00；summer FRI-SUN 11:00～22:30　winter MON-THU 11:00～21:00；winter FRI-SUN 11:00～21:30","<MISSING>"
"<MISSING>","MUJI Urumqi TianShan Department Store","B1 NO.16 Heping (N) RdTianshan Dist","<MISSING>","Xinjiang Uygur Autonomous Region","<MISSING>","CN","CN500528","0991-2828553","MUJI Urumqi TianShan Department Store","43.7949346845","87.6258889862","muji.com","May.1st-Sept.30th MON-THU 11:00~21:30; FRI-SUN 11:00~22:00　Oct.1st-Apr.30th MON-THU 11:00~20:30; FRI-SUN 11:00~21:00","<MISSING>"
"<MISSING>","MUJI SunnydayCity Shanghai","1F NO.455","<MISSING>","Xuhui Dist. Shanghai","<MISSING>","CN","CN500047","021-6469-6402","MUJI SunnydayCity Shanghai","31.1840560959","121.4280307665","muji.com","10:00～22:00","<MISSING>"
"<MISSING>","MUJI Colourful Yunnan Top City","1F Kunming Qicai Yunan Diyi MALL，No.598 Caiyun South Road Chenggong Dist","<MISSING>","Yunnan Prov.","<MISSING>","CN","CN500051","0871-67411129","MUJI Colourful Yunnan Top City","24.8775887592","102.8271361504","muji.com","SUN-THU 10:00~22:00　FRI-SAT 10:00~22:30","<MISSING>"
"<MISSING>","MUJI Kunming Xinying living mall","1F Kunming Xinying living mall NO.182 Xinying Rd Panlong Dist","<MISSING>","Yunnan Prov.","<MISSING>","CN","CN500054","0871-65879801","MUJI Kunming Xinying living mall","25.052414647","102.7394516463","muji.com","MON-THU 10:00~22:00　FRI-SAT 10:00~22:30","<MISSING>"
"<MISSING>","MUJI Rainbow Garden Kunming","1F NO.399 Baita RdPanlong Dist","<MISSING>","Yunnan Prov.","<MISSING>","CN","CN500153","0871-63583617","MUJI Rainbow Garden Kunming","25.046764","102.72651","muji.com","SUN-THU 10:00~22:00　FRI,SAT 10:00~22:30","<MISSING>"
"<MISSING>","MUJI Kunming plaza","2F Kunming plaza No.928 Beijing RdPanlong Dist","<MISSING>","Yunnan Prov.","<MISSING>","CN","CN500379","0871-65653132","MUJI Kunming plaza","25.069342122","102.7227718078","muji.com","SUN-THU 10:00-22:00　FRI,SAT 10:00-22:30","<MISSING>"
"<MISSING>","MUJI Kunming Shuncheng Shopping Mall","1F、2F Kunming Shuncheng shoppingmall，NO.11 Dongfeng (w)RdWuhua Dist","<MISSING>","Yunnan Prov.","<MISSING>","CN","CN500476","0871-63609905","MUJI Kunming Shuncheng Shopping Mall","25.0364570282","102.7067288765","muji.com","SUN-THU 10:00-22:00　FRI-SAT 10:00-22:30","<MISSING>"
"<MISSING>","MUJI KunMing N.E.W MALL","F1-17、18、19、20、21 of KunMing N.E.W MALL A1 on Fuhai Street Xishan Distrist","<MISSING>","Yunnan Prov.","<MISSING>","CN","CN500546","0871-6458-7090","MUJI KunMing N.E.W MALL","25.0098021707","102.6836837366","muji.com","SUN-THU 10：00～22:00　FRI-SAT 10：00～22:30","<MISSING>"
"<MISSING>","Cafe&Meal MUJI Kunming Shuncheng shoppingmall","2F Kunming Shuncheng shoppingmall，NO.11 Dongfeng (w)RdWuhua Dist","<MISSING>","Yunnan Prov.","<MISSING>","CN","CN500708","0871-65630708","Cafe&Meal MUJI Kunming Shuncheng shoppingmall","<MISSING>","<MISSING>","muji.com","SUN·THU：10:00~22:00　FRI·SAT：10:00~22:30","<MISSING>"
"<MISSING>","MUJI GoldenEagle Kunming","1F","<MISSING>","Yunnan Prov.","<MISSING>","CN","CN500040","0871-6315-5752","MUJI GoldenEagle Kunming","25.040699","102.713403","muji.com","SUN-THU 10:00～22:00 FRI,SAT  10:00～22:30","<MISSING>"
"<MISSING>","MUJI Baida New World Kunming","1F Baida New WorldNo.99","<MISSING>","Yunnan Prov.","<MISSING>","CN","CN500242","0871-63300993","MUJI Baida New World Kunming","25.036932","102.709389","muji.com","10:00~22:00","<MISSING>"
"<MISSING>","MUJI HangZhou Shining City LiXing","1F No.20 Building No.77 Zhongshan(S)RdShangCheng Dist","<MISSING>","ZheJiang Prov.","<MISSING>","CN","CN500458","0571-86819951","MUJI HangZhou Shining City LiXing","30.2267997344","120.1697138894","muji.com","SUN-THU 10:00~22:00　FRI-SAT 10:00~22:30","<MISSING>"
"<MISSING>","MUJI HangZhou West Lake Intime City","1F No.98 Yan'an RdShangCheng Dist","<MISSING>","ZheJiang Prov.","<MISSING>","CN","CN500506","0571-87002611","MUJI HangZhou West Lake Intime City","30.2439236241","120.1649896718","muji.com","MON-FRI 10:00～SUN-THU 22:00　SAT-SUN 09:30～FRI-SAT 22:30","<MISSING>"
"<MISSING>","MUJI Hang Zhou K-lab","2F Hang Zhou K-lab No.77 College RdXiHu Dist","<MISSING>","ZheJiang Prov.","<MISSING>","CN","CN500680","0571-86655130","MUJI Hang Zhou K-lab","30.2765542362","120.1293732158","muji.com","MON-SUN10:00~22:00","<MISSING>"
"<MISSING>","MUJI JiaXing Yaohan Life Plaza","1F NO.968 Yuexiu(S) Rd Nanhu Dist","<MISSING>","ZheJiang Prov.","<MISSING>","CN","CN500510","0573-83286631","MUJI JiaXing Yaohan Life Plaza","30.7584576494","120.7330993956","muji.com","SUN-THU：9:30~21:30　FRI-SAT 9:30~22:00","<MISSING>"
"<MISSING>","MUJI Hangzhou Jinsha Incity","1F Hangzhou Jinsha INCITY No. 97 Jinsha Avenue Jianggan Dist","<MISSING>","Zhejiang Prov","<MISSING>","CN","CN500043","0571-87088960","MUJI Hangzhou Jinsha Incity","30.308262","120.335884","muji.com","MON-SUN  10:00~22:00","<MISSING>"
"<MISSING>","MUJI HANGZHOU IN 77","B2 No.245 YanAn RDShangcheng Dist","<MISSING>","Zhejiang Prov.","<MISSING>","CN","CN500688","0571-89779466","MUJI HANGZHOU IN 77","30.2543417171","120.1637675614","muji.com","MON~SUN 9:30~22:30","<MISSING>"
"<MISSING>","MUJI MixC Mall Hangzhou","2F NO.701 Fuchun RdJianggan Dist","<MISSING>","Zhejiang Prov.","<MISSING>","CN","CN500015","0571-89705770","MUJI MixC Mall Hangzhou","30.252042","120.216951","muji.com","MON-THU 10:00～21:30　FRI-SUN10:00～22:00","<MISSING>"
"<MISSING>","MUJI GLCC MALL","1-2F GLCC MALL No.292 YanAn RDShangcheng Dist","<MISSING>","Zhejiang Prov.","<MISSING>","CN","CN500677","0571-87036298","MUJI GLCC MALL","30.2544506302","120.164590754","muji.com","MON-SUN 10:00~22:00","<MISSING>"
"<MISSING>","MUJI MIXC ONE HANGZHOU","1F MIXC ONE HANGZHOU No.927 Jincheng RdXiaoshan Dist","<MISSING>","Zhejiang Prov.","<MISSING>","CN","CN500693","0571-82395380","MUJI MIXC ONE HANGZHOU","30.1818445464","120.2696292111","muji.com","Mon-Thu 10:00～21:30　Fri-Sun 9:30～22:00","<MISSING>"
"<MISSING>","Cafe&Meal GLCC MALL","2F GLCC MALL No.292 YanAn RDShangcheng Dist","<MISSING>","Zhejiang Prov.","<MISSING>","CN","CN500706","0571-87031838","Cafe&Meal GLCC MALL","30.2544135601","120.1646283049","muji.com","MON-SUN 10:00~22:00","<MISSING>"
"<MISSING>","MUJI xixi incity Hangzhou","1F Hangzhou xixi incity","<MISSING>","Zhejiang Prov.","<MISSING>","CN","CN500170","0571-88732481","MUJI xixi incity Hangzhou","30.247483","120.047822","muji.com","10:00~22:00","<MISSING>"
"<MISSING>","MUJI Incity Ningbo","2F NO.288 Qianhu(N) Rd.Yinzhou Dist","<MISSING>","Zhejiang Prov.","<MISSING>","CN","CN500128","0574-83065710","MUJI Incity Ningbo","29.8339928522","121.5665838233","muji.com","10:00～22:00","<MISSING>"
"<MISSING>","MUJI LaiFuShi NingBo","1F No.99 Daqing(S) RdJiangbei Dist","<MISSING>","Zhejiang Prov.","<MISSING>","CN","CN500358","0574-89081281","MUJI LaiFuShi NingBo","29.8827848681","121.5578081695","muji.com","10:00~22:00","<MISSING>"
"<MISSING>","MUJI Ningbo International Shopping Cente","2F No.164-166 Zhongshan(E) RdHaishu Dist","<MISSING>","Zhejiang Prov.","<MISSING>","CN","CN500584","0574-87752657","MUJI Ningbo International Shopping Cente","29.8703956092","121.5537429265","muji.com","10:00-22:00","<MISSING>"
"<MISSING>","MUJI Shaoxing Shimao Plaza","1F No.360 ShengLi( E) Rd Yuecheng Dist","<MISSING>","Zhejiang Prov.","<MISSING>","CN","CN500425","0575-88625101","MUJI Shaoxing Shimao Plaza","30.0034866733","120.5962633207","muji.com","MON-SUN 10:00~22:00","<MISSING>"
"<MISSING>","MUJI Fortune Shopping Mall Wenzhou","B1 No.577Chezhan Ave.Lucheng Dist","<MISSING>","Zhejiang Prov.","<MISSING>","CN","CN500176","0577-88679881","MUJI Fortune Shopping Mall Wenzhou","27.998551","120.682915","muji.com","MON～SUN 10:00~22:00","<MISSING>"
"<MISSING>","MUJI Wenzhou Mixc","1F Wenzhou Mixc No. 999 Wenrui Avenue Ouhai Dist","<MISSING>","Zhejiang Prov.","<MISSING>","CN","CN500697","0577-86001162","MUJI Wenzhou Mixc","27.9516712508","120.6854270935","muji.com","MON-SUN 10:00~22:00","<MISSING>"
"<MISSING>","MUJI HangZhou Joy City","1F Yinxiu Rd","<MISSING>","Zhejiang Prov.","<MISSING>","CN","CN500673","0571-86737376","MUJI HangZhou Joy City","30.3011655091","120.1298026776","muji.com","MON-SUN 10:00~22:00","<MISSING>"
"<MISSING>","MUJI HangZhou Linping Intime City","1F No. 1 West of the Century AvenueLinping Nanyuan Str","<MISSING>","Zhejiang Prov.","<MISSING>","CN","CN500660","0571-88766717","MUJI HangZhou Linping Intime City","30.4052613367","120.3018409779","muji.com","MON-SUN 10:00～22:00","<MISSING>"
"<MISSING>","MUJI Wanda Chengdu","2F NO.2 Xiaoyi Lane","<MISSING>","chengdu City，Sichuan Prov.","<MISSING>","CN","CN500116","028-83210552","MUJI Wanda Chengdu","30.686174","104.073572","muji.com","SUN-THU 10:00～22:00　FRI-SAT 10:00～22:30","<MISSING>"
"<MISSING>","MUJI Nanjing 21Century Sunny plaza","1F No.1539 Shanglong AveJiangning Dist","<MISSING>","jiangsu Prov.","<MISSING>","CN","CN500472","025-86190016","MUJI Nanjing 21Century Sunny plaza","31.9262504917","118.8220562806","muji.com","MON-SUN 10:00～22:00","<MISSING>"
"<MISSING>","MUJI Shanghai POPC","1F Shanghai POPC No.8 Minhong Rd","<MISSING>","shanghai","<MISSING>","CN","CN500690","021-34620072","MUJI Shanghai POPC","31.1307837347","121.3982845627","muji.com","Mon-Sun 10:00~22;00","<MISSING>"
"<MISSING>","MUJI Shanghai Qingpu PowerLong Plaza","1F Shanghai Qingpu PowerLong Plaza No.590 Huijin RD","<MISSING>","shanghai","<MISSING>","CN","CN500675","021-33861062","MUJI Shanghai Qingpu PowerLong Plaza","31.1620737067","121.1535237358","muji.com","SUN-THU : 10:00~21:30　FRI-SAT : 10:00~22:00","<MISSING>"
"<MISSING>","MUJI ShenZhen UpperHills","2F（No.240）、3F（No.T022）Shenzhen UpperHills（South area） No.5001 huanggang Rd","<MISSING>","shenzhen city，Guangdong Prov.","<MISSING>","CN","CN500586","0755-88606657","MUJI ShenZhen UpperHills","22.557510924","114.0685507291","muji.com","MON-SUN 10:00～22:00","<MISSING>"
"<MISSING>","MUJI Diner Shenzhen UpperHills","2F（No.240）Shenzhen UpperHills（South area） No.5001 huanggang Rd","<MISSING>","shenzhen city，Guangdong Prov.","<MISSING>","CN","CN500705","0755-82761553","MUJI Diner Shenzhen UpperHills","22.5575437532","114.068565626","muji.com","SUN-THU 6:30-23:00　FRI-SAT 6:30-24:00","<MISSING>"
"<MISSING>","MUJI Beijing Fun","B1 building NO.2","<MISSING>","xicheng Dist. Beijing","<MISSING>","CN","CN500554","010-83156166","MUJI Beijing Fun","39.8988802919139","116.395406546467","muji.com","MON-SUN 10:00～22:00","<MISSING>"
"<MISSING>","Hangzhou Junyi Cars Sales Services Ltd","Nanshan Road, Shangcheng District","<MISSING>","Zhejiang","310002","CN","63880_showroom","<MISSING>","showroom","30.23837661743164","120.15845489501953","ferrari.com","<MISSING>","<MISSING>"
"<MISSING>","Chengdu Junyi Cars Sales and Service Co., Ltd.","West Road of South Railway Station, High-Tech Zone","<MISSING>","Sichuan","610000","CN","63903_service","<MISSING>","service","13.980799674987793","39.68389892578125","ferrari.com","<MISSING>","<MISSING>"
"<MISSING>","Chengdu Junyi Cars Sales and Service Co., Ltd.","West Road of South Railway Station, High-Tech Zone","<MISSING>","Sichuan","610000","CN","63903_showroom","<MISSING>","showroom","30.593889236450195","104.02999877929688","ferrari.com","<MISSING>","<MISSING>"
"<MISSING>","Beijing Jundong Cars Sales Services Limited","Beijing chaoyang jinzhan road jingang car park","<MISSING>","Beijing","100018","CN","63904_bodyshop","<MISSING>","bodyshop","13.980799674987793","39.68389892578125","ferrari.com","<MISSING>","<MISSING>"
"<MISSING>","Beijing Jundong Cars Sales Services Limited","Jinbao Street, Dongcheng District","<MISSING>","Beijing","100005","CN","63904_boutiqueshowroom","<MISSING>","boutiqueshowroom","39.91579818725586","116.4197998046875","ferrari.com","<MISSING>","<MISSING>"
"<MISSING>","Chongqing Jundong Cars Sales Services Ltd","Xinnan Road, Yubei District","<MISSING>","Chongqing","401147","CN","63920_showroom","<MISSING>","showroom","29.601234436035156","106.50528717041016","ferrari.com","<MISSING>","<MISSING>"
"<MISSING>","Beijing Jundong Cars Sales Services Limited","Jinbao Street, Dongcheng District","<MISSING>","Beijing","100005","CN","63939_boutiqueshowroom","<MISSING>","boutiqueshowroom","39.90998840332031","116.452392578125","ferrari.com","<MISSING>","<MISSING>"
"<MISSING>","Guangdong Denker Motor Service Co. Ltd","Dabei Road, Panyu District","<MISSING>","Guangdong","510442","CN","63973_bodyshop","<MISSING>","bodyshop","22.961212158203125","113.37061309814453","ferrari.com","<MISSING>","<MISSING>"
"<MISSING>","Guangdong Denker Motor Service Co. Ltd","Qingfeng Street, Pearl River New City","<MISSING>","Guangdong","510627","CN","63973_showroom","<MISSING>","showroom","23.11474609375","113.33889770507812","ferrari.com","<MISSING>","<MISSING>"
"<MISSING>","Hangzhou Junbin Cars Services Limited","Jiangling Road, Binjiang District, Hangzhou","<MISSING>","Zhejiang","311112","CN","64008_bodyshop","<MISSING>","bodyshop","30.349130630493164","120.12248229980469","ferrari.com","<MISSING>","<MISSING>"
"<MISSING>","Guangdong Denker Motor Service Co. Ltd","1/F & 4/F, No.552 Dabei Road, Panyu District","<MISSING>","Guangdong","511442","CN","64009_bodyshop","<MISSING>","bodyshop","22.96120834350586","113.37064361572266","ferrari.com","<MISSING>","<MISSING>"
"<MISSING>","Guangdong Denker Motor Service Co. Ltd","1/F & 4/F, No.552, Dabei Road, Panyu District","<MISSING>","广东","511406","CN","64009_service","<MISSING>","service","22.961200714111328","113.37061309814453","ferrari.com","<MISSING>","<MISSING>"
"<MISSING>","Shenzhen Denker Motors Service Co. Ltd","45-1, Wuhe Ave(South), Nankeng Community, Bantian Street","<MISSING>","Guangdong","518000","CN","64010_service","<MISSING>","service","22.514921188354492","113.92985534667969","ferrari.com","<MISSING>","<MISSING>"
"<MISSING>","Kunming Lejun Automobile Sales Service Co.,Ltd.","Floor 1, No. 1103, Dianchi Road, Kunming City","<MISSING>","Yunnan","650000","CN","64156_service","<MISSING>","service","25.003803253173828","102.67399597167969","ferrari.com","<MISSING>","<MISSING>"
"<MISSING>","Kunming Lejun Automobile Sales Service Co.,Ltd.","Floor 1, No. 1103, Dianchi Road, Kunming City","<MISSING>","Yunnan","650000","CN","64156_showroom","<MISSING>","showroom","13.980799674987793","39.68389892578125","ferrari.com","<MISSING>","<MISSING>"
"<MISSING>","Fujian Denker Motor Sales and Services Limited","No.4 Xiamen Automobile City, No. 33-5","<MISSING>","Fujian","361000","CN","64158_service","<MISSING>","service","24.522510528564453","118.15438079833984","ferrari.com","<MISSING>","<MISSING>"
"<MISSING>","Fujian Denker Motor Sales and Services Limited","No.37-47, W Square Business Street, East Huandao","<MISSING>","Fujian","361005","CN","64158_showroom","<MISSING>","showroom","13.980799674987793","39.68389892578125","ferrari.com","<MISSING>","<MISSING>"
"<MISSING>","Ital Automotive (Shanghai) Co., Ltd","Zhen Guang Road, Pu Tuo District","<MISSING>","Shanghai","200333","CN","64160_bodyshop","<MISSING>","bodyshop","31.222461700439453","121.44384002685547","ferrari.com","<MISSING>","<MISSING>"
"<MISSING>","Prestige Group Shenyang Automobile Sales Co.,Ltd.","Yuanhang Middle Road, Hunnan District","<MISSING>","Liaoning","110000","CN","64173_bodyshop","<MISSING>","bodyshop","13.980799674987793","39.68389892578125","ferrari.com","<MISSING>","<MISSING>"
"<MISSING>","Prestige Group Shenyang Automobile Sales Co.,Ltd","No.33, Yuanhang Middle Road, Hunnan District","<MISSING>","Liaoning","110016","CN","64173_showroom","<MISSING>","showroom","13.980799674987793","39.68389892578125","ferrari.com","<MISSING>","<MISSING>"
"<MISSING>","Suzhou Yijun Automobile Sales & Service Co., Ltd.","NO.303 Suhong west road, industrial Park, Suzhou","<MISSING>","jiangsu","215021","CN","64194_service","<MISSING>","service","31.32115936279297","120.71544647216797","ferrari.com","<MISSING>","<MISSING>"
"<MISSING>","Chongqing Jundong Automobile","Nishang Avenue, Taiwannese Industrial Park, Huixing","<MISSING>","Chongqing","401120","CN","64229_service","<MISSING>","service","13.980799674987793","39.68389892578125","ferrari.com","<MISSING>","<MISSING>"
"<MISSING>","Anhui Hongyue Hongchao Automobile","S.E.Corner - Hetang Road and North Mengcheng Rd, Luyang","<MISSING>","Anhui","230000","CN","64232_service","<MISSING>","service","31.93825912475586","117.27197265625","ferrari.com","<MISSING>","<MISSING>"
"<MISSING>","Wenzhou Junyi Cars Service Co., Ltd","Binhai Park, Wenzhou EDA","<MISSING>","Zhejiang","325000","CN","67967_service","<MISSING>","service","27.88407325744629","120.8216552734375","ferrari.com","<MISSING>","<MISSING>"
"<MISSING>","Qingdao Hengjun Automobile Sales and Service Co. LTD","Yinchuan West Road","<MISSING>","Shandong","266000","CN","67981_service","<MISSING>","service","36.08509063720703","120.41117095947266","ferrari.com","<MISSING>","<MISSING>"
"<MISSING>","Qingdao Hengjun Automobile Sales and Service Co. LTD","No.1, Donghai West Road","<MISSING>","Shandong","266000","CN","67981_showroom","<MISSING>","showroom","36.05571365356445","120.36795043945312","ferrari.com","<MISSING>","<MISSING>"
"<MISSING>","Changsha Stallion Motors Service Co., Ltd","North of Sanyi Avenue, Kaifu District","<MISSING>","Hunan","410022","CN","67985_service","<MISSING>","service","28.23093032836914","113.05683135986328","ferrari.com","<MISSING>","<MISSING>"
"<MISSING>","Changsha Stallion Motors Service Co., Ltd","Land Mark Changsha, North of Xiaoxiang Rd.","<MISSING>","Hunan","410023","CN","67985_showroom","<MISSING>","showroom","28.2148380279541","112.95994567871094","ferrari.com","<MISSING>","<MISSING>"
"<MISSING>","Wuhan Jundong Cars Sales & Service Ltd.","CTF Industrial Park A5-1-103，Chuanlong Ave.","<MISSING>","Hubei","430000","CN","67986_service","<MISSING>","service","30.782852172851562","114.27703857421875","ferrari.com","<MISSING>","<MISSING>"
"<MISSING>","Wuhan Jundong Cars Sales & Service Ltd.","Ferrari, K11Ave.11, 634 Jiefang Ave.","<MISSING>","Hubei","430000","CN","67986_showroom","<MISSING>","showroom","30.579181671142578","114.26451110839844","ferrari.com","<MISSING>","<MISSING>"
"<MISSING>","Nanjing Ruijun Automobile Sales Services Co., Ltd","No.01, 1st floor, Haohan R&D building, 19 Tianxing Road","<MISSING>","JIANGSU","210005","CN","67987_service","<MISSING>","service","31.984479904174805","118.87883758544922","ferrari.com","<MISSING>","<MISSING>"
"<MISSING>","Nanjing Ruijun Automobile Sales Services Co., Ltd","Unit 4, 100 Changjiang Road","<MISSING>","JIANGSU","210005","CN","67987_showroom","<MISSING>","showroom","32.045467376708984","118.78739929199219","ferrari.com","<MISSING>","<MISSING>"
"<MISSING>","Shenzhen Denker Motors Service Co. Ltd","45-1, Wuhe Ave(South), Nankeng Community, Bantian Street","<MISSING>","Guangdong","518000","CN","69827_service","<MISSING>","service","22.546789169311523","114.11255645751953","ferrari.com","<MISSING>","<MISSING>"
"<MISSING>","Shenzhen Denker Motors Service Co., Ltd","Block 2, Northern District, One Shenzhen Bay Plaza","<MISSING>","Guangdong","518000","CN","69827_showroom","<MISSING>","showroom","22.546789169311523","114.11255645751953","ferrari.com","<MISSING>","<MISSING>"
"<MISSING>","MID Sapporo","Gojo, Higashinaebo","<MISSING>","Hokkaido","007-0805","JP","69969_service","<MISSING>","service","43.09035873413086","141.409423828125","ferrari.com","<MISSING>","<MISSING>"
"<MISSING>","Park Hyatt Changbaishan","Changbaishan International Resort Fusong County, Jilin Province","<MISSING>","<MISSING>","134504","CN","nbsph","+86 439 698 1234","Park Hyatt","42.10555556","127.5033333","hyatt.com","<MISSING>","<MISSING>"
"<MISSING>","Alila Wuzhen","939 Ziyedong Road Wuzhen County","<MISSING>","<MISSING>","314501","CN","hghaw","+86 573 8871 2222","Alila","30.733125","120.516661","hyatt.com","<MISSING>","<MISSING>"
"<MISSING>","Park Hyatt Ningbo Resort and Spa","188, Dayan Road, Dong Qian Lake","<MISSING>","<MISSING>","315123","CN","ninph","+86 574 2888 1234","Park Hyatt","29.768014","121.641687","hyatt.com","<MISSING>","<MISSING>"
"<MISSING>","Park Hyatt Beijing","2 Jianguomenwai Street, Chaoyang District","<MISSING>","<MISSING>","100022","CN","beiph","+86 10 8567 1234","Park Hyatt","39.907438","116.459364","hyatt.com","<MISSING>","<MISSING>"
"<MISSING>","Park Hyatt Hangzhou","1366 Qianjiang Road","<MISSING>","<MISSING>","310020","CN","hanph","+86 571 8696 1234","Park Hyatt","30.254872","120.214312","hyatt.com","<MISSING>","<MISSING>"
"<MISSING>","Hyatt Place Shanghai New Hongqiao","2799 Huqingping Highway, Qingpu District","<MISSING>","<MISSING>","201703","CN","shazn","+86 21 5978 1234","Hyatt Place","31.152414","121.231888","hyatt.com","<MISSING>","<MISSING>"
"<MISSING>","The Lixury Hotel","World Financial Center, 188 Minzu Road, Yuzhong District","<MISSING>","<MISSING>","400010","CN","ckgub","+86 23 6350 9999","The Unbound Collection by Hyatt","29.559045","106.577731","hyatt.com","<MISSING>","<MISSING>"
"<MISSING>","Hyatt Regency Changchun","3233 Renmin Street, Chaoyang District","<MISSING>","<MISSING>","130061","CN","cgqhr","+86 431 8116 1234","Hyatt Regency","43.885297","125.330945","hyatt.com","<MISSING>","<MISSING>"
"<MISSING>","Hyatt Regency Chongqing","11 Paradise Walk, Jiangbei District","<MISSING>","<MISSING>","400020","CN","chong","+86 23 6775 1234","Hyatt Regency","29.580648","106.535229","hyatt.com","<MISSING>","<MISSING>"
"<MISSING>","Hyatt Regency Xuzhou","29 East Huaihai Road, Gulou District","<MISSING>","<MISSING>","221005","CN","xuzrx","+86 (516) 83661234","Hyatt Regency","34.264119","117.1857113","hyatt.com","<MISSING>","<MISSING>"
"<MISSING>","Hyatt Regency Chongming","Lane 799, Lan Hai Road, Chenjia Town","<MISSING>","<MISSING>","202162","CN","shacr","+86 21 6703 1234","Hyatt Regency","31.49592","121.768665","hyatt.com","<MISSING>","<MISSING>"
"<MISSING>","Grand Hyatt Sanya Haitang Bay Resort and Spa","68 Haitang North Road, Haitang Bay","<MISSING>","<MISSING>","572013","CN","syxgh","+86 898 8881 1234","Grand Hyatt","18.34419","109.740291","hyatt.com","<MISSING>","<MISSING>"
"<MISSING>","Hyatt Regency Shanghai, Wujiaochang","88 East Guoding Road","<MISSING>","<MISSING>","200433","CN","shwhr","+86 21 2565 1234","Hyatt Regency","31.3005","121.519","hyatt.com","<MISSING>","<MISSING>"
"<MISSING>","Hyatt Regency Suzhou","88 Huachi Street, Suzhou Industrial Park","<MISSING>","<MISSING>","215028","CN","suzhr","+86 512 6288 1234","Hyatt Regency","31.325752581","120.70924401","hyatt.com","<MISSING>","<MISSING>"
"<MISSING>","Hyatt Regency Xi'an","988 Qu Jiang Chi East Road, Qu Jiang New District","<MISSING>","<MISSING>","710061","CN","xiyhr","+86 29 6868 1234","Hyatt Regency","34.2032199","108.988232","hyatt.com","<MISSING>","<MISSING>"
"<MISSING>","Hyatt Place Shanghai Tianshan Plaza","02 Tower 1 SOHO Tianshan Plaza, 421 ZiYun Road, Changning District","<MISSING>","<MISSING>","200051","CN","shazc","+86 21 6212 1234","Hyatt Place","31.208764","121.407771","hyatt.com","<MISSING>","<MISSING>"
"<MISSING>","Hyatt Place Yinchuan Dayuecheng","Zhengyuan North street 289","<MISSING>","<MISSING>","750002","CN","inczd","+86 951 398 1234","Hyatt Place","38.520524","106.262678","hyatt.com","<MISSING>","<MISSING>"
"<MISSING>","Hyatt Place Sanya City Center","360-1 Yingbin Road, Jiyang District","<MISSING>","<MISSING>","572000","CN","syxzs","+86 898 8883 1234","Hyatt Place","18.274333","109.512267","hyatt.com","<MISSING>","<MISSING>"
"<MISSING>","Grand Hyatt Chengdu","No.8 South Chunxi Road, Jinjiang District","<MISSING>","<MISSING>","610021","CN","ctugh","+86 28 6666 1234","Grand Hyatt","30.6541734","104.0745875","hyatt.com","<MISSING>","<MISSING>"
"<MISSING>","Hyatt Regency Qingdao","88 Donghai East Road","<MISSING>","<MISSING>","266061","CN","qinhr","+86 532 8612 1234","Hyatt Regency","36.090101","120.461226","hyatt.com","<MISSING>","<MISSING>"
"<MISSING>","Hyatt Place Shenzhen Airport","Shenzhen Bao'an International Airport , Baoan District","<MISSING>","<MISSING>","518128","CN","szxza","+86 755 2345 1236","Hyatt Place","22.64026864","113.8095777","hyatt.com","<MISSING>","<MISSING>"
"<MISSING>","Hyatt Regency Ningbo Hangzhou Bay","No.1118, Binhai Second Road, Hangzhou Bay New Area","<MISSING>","<MISSING>","315336","CN","ngbrn","+86 574 8239 1234","Hyatt Regency","30.1932","121.1239","hyatt.com","<MISSING>","<MISSING>"
"<MISSING>","Hyatt Regency Hong Kong, Sha Tin","18 Chak Cheung Street, Sha Tin, New Territories","<MISSING>","<MISSING>","<MISSING>","CN","shahr","+852 3723 1234","Hyatt Regency","22.411787","114.211217","hyatt.com","<MISSING>","<MISSING>"
"<MISSING>","Hyatt Regency Hong Kong, Tsim Sha Tsui","18 Hanoi Road, Tsim Sha Tsui, Kowloon","<MISSING>","<MISSING>","<MISSING>","CN","honhr","+ 852 2311 1234","Hyatt Regency","22.297567","114.17405","hyatt.com","<MISSING>","<MISSING>"
"<MISSING>","Hyatt House Chengdu Pebble Walk","No.669, Wanxiang South Road, High-Tech District","<MISSING>","<MISSING>","610094","CN","ctuxc","+86 28 86781234","Hyatt House","30.586296","104.048762","hyatt.com","<MISSING>","<MISSING>"
"<MISSING>","Hyatt Regency Jinan","187 Jingsi Road, Shizhong District","<MISSING>","<MISSING>","250001","CN","jinhr","+86 531 8828 1234","Hyatt Regency","36.662016","116.99991","hyatt.com","<MISSING>","<MISSING>"
"<MISSING>","The Langbo Chengdu","Tower 2, WIFC, 258 East Street, Xiadong Street Section, Jinjiang","<MISSING>","<MISSING>","610011","CN","ctuub","+86 28 6329 7777","The Unbound Collection by Hyatt","30.647795","104.0926369","hyatt.com","<MISSING>","<MISSING>"
"<MISSING>","Hyatt Regency Guiyang","7 Zhongtian Road, Guanshanhu District","<MISSING>","<MISSING>","550081","CN","guihr","+86 851 8798 1234","Hyatt Regency","26.635721","106.645768","hyatt.com","<MISSING>","<MISSING>"
"<MISSING>","Hyatt Regency Fuzhou Cangshan","46 Huaxi Nan Road Cangshan District","<MISSING>","<MISSING>","350008","CN","fochr","+86 591 8757 1234","Hyatt Regency","26.006344","119.267053","hyatt.com","<MISSING>","<MISSING>"
"<MISSING>","Hyatt Regency Shenzhen Yantian","1025 Second Haijing Road Yantian District","<MISSING>","<MISSING>","518000","CN","szxry","+86 755 2535 1234","Hyatt Regency","22.55162","114.23771","hyatt.com","<MISSING>","<MISSING>"
"<MISSING>","Hyatt Regency Dongguan","Song Shan Lake National High-tech Industrial Development Zone, Qinyuan Road","<MISSING>","<MISSING>","523808","CN","dongg","+86 769 2289 1234","Hyatt Regency","22.923457","113.889899","hyatt.com","<MISSING>","<MISSING>"
"<MISSING>","Grand Hyatt Macau","City of Dreams, Estrada do Istmo, Cotai","<MISSING>","<MISSING>","<MISSING>","CN","macgh","+853 8868 1234","Grand Hyatt","22.148735","113.568173","hyatt.com","<MISSING>","<MISSING>"
"<MISSING>","Hyatt House Yinchuan Dayuecheng","Zhengyuan North street 289","<MISSING>","<MISSING>","<MISSING>","CN","incxd","+86 951 398 1234","Hyatt House","38.520524","106.262677","hyatt.com","<MISSING>","<MISSING>"
"<MISSING>","Grand Hyatt Shenzhen","1881 Baoan Nan Road, Luohu District","<MISSING>","<MISSING>","518001","CN","shegh","+86 755 8266 1234","Grand Hyatt","22.537343","114.111021","hyatt.com","<MISSING>","<MISSING>"
"<MISSING>","Hyatt Regency Zhenjiang","301 Zhongshan East Road Jiangsu Province","<MISSING>","<MISSING>","212000","CN","czxrz","+86 511 8885 1234","Hyatt Regency","32.2052919","119.4518702","hyatt.com","<MISSING>","<MISSING>"
"<MISSING>","Grand Hyatt Guangzhou","12 Zhujiang West Road, Pearl River New City, Tianhe District","<MISSING>","<MISSING>","510623","CN","guagh","+ 86 20 8396 1234","Grand Hyatt","23.122638","113.323468","hyatt.com","<MISSING>","<MISSING>"
"<MISSING>","Grand Hyatt Shanghai","Jin Mao Tower, 88 Century Avenue, Pudong","<MISSING>","<MISSING>","200121","CN","shagh","+86 21 8024 1234","Grand Hyatt","31.235179","121.505839","hyatt.com","<MISSING>","<MISSING>"
"<MISSING>","Andaz Xintiandi, Shanghai","88 Songshan Road","<MISSING>","<MISSING>","200021","CN","shaaz","+86 21 2310 1234","Andaz","31.222252","121.475613","hyatt.com","<MISSING>","<MISSING>"
"<MISSING>","Hyatt House Shenzhen Airport","Shenzhen Bao'an International Airport , Baoan District","<MISSING>","<MISSING>","518128","CN","szxxa","+86 755 2345 1238","Hyatt House","22.64026864","113.8095777","hyatt.com","<MISSING>","<MISSING>"
"<MISSING>","Commune By The Great Wall","The Great Wall Exit No.53 at Shuiguan G6 Jingzang Highway","<MISSING>","<MISSING>","102102","CN","pekub","86-400-920-1234","The Unbound Collection by Hyatt","40.3467","116.0616","hyatt.com","<MISSING>","<MISSING>"
"<MISSING>","Jinmao Hotel Lijiang","No. 8 Xiangjiang Road, Gucheng District","<MISSING>","<MISSING>","674100","CN","ljggh","+86 888 531 1234","The Unbound Collection by Hyatt","26.9122642597","100.2208042145","hyatt.com","<MISSING>","<MISSING>"
"<MISSING>","Hyatt Place Chengdu Pebble Walk","No.669, Wanxiang South Road, High-Tech District","<MISSING>","<MISSING>","610094","CN","ctuzc","+86 28 86781234","Hyatt Place","30.586296","104.048762","hyatt.com","<MISSING>","<MISSING>"
"<MISSING>","Grand Hyatt Hangzhou","28 Hu Bin Road","<MISSING>","<MISSING>","310006","CN","hangz","+86 571 8779 1234","Grand Hyatt","30.254751","120.161336","hyatt.com","<MISSING>","<MISSING>"
"<MISSING>","Hyatt Regency Changbaishan","Changbaishan International Resort Fusong County, Jilin Province","<MISSING>","<MISSING>","134504","CN","nbshr","+86 439 612 1234","Hyatt Regency","42.106517","127.511798","hyatt.com","<MISSING>","<MISSING>"
"<MISSING>","Park Hyatt Guangzhou","16 Huaxia Road, Zhujiang New Town, Tianhe District","<MISSING>","<MISSING>","510623","CN","guaph","+86 20 3769 1234","Park Hyatt","23.118597","113.321602","hyatt.com","<MISSING>","<MISSING>"
"<MISSING>","Hyatt House Shanghai Hongqiao CBD","9 Shenhong Road, Hongqiao CBD","<MISSING>","<MISSING>","201106","CN","shaxh","+86 21 3329 5599","Hyatt House","31.190363","121.31678","hyatt.com","<MISSING>","<MISSING>"
"<MISSING>","Hyatt Regency Tianjin East","126 Weiguo Road, Hedong District","<MISSING>","<MISSING>","300161","CN","etihr","+86 22 2457 1234","Hyatt Regency","39.142535","117.247918","hyatt.com","<MISSING>","<MISSING>"
"<MISSING>","The Sukhothai Shanghai","380 Weihai Road Jingan District","<MISSING>","<MISSING>","200041","CN","pvgys","+86 21 5237 8888","SLH","31.227193","121.46419","hyatt.com","<MISSING>","<MISSING>"
"<MISSING>","Hyatt Regency Wuhan Optics Valley","No.1077 Luoyu Road, Hongshan District","<MISSING>","<MISSING>","430074","CN","wuhrw","+86 27 8778 1234","Hyatt Regency","30.507249","114.421025","hyatt.com","<MISSING>","<MISSING>"
"<MISSING>","Hyatt Place Changsha Airport","1 Linkong South Road","<MISSING>","<MISSING>","410100","CN","csxza","+86 731 8186 1234","Hyatt Place","28.18842","113.21568","hyatt.com","<MISSING>","<MISSING>"
"<MISSING>","Hyatt Place Zhuhai Jinshi","988 Qianhe North Road Xiangzhou District","<MISSING>","<MISSING>","519000","CN","zuhzj","+86 756 865 1234","Hyatt Place","22.235096","113.508023","hyatt.com","<MISSING>","<MISSING>"
"<MISSING>","Hyatt Regency Xiamen Wuyuanwan","No. 5 Ri Yuan Er Li Road, Huli District","<MISSING>","<MISSING>","361006","CN","xmnrw","+86 592 606 1234","Hyatt Regency","24.516387","118.16278","hyatt.com","<MISSING>","<MISSING>"
"<MISSING>","Hyatt Regency Liberation Square Chongqing","No. 68 Zou Rong Road, Yuzhong District","<MISSING>","<MISSING>","400010","CN","ckgro","+86 (23) 6169 1234","Hyatt Regency","29.5567","106.5786","hyatt.com","<MISSING>","<MISSING>"
"<MISSING>","BEI Zhaolong Hotel","No. 2 Gong Ti North Road Chaoyang District","<MISSING>","<MISSING>","100027","CN","pekal","+86 10 8541 0000","JdV by Hyatt","39.9332131","116.4605555","hyatt.com","<MISSING>","<MISSING>"
"<MISSING>","The Lost Stone Villas & Spa","Yunfeng Mountain Scenic Area, Diantan Town","<MISSING>","<MISSING>","<MISSING>","CN","tczub","0875-5898888","The Unbound Collection by Hyatt","25.363955","98.427834","hyatt.com","<MISSING>","<MISSING>"
"<MISSING>","Hyatt House Shanghai New Hongqiao","2799 Huqingping Highway, Qingpu District","<MISSING>","<MISSING>","201703","CN","shaxn","+86 21 5978 1234","Hyatt House","31.152414","121.231888","hyatt.com","<MISSING>","<MISSING>"
"<MISSING>","Grand Hyatt Xi'an","No. 12, Jinye Road, High Tech Zone","<MISSING>","<MISSING>","710077","CN","xiygh","+86 29 8811 1234","Grand Hyatt","34.1942","108.876125","hyatt.com","<MISSING>","<MISSING>"
"<MISSING>","Hyatt Regency Beijing Wangjing","Lei Shing Hong Center, 8 Guangshun South Street, Chaoyang District","<MISSING>","<MISSING>","100102","CN","nayrw","+86 1086301234","Hyatt Regency","39.9915665","116.4762792","hyatt.com","<MISSING>","<MISSING>"
"<MISSING>","Hyatt Place Shenzhen Dongmen","3018 Jianshe Road, Luo Hu District","<MISSING>","<MISSING>","518001","CN","szxzs","+86 755 6188 1234","Hyatt Place","22.544502","114.115803","hyatt.com","<MISSING>","<MISSING>"
"<MISSING>","Hyatt Place Shanghai Hongqiao CBD","9 Shenhong Road, Hongqiao CBD","<MISSING>","<MISSING>","201106","CN","shazh","+86 21 3329 5588","Hyatt Place","31.190363","121.31678","hyatt.com","<MISSING>","<MISSING>"
"<MISSING>","Hyatt Regency Shanghai Jiading","1366 Yumin South Road, Jiading District","<MISSING>","<MISSING>","201801","CN","sharj","+86 21 5910 1234","Hyatt Regency","31.351704","121.262594","hyatt.com","<MISSING>","<MISSING>"
"<MISSING>","Andaz Xiamen","101 Hubin East Road, Siming District","<MISSING>","<MISSING>","361004","CN","xmnaz","+86 592 366 1234","Andaz","24.471","118.11","hyatt.com","<MISSING>","<MISSING>"
"<MISSING>","Grand Hyatt Dalian","No. 33 C 3 Zone, Xinghai Square","<MISSING>","<MISSING>","116000","CN","dalgh","+86 411 3988 1234","Grand Hyatt","38.88438","121.59103","hyatt.com","<MISSING>","<MISSING>"
"<MISSING>","Hyatt Place Tongxiang Train Station","288 Yuerong Road, Gaoqiao Street","<MISSING>","<MISSING>","314500","CN","hghzt","+86 573 8899 1234","Hyatt Place","30.55027778","120.56527778","hyatt.com","<MISSING>","<MISSING>"
"<MISSING>","Hyatt Regency Shanghai Global Harbor","718 Ningxia Road, Putuo District","<MISSING>","<MISSING>","200063","CN","shapr","+86 21 6215 1234","Hyatt Regency","31.231156","121.412654","hyatt.com","<MISSING>","<MISSING>"
"<MISSING>","Grand Hyatt Changsha","No.36 Middle Xiangjiang Road, Tianxin District","<MISSING>","<MISSING>","410002","CN","csxgh","+86 731 8823 1234","Grand Hyatt","28.220869","112.969635","hyatt.com","<MISSING>","<MISSING>"
"<MISSING>","Park Hyatt Sanya Sunny Bay Resort","5 Sunny Bay Road","<MISSING>","<MISSING>","572000","CN","sanph","+86 898 8820 1234","Park Hyatt","18.191","109.607","hyatt.com","<MISSING>","<MISSING>"
"<MISSING>","Grand Hyatt Beijing","1 East Chang An Avenue","<MISSING>","<MISSING>","100738","CN","beigh","+86 10 8518 1234","Grand Hyatt","39.909617","116.414563","hyatt.com","<MISSING>","<MISSING>"
"<MISSING>","Park Hyatt Shenzhen","5023 Yi Tian Road, Futian District","<MISSING>","<MISSING>","518033","CN","szxph","+86 755 8829 1234","Park Hyatt","22.532061","114.055464","hyatt.com","<MISSING>","<MISSING>"
