"locator_domain","page_url","location_name","street_address","city","state","zip","country_code","store_number","phone","location_type","latitude","longitude","hours_of_operation"
"hearinglife.com","https://www.hearinglife.com/hearing-aids-centers/Washington/Aberdeen","HearingLife – Hearing Aids:  Aberdeen, WA","110 West Market St. Suite 101","Aberdeen","WA","98520","US","<MISSING>","(360) 637-4437","<MISSING>","46.9749256","-123.8196669","Monday 9:00 AM to 5:00 PM Tuesday 9:00 AM to 5:00 PM Wednesday 9:00 AM to 5:00 PM Thursday 9:00 AM to 5:00 PM Friday 9:00 AM to 5:00 PM Saturday Closed Sunday Closed"
"hearinglife.com","https://www.hearinglife.com/hearing-aids-centers/Michigan/Adrian","HearingLife – Hearing Aids:  Adrian, MI","3136 N. Adrian Highway Suite E","Adrian","MI","49221","US","<MISSING>","(517) 759-5459","<MISSING>","41.929769","-84.009006","Monday 9:00 AM-5:00 PM Tuesday 9:00 AM-5:00 PM Wednesday 9:00 AM-5:00 PM Thursday 9:00 AM-5:00 PM Friday 9:00 AM-5:00 PM Saturday BY APPT. Sunday CLOSED"
"hearinglife.com","https://www.hearinglife.com/hearing-aids-centers/Wyoming/Afton","Regional Hearing & Balance Center, A HearingLife Company:  Afton, WY","685 S. Washington St.","Afton","WY","83110","US","<MISSING>","(307) 886-7067","<MISSING>","42.7250131","-110.93164","Monday Closed Tuesday Closed Wednesday Closed Thursday 8:00AM to 6:00PM Friday Closed Saturday Closed Sunday Closed"
"hearinglife.com","https://www.hearinglife.com/hearing-aids-centers/North-Carolina/Ahoskie","HearingLife – Hearing Aids:  Ahoskie, NC","220 E. Church St.","Ahoskie","NC","27910","US","<MISSING>","(252) 301-3378","<MISSING>","36.2833837","-76.9849643","Monday 9:00 AM to 5:00 PM Tuesday 9:00 AM to 5:00 PM Wednesday 9:00 AM to 5:00 PM Thursday 9:00 AM to 5:00 PM Friday 9:00 AM to 5:00 PM Saturday Closed Sunday Closed"
"hearinglife.com","https://www.hearinglife.com/hearing-aids-centers/Minnesota/Albert Lea","HearingLife:  Albert Lea, MN","125 W. Clark Street","Albert Lea","MN","56007","US","<MISSING>","(507) 473-4194","<MISSING>","43.6496444","-93.3692718","Monday CLOSED Tuesday 9:00 AM - 4:00 PM Wednesday CLOSED Thursday CLOSED Friday 9:00 AM to 5:00 PM Saturday 9:00 AM to 12:00 PM Sunday CLOSED"
"hearinglife.com","https://www.hearinglife.com/hearing-aids-centers/Alabama/Albertville","HearingLife – Hearing Aids:  Albertville, AL","201 East McKinney Ave. Suite C","Albertville","AL","35950","US","<MISSING>","(256) 293-4356","<MISSING>","34.2723372","-86.2044235","Monday 8:00 AM-4:00 PM Tuesday 8:00 AM-4:00 PM Wednesday 8:00 AM-4:00 PM Thursday 8:00 AM-4:00 PM Friday 8:00 AM-4:00 PM Saturday CLOSED Sunday CLOSED"
"hearinglife.com","https://www.hearinglife.com/hearing-aids-centers/Michigan/Allegan","HearingLife – Hearing Aids:  Allegan, MI","551 Linn St. Suite 060","Allegan","MI","49010","US","<MISSING>","(269) 264-4597","<MISSING>","42.5203459","-85.8560974","Monday CLOSED Tuesday CLOSED Wednesday CLOSED Thursday 9:00 AM-5:00 PM Friday CLOSED Saturday BY APPT. Sunday CLOSED"
"hearinglife.com","https://www.hearinglife.com/hearing-aids-centers/Iowa/Altoona","HearingLife:  Altoona, IA","1003 8th Street SW Suite J","Altoona","IA","50009","US","<MISSING>","(515) 381-6326","<MISSING>","41.644834","-93.4764253","Monday 9:00 AM to 5:00 PM Tuesday CLOSED Wednesday 9:00 AM to 5:00 PM Thursday 9:00 AM to 5:00 PM Friday CLOSED Saturday CLOSED Sunday CLOSED"
"hearinglife.com","https://www.hearinglife.com/hearing-aids-centers/Massachusetts/Amesbury","HearingLife – Hearing Aids: Amesbury, MA","24 Morill Place 2nd Floor","Amesbury","MA","01913","US","<MISSING>","(978) 518-3140","<MISSING>","42.8483913","-70.933553","Monday 8:30 AM-4:30 PM Tuesday 8:30 AM-4:30 PM Wednesday 8:30 AM-4:30 PM Thursday 8:30 AM-4:30 PM Friday 8:30 AM-4:30 PM Saturday CLOSED Sunday CLOSED"
"hearinglife.com","https://www.hearinglife.com/hearing-aids-centers/South-Carolina/Anderson","HearingLife:  Anderson, SC","176 Station Drive","Anderson","SC","29621","US","<MISSING>","(864) 642-0965","<MISSING>","34.5571446","-82.692534","Monday By Appointment Tuesday 9:00 AM to 5:00 PM Wednesday 9:00 AM to 5:00 PM Thursday By Appointment Friday 9:00 AM to 5:00 PM Saturday CLOSED Sunday CLOSED"
"hearinglife.com","https://www.hearinglife.com/hearing-aids-centers/Maryland/Annapolis","HearingLife – Hearing Aids: Annapolis, MD","128 Lubrano Dr. Suite 202","Annapolis","MD","21401","US","<MISSING>","(410) 919-9816","<MISSING>","38.986468","-76.5522859","Monday 9:00 AM-5:00 PM Tuesday 9:00 AM-5:00 PM Wednesday 9:00 AM-5:00 PM Thursday 9:00 AM-5:00 PM Friday 9:00 AM-5:00 PM Saturday CLOSED Sunday CLOSED"
"hearinglife.com","https://www.hearinglife.com/hearing-aids-centers/Minnesota/Anoka","HearingLife – Hearing Aids:  Anoka, MN","2850 Cutters Grove Avenue Suite 104","Anoka","MN","55303","US","<MISSING>","(763) 515-8412","<MISSING>","45.2106033","-93.4128571","Monday 9:00 AM to 5:00 PM Tuesday 9:00 AM to 5:00 PM Wednesday 9:00 AM to 5:00 PM Thursday 9:00 AM to 5:00 PM Friday 9:00 AM to 5:00 PM Saturday CLOSED Sunday CLOSED"
"hearinglife.com","https://www.hearinglife.com/hearing-aids-centers/Wisconsin/Appleton","HearingLife – Hearing Aids:  Appleton, WI","1440 S. Oneida St. Suite N","Appleton","WI","54915","US","<MISSING>","(920) 243-4688","<MISSING>","44.2493825","-88.4041227","Monday 9:00 AM to 5:00 PM Tuesday 9:00 AM to 5:00 PM Wednesday 9:00 AM to 5:00 PM Thursday 9:00 AM to 5:00 PM Friday 9:00 AM to 5:00 PM Saturday Closed Sunday Closed"
"hearinglife.com","https://www.hearinglife.com/hearing-aids-centers/California/Arcadia","HearingLife Hearing Aid Center: Arcadia, CA","301 W Huntington Dr Suite 615","Arcadia","CA","91007","US","<MISSING>","(626) 377-9816","<MISSING>","34.1349286","-118.0431213","Monday 9:00 AM to 5:00 PM Tuesday 9:00 AM to 5:00 PM Wednesday 9:00 AM to 5:00 PM Thursday 9:00 AM to 5:00 PM Friday 9:00 AM to 5:00 PM Saturday CLOSED Sunday CLOSED"
"hearinglife.com","https://www.hearinglife.com/hearing-aids-centers/Kansas/Arkansas-City","HearingLife – Hearing Aids: Arkansas City, KS","208 West Chestnut Ave.","Arkansas City","KS","67005","US","<MISSING>","620-506-0255","<MISSING>","37.0636886","-97.0408336","Monday 9:00 AM-5:00 PM Tuesday 9:00 AM-5:00 PM Wednesday 9:00 AM-5:00 PM Thursday 9:00 AM-5:00 PM Friday 9:00 AM-5:00 PM Saturday CLOSED Sunday CLOSED"
"hearinglife.com","<INACCESSIBLE>","HearingLife – Hearing Aids:  Arlington, VA","611 S. Carlin Springs Road #106","Arlington","VA","22204","US","<MISSING>","(703) 634-5143","<MISSING>","<INACCESSIBLE>","<INACCESSIBLE>","<INACCESSIBLE>"
"hearinglife.com","<INACCESSIBLE>","Arlington Hearing Center, A HearingLife Company, Arlington, VA","2500 Wilson Blvd #105","Arlington","VA","22201","US","<MISSING>","5712904735","<MISSING>","<INACCESSIBLE>","<INACCESSIBLE>","<INACCESSIBLE>"
"hearinglife.com","https://www.hearinglife.com/hearing-aids-centers/Illinois/Arlington Heights","HearingLife - Hearing Aids:  Arlington Heights, IL","304 E. Rand Road Suite 100","Arlington Heights","IL","60004","US","<MISSING>","(847) 512-4453","<MISSING>","42.1141955","-87.979931","Monday 9:00 AM to 5:00 PM Tuesday 9:00 AM to 5:00 PM Wednesday 9:00 AM to 5:00 PM Thursday 9:00 AM to 5:00 PM Friday 9:00 AM to 5:00 PM Saturday CLOSED Sunday CLOSED"
"hearinglife.com","https://www.hearinglife.com/hearing-aids-centers/Colorado/Arvada","HearingLife – Hearing Aids:  Arvada, CO","7310 W 52nd Ave. Suite S","Arvada","CO","80002","US","<MISSING>","(303) 647-6759","<MISSING>","39.7907869","-105.077022","Monday 8:30 AM-5:00 PM Tuesday 8:30 AM-5:00 PM Wednesday 8:30 AM-5:00 PM Thursday 8:30 AM-5:00 PM Friday 8:30 AM-5:00 PM Saturday CLOSED Sunday CLOSED"
"hearinglife.com","https://www.hearinglife.com/hearing-aids-centers/North-Carolina/Asheboro","HearingLife – Hearing Aids:  Asheboro, NC","350 S. Cox St. Suite B","Asheboro","NC","27203","US","<MISSING>","(336) 308-0129","<MISSING>","35.7023917","-79.8130181","Monday 9:00 AM to 5:00 PM Tuesday 9:00 AM to 5:00 PM Wednesday 9:00 AM to 5:00 PM Thursday 9:00 AM to 5:00 PM Friday 9:00 AM to 4:30 PM Saturday Closed Sunday Closed"
"hearinglife.com","https://www.hearinglife.com/hearing-aids-centers/North-Carolina/Asheville","HearingLife:  Asheville, NC","83 South Tunnel Road Suite A 7","Asheville","NC","28805","US","<MISSING>","(828) 641-9101","<MISSING>","35.5798182","-82.5235042","Monday 9:00 AM to 5:00 PM Tuesday 9:00 AM to 5:00 PM Wednesday 9:00 AM to 5:00 PM Thursday 9:00 AM to 5:00 PM Friday 9:00 AM to 5:00 PM Saturday CLOSED Sunday CLOSED"
"hearinglife.com","<INACCESSIBLE>","HearingLife – Hearing Aids:  Asheville, NC","856 Sweeten Creek Road Unit B","Asheville","NC","28803","US","<MISSING>","(828) 575-5933","<MISSING>","<INACCESSIBLE>","<INACCESSIBLE>","<INACCESSIBLE>"
"hearinglife.com","https://www.hearinglife.com/hearing-aids-centers/Ohio/Ashland","HearingLife – Hearing Aids:  Ashland, OH","1060 Claremont Ave. Suite 1","Ashland","OH","44805","US","<MISSING>","(567) 203-4268","<MISSING>","40.859347","-82.328163","Monday 9:00 AM - 5:00 PM Tuesday 9:00 AM - 5:00 PM Wednesday 9:00 AM - 5:00 PM Thursday 9:00 AM - 5:00 PM Friday 9:00 AM - 5:00 PM Saturday Closed Sunday Closed"
"hearinglife.com","https://www.hearinglife.com/hearing-aids-centers/Alabama/Auburn","HearingLife – Hearing Aids:  Auburn, AL","1100 South College St. Suite 105","Auburn","AL","36832","US","<MISSING>","(334) 246-2067","<MISSING>","32.584994","-85.4902008","Monday 8:00 AM - 4:00 PM Tuesday 8:00 AM - 4:00 PM Wednesday CLOSED Thursday CLOSED Friday CLOSED Saturday CLOSED Sunday CLOSED"
"hearinglife.com","https://www.hearinglife.com/hearing-aids-centers/California/Auburn","HearingLife Hearing Aid Center:  Auburn, CA","11990 Heritage Oak Place Suite 11","Auburn","CA","95603","US","<MISSING>","(530) 210-2028","<MISSING>","38.94165","-121.098265","Monday 8:30 AM-4:30 PM Tuesday 8:30 AM-4:30 PM Wednesday 8:30 AM-4:30 PM Thursday 8:30 AM-4:30 PM Friday 8:30 AM-4:30 PM Saturday CLOSED Sunday CLOSED"
"hearinglife.com","https://www.hearinglife.com/hearing-aids-centers/Maine/Auburn","HearingLife – Hearing Aids:  Auburn, ME","600 Turner St.","Auburn","ME","04210","US","<MISSING>","(207) 430-3664","<MISSING>","44.1170827","-70.232831","Monday 9:00 AM to 5:00 PM Tuesday 9:00 AM to 5:00 PM Wednesday 9:00 AM to 5:00 PM Thursday 9:00 AM to 5:00 PM Friday 9:00 AM to 5:00 PM Saturday Closed Sunday Closed"
"hearinglife.com","https://www.hearinglife.com/hearing-aids-centers/Connecticut/Avon","HearingLife – Hearing Aids: Avon, CT","47 West Main St.","Avon","CT","06001","US","<MISSING>","(860) 269-3784","<MISSING>","41.8103261","-72.8343823","Monday 9:00 AM to 5:00 PM Tuesday 9:00 AM to 5:00 PM Wednesday 9:00 AM to 5:00 PM Thursday 9:00 AM to 5:00 PM Friday 9:00 AM to 5:00 PM Saturday Closed Sunday Closed"
"hearinglife.com","https://www.hearinglife.com/hearing-aids-centers/New-York/Babylon","HearingLife – Hearing Aids:  Babylon, NY","124 E. Main St. Suite 203","Babylon","NY","11702","US","<MISSING>","(631) 983-3161","<MISSING>","40.6967015","-73.3209036","Monday 9:00 AM to 5:00 PM Tuesday 9:00 AM to 5:00 PM Wednesday 9:00 AM to 5:00 PM Thursday 9:00 AM to 5:00 PM Friday 9:00 AM to 5:00 PM Saturday Closed Sunday Closed"
"hearinglife.com","https://www.hearinglife.com/hearing-aids-centers/Michigan/Bad Axe","HearingLife:  Bad Axe, MI","1252 Sand Beach Rd","Bad Axe","MI","48413","US","<MISSING>","(989) 315-8490","<MISSING>","43.8022128","-82.9781079","Monday 9:00 AM to 4:00 PM Tuesday CLOSED Wednesday 9:00 AM to 4:00 PM Thursday CLOSED Friday 9:00 AM to 4:00 PM Saturday CLOSED Sunday CLOSED"
"hearinglife.com","https://www.hearinglife.com/hearing-aids-centers/Kentucky/Bardstown","HearingLife – Hearing Aids: Bardstown, KY","118 Patriot Drive Suite 205","Bardstown","KY","40004","US","<MISSING>","(270) 506-5419","<MISSING>","37.8611948","-85.5164188","Monday Closed Tuesday 8:30 AM to 5:00 PM - 1st and 3rd Tues. of each month Wednesday Closed Thursday Closed Friday 8:30 AM to 5:00 PM Saturday Closed Sunday Closed"
"hearinglife.com","https://www.hearinglife.com/hearing-aids-centers/Vermont/Barre","HearingLife – Hearing Aids:  Barre, VT","58 East View Lane Suite D","Barre","VT","05641","US","<MISSING>","(802) 778-3081","<MISSING>","44.2056777","-72.5593838","Monday 9:00 AM to 5:00 PM Tuesday 9:00 AM to 5:00 PM Wednesday 9:00 AM to 5:00 PM Thursday 9:00 AM to 5:00 PM Friday 9:00 AM to 5:00 PM Saturday Closed Sunday Closed"
"hearinglife.com","https://www.hearinglife.com/hearing-aids-centers/New-Hampshire/Barrington","HearingLife – Hearing Aids: Barrington, NH","9 Colonial Way","Barrington","NH","03825","US","<MISSING>","603-833-2323","<MISSING>","43.2411109","-70.989231","Monday 8:30 AM-4:30 PM Tuesday 8:30 AM-4:30 PM Wednesday 8:30 AM-4:30 PM Thursday 8:30 AM-4:30 PM Friday 8:30 AM-4:30 PM Saturday CLOSED Sunday CLOSED"
"hearinglife.com","https://www.hearinglife.com/hearing-aids-centers/Oklahoma/Bartlesville","HearingLife – Hearing Aids:  Bartlesville, OK","2230 SE Washington Boulevard Suite 101","Bartlesville","OK","74006","US","<MISSING>","(918) 876-1137","<MISSING>","36.7182606","-95.9349157","Monday 9:00 AM-5:00 PM Tuesday 9:00 AM-5:00 PM Wednesday 9:00 AM-5:00 PM Thursday 9:00 AM-5:00 PM Friday 9:00 AM-5:00 PM Saturday CLOSED Sunday CLOSED"
"hearinglife.com","https://www.hearinglife.com/hearing-aids-centers/Michigan/Battle-Creek","HearingLife – Hearing Aids:  Battle Creek, MI","1101 W. Columbia Ave.","Battle Creek","MI","49015","US","<MISSING>","(269) 558-3068","<MISSING>","42.2970243","-85.2199075","Monday 9:00 AM to 5:00 PM Tuesday 9:00 AM to 5:00 PM Wednesday 9:00 AM to 5:00 PM Thursday 9:00 AM to 5:00 PM Friday 9:00 AM to 5:00 PM Saturday Closed Sunday Closed"
"hearinglife.com","https://www.hearinglife.com/hearing-aids-centers/Minnesota/Baxter","HearingLife – Hearing Aids:  Baxter, MN","7656 Design Road Suite 300","Baxter","MN","56425","US","<MISSING>","(218) 297-4933","<MISSING>","46.3576034","-94.2414194","Monday 9:00 AM to 5:00 PM Tuesday 9:00 AM to 5:00 PM Wednesday 9:00 AM to 5:00 PM Thursday 9:00 AM to 5:00 PM Friday 9:00 AM to 5:00 PM Saturday CLOSED Sunday CLOSED"
"hearinglife.com","https://www.hearinglife.com/hearing-aids-centers/New-York/Bayside","HearingLife – Hearing Aids:  Bayside, NY","42-05 Francis Lewis Boulevard 2nd Floor","Bayside","NY","11361","US","<MISSING>","718-878-4472","<MISSING>","40.7592584","-73.7838445","Monday 9:00 AM to 5:00 PM Tuesday 9:00 AM to 5:00 PM Wednesday 9:00 AM to 5:00 PM Thursday 9:00 AM to 5:00 PM Friday 9:00 AM to 5:00 PM Saturday Closed Sunday Closed"
"hearinglife.com","https://www.hearinglife.com/hearing-aids-centers/Pennsylvania/Beaver","HearingLife – Hearing Aids:  Beaver, PA","195 Boundry Lane #1","Beaver","PA","15009","US","<MISSING>","(724) 227-0095","<MISSING>","40.6995517","-80.2923748","Monday 9:00 AM to 5:00 PM Tuesday 9:00 AM to 5:00 PM Wednesday 9:00 AM to 5:00 PM Thursday 9:00 AM to 5:00 PM Friday 9:00 AM to 5:00 PM Saturday Closed Sunday Closed"
"hearinglife.com","https://www.hearinglife.com/hearing-aids-centers/Wisconsin/Beaver-Dam","HearingLife – Hearing Aids:  Beaver Dam, WI","140 Corporate Drive Suite 1","Beaver Dam","WI","53916","US","<MISSING>","(920) 392-3181","<MISSING>","43.4767984","-88.812005","Monday 9:00 AM to 5:00 PM Tuesday 9:00 AM to 5:00 PM Wednesday 9:00 AM to 5:00 PM Thursday 9:00 AM to 5:00 PM Friday 9:00 AM to 5:00 PM Saturday Closed Sunday Closed"
"hearinglife.com","https://www.hearinglife.com/hearing-aids-centers/Ohio/Bellefontaine","HearingLife – Hearing Aids:  Bellefontaine, OH","921 Rush Avenue","Bellefontaine","OH","43311","US","<MISSING>","(937) 404-3098","<MISSING>","40.3731876","-83.7552493","Monday 9:00 AM to 5:00 PM Tuesday 9:00 AM to 5:00 PM Wednesday 9:00 AM to 5:00 PM Thursday 9:00 AM to 5:00 PM Friday 9:00 AM to 5:00 PM Saturday CLOSED Sunday CLOSED"
"hearinglife.com","https://www.hearinglife.com/hearing-aids-centers/New-York/Bellmore","HearingLife – Hearing Aids:  Bellmore, NY","2866 Merrick Road","Bellmore","NY","11710","US","<MISSING>","(516) 468-7017","<MISSING>","40.6638828","-73.5201172","Monday 9:00 AM to 5:00 PM Tuesday 9:00 AM to 5:00 PM Wednesday 9:00 AM to 5:00 PM Thursday 9:00 AM to 5:00 PM Friday 9:00 AM to 5:00 PM Saturday Closed Sunday Closed"
"hearinglife.com","https://www.hearinglife.com/hearing-aids-centers/Illinois/Bensenville","HearingLife:  Bensenville, IL","1143 South York Road","Bensenville","IL","60106","US","<MISSING>","(630) 478-2508","<MISSING>","41.931941","-87.937664","Monday 8:00 AM to 4:00 PM Tuesday CLOSED Wednesday 8:00 AM to 4:30 PM Thursday 8:00 AM to 5:00 PM Friday CLOSED Saturday CLOSED Sunday CLOSED"
"hearinglife.com","https://www.hearinglife.com/hearing-aids-centers/West-Virginia/Berkeley-Springs","HearingLife – Hearing Aids:  Berkeley Springs, WV","261 Berkmore Pl. Suite 2B","Berkeley Springs","WV","25411","US","<MISSING>","(304) 707-0058","<MISSING>","39.611573002130534","-78.23441925966063","Monday 8:00 AM - 4:00 PM Tuesday 8:00 AM - 5:00 PM Wednesday 8:00 AM - 4:00 PM Thursday 1:00 PM - 5:00 PM Friday Closed Saturday Closed Sunday Closed"
"hearinglife.com","https://www.hearinglife.com/hearing-aids-centers/Michigan/Big-Rapids","HearingLife – Hearing Aids:  Big Rapids, MI","120 N. Michigan Ave.","Big Rapids","MI","49307","US","<MISSING>","(231) 629-4911","<MISSING>","43.6991387","-85.4815897","Monday Closed Tuesday 9:00 AM to 5:00 PM Wednesday 9:00 AM to 5:00 PM Thursday Closed Friday Closed Saturday By Appt. Sunday Closed"
"hearinglife.com","https://www.hearinglife.com/hearing-aids-centers/Idaho/Blackfoot","Regional Hearing & Balance Center, A HearingLife Company:  Blackfoot, ID","1441 Parkway Drive","Blackfoot","ID","83221","US","<MISSING>","(855) 883-1629","<MISSING>","43.1958931","-112.363095","Monday Closed Tuesday Closed Wednesday Every other Wed. AM Thursday Closed Friday Closed Saturday Closed Sunday Closed"
"hearinglife.com","https://www.hearinglife.com/hearing-aids-centers/Illinois/Bloomingdale","HearingLife:  Bloomingdale, IL","111-1 Lake Street","Bloomingdale","IL","60108","US","<MISSING>","(630) 626-4515","<MISSING>","41.958891","-88.0801","Monday 9:00 AM to 5:00 PM CLOSED 9:00 AM to 4:00 PM Wednesday 9:00 AM to 5:00 PM Thursday 9:00 AM to 4:00 PM Friday 9:00 AM to 5:00 PM Saturday CLOSED Sunday CLOSED"
"hearinglife.com","https://www.hearinglife.com/hearing-aids-centers/Illinois/Bloomington","HearingLife:  Bloomington, IL","2412 E. Washington Suite 2","Bloomington","IL","61704","US","<MISSING>","(309) 929-4416","<MISSING>","40.4801963","-88.9480451","Monday CLOSED Tuesday CLOSED Wednesday 8:30 AM to 5:00 PM Thursday CLOSED Friday 8:30 AM to 5:00 PM Saturday CLOSED Sunday CLOSED"
"hearinglife.com","https://www.hearinglife.com/hearing-aids-centers/South-Carolina/Bluffton","HearingLife:  Bluffton, SC","17 Sherington Dr. Suite E","Bluffton","SC","29910","US","<MISSING>","(843) 548-4096","<MISSING>","32.2640742","-80.8581694","Monday 9:00 AM to 5:00 PM Tuesday 9:00 AM to 5:00 PM Wednesday 9:00 AM to 5:00 PM Thursday 9:00 AM to 5:00 PM Friday 9:00 AM to 5:00 PM Saturday CLOSED Sunday CLOSED"
"hearinglife.com","https://www.hearinglife.com/hearing-aids-centers/Idaho/Boise","HearingLife: Boise, ID","1084 North Cole Road","Boise","ID","83704","US","<MISSING>","(208) 629-0349","<MISSING>","43.614574","-116.273189","Monday 9:00 AM to 5:00 PM Tuesday 9:00 AM to 5:00 PM Wednesday 9:00 AM to 5:00 PM Thursday 9:00 AM to 5:00 PM Friday 9:00 AM to 5:00 PM Saturday CLOSED Sunday CLOSED"
"hearinglife.com","https://www.hearinglife.com/hearing-aids-centers/Missouri/Boonville","HearingLife:  Boonville, MO","520 Ryan St. Unit 0","Boonville","MO","65233","US","<MISSING>","(660) 672-4377","<MISSING>","38.9549123","-92.7391777","Monday CLOSED Tuesday CLOSED Wednesday 9:00 AM to 12:00 PM Thursday 9:00 AM to 5:00 PM Friday CLOSED Saturday CLOSED Sunday CLOSED"
"hearinglife.com","https://www.hearinglife.com/hearing-aids-centers/Illinois/Bourbonnais","HearingLife:  Bourbonnais, IL","586 William Latham Sr. Dr. Suite 2","Bourbonnais","IL","60914","US","<MISSING>","(815) 401-9766","<MISSING>","41.1621442","-87.879408","Monday CLOSED Tuesday 9:00 AM to 5:00 PM Wednesday CLOSED Thursday 9:00 AM to 5:00 PM Friday CLOSED Saturday By Appointment Sunday CLOSED"
"hearinglife.com","https://www.hearinglife.com/hearing-aids-centers/Ohio/Bowling-Green","Kenwood Hearing Centers, A HearingLife Company:  Bowling Green, OH","960 W. Wooster","Bowling Green","OH","43402","US","<MISSING>","(419) 540-6288","<MISSING>","41.3752809","-83.6670073","Monday Closed Tuesday 9:00 AM - 4:30 PM Wednesday Closed Thursday Closed Friday 9:00 PM - 12:30 PM Saturday Closed Sunday Closed"
"hearinglife.com","https://www.hearinglife.com/hearing-aids-centers/Connecticut/Branford","Hearing, Balance and Speech Center, A HearingLife Company, Branford, CT","11 Harrison Avenue","Branford","CT","06405","US","<MISSING>","2038362440","<MISSING>","41.381939","-72.910981","Monday 8:30 am - 5:00 pm Tuesday 8:30 am - 5:00 pm Wednesday Closed Thursday 8:30 am - 5:00 pm Friday Closed Saturday CLOSED Sunday CLOSED"
"hearinglife.com","https://www.hearinglife.com/hearing-aids-centers/Washington/Bremerton","HearingLife – Hearing Aids:  Bremerton, WA","2525 6th St. Suite C","Bremerton","WA","98312","US","<MISSING>","(360) 362-4247","<MISSING>","47.5665861","-122.6514242","Monday 9:00 AM to 5:00 PM Tuesday 9:00 AM to 5:00 PM Wednesday 9:00 AM to 5:00 PM Thursday 9:00 AM to 5:00 PM Friday 9:00 AM to 5:00 PM Saturday Closed Sunday Closed"
"hearinglife.com","https://www.hearinglife.com/hearing-aids-centers/North-Carolina/Brevard","HearingLife:  Brevard, NC","470 Asheville Highway Suite F","Brevard","NC","28712","US","<MISSING>","(828) 513-2899","<MISSING>","35.2490953","-82.7213526","Monday 9:00 AM to 5:00 PM Tuesday 9:00 AM to 5:00 PM Wednesday 9:00 AM to 5:00 PM Thursday 9:00 AM to 5:00 PM Friday 9:00 AM to 5:00 PM Saturday CLOSED Sunday CLOSED"
"hearinglife.com","https://www.hearinglife.com/hearing-aids-centers/New-Jersey/Brick","HearingLife – Hearing Aids: Brick, NJ","525 Jack Martin Blvd. Suite 104","Brick","NJ","08724","US","<MISSING>","732-606-4935","<MISSING>","40.0808223","-74.1373606","Monday 9:00 AM-5:00 PM Tuesday 9:00 AM-5:00 PM Wednesday 9:00 AM-5:00 PM Thursday 9:00 AM-5:00 PM Friday 9:00 AM-5:00 PM Saturday CLOSED Sunday CLOSED"
"hearinglife.com","https://www.hearinglife.com/hearing-aids-centers/Pennsylvania/Bridgeville","HearingLife:  Bridgeville, PA","1597 Washington Pike Unit A-27","Bridgeville","PA","15017","US","<MISSING>","(412) 564-4305","<MISSING>","40.3826179","-80.0951259","Monday CLOSED Tuesday 9:00 AM to 5:00 PM Wednesday CLOSED Thursday 9:00 AM to 5:00 PM Friday 9:00 AM to 5:00 PM Saturday CLOSED Sunday CLOSED"
"hearinglife.com","https://www.hearinglife.com/hearing-aids-centers/Ohio/Broadview-Heights","HearingLife – Hearing Aids:  Broadview Heights, OH","3505 East Royalton Road Suite 155","Broadview Heights","OH","44147","US","<MISSING>","(440) 397-4426","<MISSING>","41.3147955","-81.66064","Monday 9:00 AM - 5:00 PM Tuesday 9:00 AM - 5:00 PM Wednesday 9:00 AM - 5:00 PM Thursday 9:00 AM - 5:00 PM Friday 9:00 AM - 5:00 PM Saturday Closed Sunday Closed"
"hearinglife.com","https://www.hearinglife.com/hearing-aids-centers/Massachusetts/Brockton","HearingLife – Hearing Aids: Brockton, MA","165 Westgate Dr.","Brockton","MA","02301","US","<MISSING>","508-232-4958","<MISSING>","42.093717","-71.0502207","Monday 8:30 AM-5:00 PM Tuesday 8:30 AM-5:00 PM Wednesday 8:30 AM-5:00 PM Thursday 8:30 AM-5:00 PM Friday 8:30 AM-5:00 PM Saturday CLOSED Sunday CLOSED"
"hearinglife.com","https://www.hearinglife.com/hearing-aids-centers/Oklahoma/Broken-Arrow","HearingLife – Hearing Aids:  Broken Arrow, OK","443 West Stone Wood Dr.","Broken Arrow","OK","74012","US","<MISSING>","(918) 940-6854","<MISSING>","36.0739136","-95.7955207","Monday 9:00 AM-5:00 PM Tuesday 9:00 AM-5:00 PM Wednesday 9:00 AM-5:00 PM Thursday 9:00 AM-5:00 PM Friday 9:00 AM-5:00 PM Saturday CLOSED Sunday CLOSED"
"hearinglife.com","https://www.hearinglife.com/hearing-aids-centers/New-York/Bronx","HearingLife – Hearing Aids:  Bronx, NY","2143A Williamsbridge Road","Bronx","NY","10461","US","<MISSING>","(718) 568-0097","<MISSING>","40.8564658","-73.8561722","Monday 9:00 AM to 5:00 PM Tuesday 9:00 AM to 5:00 PM Wednesday 9:00 AM to 5:00 PM Thursday 9:00 AM to 5:00 PM Friday 9:00 AM to 5:00 PM Saturday Closed Sunday Closed"
"hearinglife.com","https://www.hearinglife.com/hearing-aids-centers/Wisconsin/Brookfield","HearingLife:  Brookfield, WI","17495 W. Capitol Drive","Brookfield","WI","53045","US","<MISSING>","(262) 395-7658","<MISSING>","43.0891617","-88.1294248","Monday 9:00 AM to 5:00 PM Tuesday 9:00 AM to 5:00 PM Wednesday 9:00 AM to 5:00 PM Thursday 9:00 AM to 5:00 PM Friday 9:00 AM to 5:00 PM Saturday CLOSED Sunday CLOSED"
"hearinglife.com","https://www.hearinglife.com/hearing-aids-centers/South-Dakota/Brookings","HearingLife:  Brookings, SD","762 22nd Ave. South","Brookings","SD","57006","US","<MISSING>","(605) 884-5847","<MISSING>","44.2985817","-96.7699642","Monday By Appointment Tuesday 9:00 AM to 5:00 PM Wednesday By Appointment Thursday By Appointment Friday By Appointment Saturday CLOSED Sunday CLOSED"
"hearinglife.com","https://www.hearinglife.com/hearing-aids-centers/Massachusetts/Brookline","HearingLife – Hearing Aids: Brookline, MA","44 Washington St. Suite 102 A","Brookline","MA","02445","US","<MISSING>","(617) 274-8109","<MISSING>","42.3311719","-71.115363","Monday 9:00 AM-5:00 PM Tuesday 9:00 AM-5:00 PM Wednesday 9:00 AM-5:00 PM Thursday 9:00 AM-5:00 PM Friday 9:00 AM-5:00 PM Saturday CLOSED Sunday CLOSED"
"hearinglife.com","https://www.hearinglife.com/hearing-aids-centers/Georgia/Brunswick","HearingLife:  Brunswick, GA","650 Scranton Road Suite L 2","Brunswick","GA","31520","US","<MISSING>","(912) 342-2165","<MISSING>","31.2180951","-81.4936068","Monday By Appointment Tuesday 9:00 AM to 5:00 PM Wednesday By Appointment Thursday 9:00 AM to 5:00 PM Friday By Appointment Saturday By Appointment Sunday CLOSED"
"hearinglife.com","https://www.hearinglife.com/hearing-aids-centers/West-Virginia/Buckhannon","HearingLife – Hearing Aids: Buckhannon, WV","4 Northridge Drive Suite 110","Buckhannon","WV","26201","US","<MISSING>","(304) 460-1277","<MISSING>","38.9866636","-80.2262713","Monday By Appointment Tuesday By Appointment Wednesday By Appointment Thursday By Appointment Friday By Appointment Saturday CLOSED Sunday CLOSED"
"hearinglife.com","https://www.hearinglife.com/hearing-aids-centers/Minnesota/Buffalo","HearingLife – Hearing Aids:  Buffalo, MN","151 5th Street NE – 101","Buffalo","MN","55313","US","<MISSING>","(763) 400-5831","<MISSING>","45.1861346","-93.8752751","Monday 9:00 AM to 5:00 PM Tuesday Closed Wednesday 9:00 AM to 5:00 PM Thursday 9:00 AM to 5:00 PM Friday Closed Saturday CLOSED Sunday CLOSED"
"hearinglife.com","https://www.hearinglife.com/hearing-aids-centers/California/Burbank","HearingLife Hearing Aid Center: Burbank, CA","2031 West Alameda Ave Suite 340","Burbank","CA","91506","US","<MISSING>","(818) 237-3583","<MISSING>","34.1599802","-118.3238211","Monday 8:30 AM to 5:00 PM Tuesday 8:30 AM to 5:00 PM Wednesday 8:30 AM to 5:00 PM Thursday 8:30 AM to 5:00 PM Friday 8:30 AM to 5:00 PM Saturday CLOSED Sunday CLOSED"
"hearinglife.com","https://www.hearinglife.com/hearing-aids-centers/Idaho/Burley","HearingLife – Hearing Aids:  Burley, ID","1534 Overland Ave.","Burley","ID","83318","US","<MISSING>","(208) 650-4258","<MISSING>","42.5334915","-113.7936171","Monday 9:00 AM - 5:00 PM Tuesday 9:00 AM - 5:00 PM Wednesday 9:00 AM - 5:00 PM Thursday 9:00 AM - 5:00 PM Friday 9:00 AM - 5:00 PM Saturday Closed Sunday Closed"
"hearinglife.com","https://www.hearinglife.com/hearing-aids-centers/Minnesota/Burnsville","HearingLife – Hearing Aids:  Burnsville, MN","12940 Harriet Avenue South Suite 110","Burnsville","MN","55337","US","<MISSING>","(952) 955-4402","<MISSING>","44.7684916","-93.2861475","Monday 8:30 AM to 4:00 PM Tuesday 8:30 AM to 4:00 PM Wednesday 8:30 AM to 4:00 PM Thursday 8:30 AM to 4:00 PM Friday 8:30 AM to 4:00 PM Saturday CLOSED Sunday CLOSED"
"hearinglife.com","https://www.hearinglife.com/hearing-aids-centers/Pennsylvania/Butler","HearingLife – Hearing Aids:  Butler, PA","1022 N. Main St.","Butler","PA","16001","US","<MISSING>","(724) 416-9513","<MISSING>","40.8774847","-79.897001","Monday 8:30 AM to 5:00 PM Tuesday 8:30 AM to 5:00 PM Wednesday 8:30 AM to 5:00 PM Thursday 8:30 AM to 5:00 PM Friday 8:30 AM to 5:00 PM Saturday Closed Sunday Closed"
"hearinglife.com","https://www.hearinglife.com/hearing-aids-centers/Michigan/Cadillac","HearingLife – Hearing Aids:  Cadillac, MI","205 Bell Ave.","Cadillac","MI","49601","US","<MISSING>","(231) 480-3115","<MISSING>","44.274649","-85.4052614","Monday 9:00 AM to 5:00 PM Tuesday 9:00 AM to 5:00 PM Wednesday 9:00 AM to 5:00 PM Thursday 9:00 AM to 5:00 PM Friday 9:00 AM to 5:00 PM Saturday By Appt. Sunday Closed"
"hearinglife.com","https://www.hearinglife.com/hearing-aids-centers/Ohio/Cambridge","HearingLife – Hearing Aids:  Cambridge, OH","407 Wheeling Avenue","Cambridge","OH","43725","US","<MISSING>","(740) 421-4790","<MISSING>","40.025394","-81.5963544","Monday 9:00 AM to 5:00 PM Tuesday 9:00 AM to 5:00 PM Wednesday 9:00 AM to 5:00 PM Thursday 9:00 AM to 5:00 PM Friday 9:00 AM to 5:00 PM Saturday CLOSED Sunday CLOSED"
"hearinglife.com","https://www.hearinglife.com/hearing-aids-centers/New-York/Camillus","HearingLife – Hearing Aids:  Camillus, NY","5320 West Genesee St.","Camillus","NY","13031","US","<MISSING>","(315) 314-8989","<MISSING>","43.0414612","-76.2722146","Monday 8:30 AM to 5:00 PM Tuesday 8:30 AM to 5:00 PM Wednesday 8:30 AM to 5:00 PM Thursday 8:30 AM to 5:00 PM Friday 8:30 AM to 5:00 PM Saturday Closed Sunday Closed"
"hearinglife.com","https://www.hearinglife.com/hearing-aids-centers/Pennsylvania/Camp Hill","HearingLife:  Camp Hill, PA","1900 Chestnut Street","Camp Hill","PA","17011","US","<MISSING>","(717) 461-7052","<MISSING>","40.2391608","-76.9156208","Monday 9:00 AM to 5:00 PM Tuesday 9:00 AM to 5:00 PM Wednesday 9:00 AM to 5:00 PM Thursday 9:00 AM to 5:00 PM Friday 9:00 AM to 5:00 PM Saturday By Appointment Sunday CLOSED"
"hearinglife.com","https://www.hearinglife.com/hearing-aids-centers/California/Carlsbad","HearingLife Hearing Aid Center:  Carlsbad, CA","2588 El Camino Real Suite D","Carlsbad","CA","92008","US","<MISSING>","(760) 547-7907","<MISSING>","33.1781044","-117.3254251","Monday 8:30 AM - 4:30 PM Tuesday 8:30 AM - 4:30 PM Wednesday 8:30 AM - 4:30 PM Thursday 8:30 AM - 4:30 PM Friday 8:30 AM - 4:30 PM Saturday CLOSED Sunday CLOSED"
"hearinglife.com","https://www.hearinglife.com/hearing-aids-centers/Michigan/Caro","HearingLife – Hearing Aids:  Caro, MI","1052 Cleaver Road","Caro","MI","48723","US","<MISSING>","(844) 327-7574","<MISSING>","43.4979938","-83.3872237","Monday 9:00 AM-5:00 PM Tuesday 9:00 AM-5:00 PM Wednesday 9:00 AM-5:00 PM Thursday 9:00 AM-5:00 PM Friday 9:00 AM-5:00 PM Saturday BY APPT. Sunday CLOSED"
"hearinglife.com","<INACCESSIBLE>","HearingLife – Hearing Aids:  Cary, NC","1750 NW Maynard Road Suite 104","Cary","NC","27513","US","<MISSING>","(919) 230-7355","<MISSING>","<INACCESSIBLE>","<INACCESSIBLE>","<INACCESSIBLE>"
"hearinglife.com","<INACCESSIBLE>","HearingLife:  Cary, NC","226 Ashville Ave. Suite 10","Cary","NC","27518","US","<MISSING>","(919) 827-1709","<MISSING>","<INACCESSIBLE>","<INACCESSIBLE>","<INACCESSIBLE>"
"hearinglife.com","https://www.hearinglife.com/hearing-aids-centers/Arizona/Casa-Grande","HearingLife – Hearing Aids: Casa Grande, AZ","1201 North Pinal Drive Suite A","Casa Grande","AZ","85122","US","<MISSING>","(866) 650-7967","<MISSING>","32.884954","-111.757634","Monday 8:00 AM to 4:00 PM Tuesday 8:00 AM to 4:00 PM Wednesday 8:00 AM to 4:00 PM Thursday 8:00 AM to 4:00 PM Friday 8:00 AM to 4:00 PM Saturday CLOSED Sunday CLOSED"
"hearinglife.com","https://www.hearinglife.com/hearing-aids-centers/Colorado/Castle-Rock","HearingLife – Hearing Aids:  Castle Rock, CO","62 Founders Pkwy Ste C-2","Castle Rock","CO","80104","US","<MISSING>","(720) 277-0369","<MISSING>","39.411469","-104.864479","Monday 8:00 am - 5:00 pm Tuesday 8:00 am - 5:00 pm Wednesday 8:00 am - 5:00 pm Thursday 8:00 am - 5:00 pm Friday 8:00 am - 1:00 pm Saturday CLOSED Sunday CLOSED"
"hearinglife.com","<INACCESSIBLE>","HearingLife – Hearing Aids:  Cañon City, CO","115 North 8th St.","Cañon City","CO","81212","US","<MISSING>","(719) 285-4205","<MISSING>","<INACCESSIBLE>","<INACCESSIBLE>","<INACCESSIBLE>"
"hearinglife.com","https://www.hearinglife.com/hearing-aids-centers/North-Carolina/Cedar-Point","HearingLife – Hearing Aids:  Cedar Point, NC","714 Cedar Point Boulevard","Cedar Point","NC","28584","US","<MISSING>","(252) 764-4088","<MISSING>","34.6795333","-77.091408","Monday 9:00 AM to 5:00 PM Tuesday 9:00 AM to 5:00 PM Wednesday 9:00 AM to 5:00 PM Thursday 9:00 AM to 5:00 PM Friday 9:00 AM to 5:00 PM Saturday Closed Sunday Closed"
"hearinglife.com","https://www.hearinglife.com/hearing-aids-centers/Wisconsin/Cedarburg","HearingLife:  Cedarburg, WI","54W6135 Mill Street Suite 800","Cedarburg","WI","53012","US","<MISSING>","(262) 421-7380","<MISSING>","43.2945055","-87.9854597","Monday By Appointment Tuesday 8:30 AM to 5:00 PM Wednesday By Appointment Thursday 8:30 AM to 5:00 PM Friday By Appointment Saturday CLOSED Sunday CLOSED"
"hearinglife.com","https://www.hearinglife.com/hearing-aids-centers/Michigan/Center-Line","HearingLife – Hearing Aids:  Center Line, MI","26834 Lawrence Ave.","Center Line","MI","48015","US","<MISSING>","(586) 838-2217","<MISSING>","42.4904711","-83.0320146","Monday 9:00 AM to 5:00 PM Tuesday 9:00 AM to 5:00 PM Wednesday 9:00 AM to 5:00 PM Thursday 9:00 AM to 5:00 PM Friday 9:00 AM to 5:00 PM Saturday By Appt. Sunday Closed"
"hearinglife.com","<INACCESSIBLE>","HearingLife:  Centerville, OH","5824 Wilmington Pike Suite 1G","Centerville","OH","45459","US","<MISSING>","(937) 965-0402","<MISSING>","<INACCESSIBLE>","<INACCESSIBLE>","<INACCESSIBLE>"
"hearinglife.com","<INACCESSIBLE>","HearingLife – Hearing Aids:  Centerville, OH","200-B East Spring Valley Pike Road","Centerville Spring Valley Pike","OH","45458","US","<MISSING>","(937) 203-3017","<MISSING>","<INACCESSIBLE>","<INACCESSIBLE>","<INACCESSIBLE>"
"hearinglife.com","https://www.hearinglife.com/hearing-aids-centers/Washington/Centralia","HearingLife – Hearing Aids:  Centralia, WA","515 Harrison Ave. Suite 102","Centralia","WA","98531","US","<MISSING>","(360) 330-4489","<MISSING>","46.7221566","-122.9701816","Monday 9:00 AM to 5:00 PM Tuesday 9:00 AM to 5:00 PM Wednesday 9:00 AM to 5:00 PM Thursday 9:00 AM to 5:00 PM Friday 9:00 AM to 5:00 PM Saturday Closed Sunday Closed"
"hearinglife.com","https://www.hearinglife.com/hearing-aids-centers/Arizona/Chandler","HearingLife – Hearing Aids:  Chandler, AZ","10 South Kyrene Road","Chandler","AZ","85226","US","<MISSING>","(602) 903-5392","<MISSING>","33.303302","-111.946241","Monday 9:00 AM to 5:00 PM Tuesday 9:00 AM to 5:00 PM Wednesday 9:00 AM to 5:00 PM Thursday 9:00 AM to 5:00 PM Friday 9:00 AM to 5:00 PM Saturday CLOSED Sunday CLOSED"
"hearinglife.com","https://www.hearinglife.com/hearing-aids-centers/North-Carolina/Chapel Hill","HearingLife:  Chapel Hill, NC","606 Meadowmont Village Circle","Chapel Hill","NC","27517","US","<MISSING>","(919) 246-4435","<MISSING>","35.9056532","-79.010225","Monday 8:00 AM to 4:30 PM Tuesday 8:00 AM to 4:30 PM Wednesday 8:00 AM to 4:30 PM Thursday 8:00 AM to 4:30 PM Friday 8:00 AM to 4:30 PM Saturday CLOSED Sunday CLOSED"
"hearinglife.com","https://www.hearinglife.com/hearing-aids-centers/West-Virginia/Charles-Town","HearingLife – Hearing Aids:  Charles Town, WV","31 Willow Spring Drive","Charles Town","WV","25414","US","<MISSING>","(304) 930-5269","<MISSING>","39.2930794","-77.8451479","Monday 8:00 AM - 5:00 PM Tuesday 8:00 AM - 5:00 PM Wednesday 8:00 AM - 5:00 PM Thursday 8:00 AM - 5:00 PM Friday 8:00 AM - 5:00 PM Saturday Closed Sunday Closed"
"hearinglife.com","https://www.hearinglife.com/hearing-aids-centers/North-Carolina/Charlotte","HearingLife:  Charlotte, NC","7810 Ballantyne Commons Parkway Suite 210","Charlotte","NC","28277","US","<MISSING>","(704) 243-5382","<MISSING>","35.0591644","-80.8113607","Monday 9:00 AM to 5:00 PM Tuesday 9:00 AM to 5:00 PM Wednesday 9:00 AM to 5:00 PM Thursday 9:00 AM to 5:00 PM Friday 9:00 AM to 5:00 PM Saturday CLOSED Sunday CLOSED"
"hearinglife.com","https://www.hearinglife.com/hearing-aids-centers/Virginia/Charlottesville","HearingLife – Hearing Aids: Charlottesville, VA","302 Hickman Rd. Suite 202","Charlottesville","VA","22911","US","<MISSING>","(434) 422-4762","<MISSING>","38.0281326","-78.4441668","Monday 9:00 AM-5:00 PM Tuesday 9:00 AM-5:00 PM Wednesday 9:00 AM-5:00 PM Thursday 9:00 AM-5:00 PM Friday 9:00 AM-5:00 PM Saturday CLOSED Sunday CLOSED"
"hearinglife.com","https://www.hearinglife.com/hearing-aids-centers/New-Jersey/Cherry Hill","HearingLife – Hearing Aids: Cherry Hill, NJ","1050 N. Kings Highway Suite 101","Cherry Hill","NJ","08034","US","<MISSING>","(856) 433-2088","<MISSING>","39.9212284","-75.0031923","Monday 9:00 AM-5:00 PM Tuesday 9:00 AM-5:00 PM Wednesday 9:00 AM-5:00 PM Thursday 9:00 AM-5:00 PM Friday 9:00 AM-5:00 PM Saturday CLOSED Sunday CLOSED"
"hearinglife.com","https://www.hearinglife.com/hearing-aids-centers/Massachusetts/Chicopee","HearingLife – Hearing Aids: Chicopee, MA","683 James St.","Chicopee","MA","01020","US","<MISSING>","(413) 887-5447","<MISSING>","42.2000339","-72.5674729","Monday 9:00 AM to 5:00 PM Tuesday 9:00 AM to 5:00 PM Wednesday 9:00 AM to 5:00 PM Thursday 9:00 AM to 5:00 PM Friday 9:00 AM to 5:00 PM Saturday Closed Sunday Closed"
"hearinglife.com","https://www.hearinglife.com/hearing-aids-centers/Wisconsin/Chilton","HearingLife – Hearing Aids:  Chilton, WI","18 West Main Suite S","Chilton","WI","53014","US","<MISSING>","(920) 340-3084","<MISSING>","44.0288713","-88.1633472","Monday 9:00 AM to 5:00 PM Tuesday Closed Wednesday 9:00 AM to 5:00 PM Thursday Closed Friday 9:00 AM to 5:00 PM Saturday Closed Sunday Closed"
"hearinglife.com","https://www.hearinglife.com/hearing-aids-centers/California/City-of-Industry","HearingLife Hearing Aid Center: City of Industry, CA","17800 Castleton Street Suite 264","City of Industry","CA","91748","US","<MISSING>","(626) 377-9133","<MISSING>","33.9922357","-117.9152428","Monday 9:00 AM to 5:00 PM Tuesday 9:00 AM to 5:00 PM Wednesday 9:00 AM to 5:00 PM Thursday 9:00 AM to 5:00 PM Friday 9:00 AM to 5:00 PM Saturday CLOSED Sunday CLOSED"
"hearinglife.com","https://www.hearinglife.com/hearing-aids-centers/Oregon/Clackamas","HearingLife – Hearing Aids: Clackamas, OR","10365 SE Sunnyside Road Suite 230","Clackamas","OR","97015","US","<MISSING>","(503) 427-1776","<MISSING>","45.4339223","-122.55815","Monday 8:00 AM to 4:30 PM Tuesday 8:00 AM to 4:30 PM Wednesday 8:00 AM to 4:30 PM Thursday 8:00 AM to 4:30 PM Friday 8:00 AM to 4:30 PM Saturday Closed Sunday Closed"
"hearinglife.com","https://www.hearinglife.com/hearing-aids-centers/Oklahoma/Claremore","HearingLife – Hearing Aids:  Claremore, OK","2018 OK-66","Claremore","OK","74019","US","<MISSING>","(918) 379-4410","<MISSING>","36.3327163","-95.6045194","Monday 9:00 AM-5:00 PM Tuesday 9:00 AM-5:00 PM Wednesday 9:00 AM-5:00 PM Thursday 9:00 AM-5:00 PM Friday 9:00 AM-5:00 PM Saturday CLOSED Sunday CLOSED"
"hearinglife.com","https://www.hearinglife.com/hearing-aids-centers/Pennsylvania/Clarion","HearingLife – Hearing Aids:  Clarion, PA","22868 Route 68","Clarion","PA","16214","US","<MISSING>","(814) 297-5167","<MISSING>","41.1968435","-79.3905054","Monday 8:00 AM to 4:30 PM Tuesday 8:00 AM to 4:30 PM Wednesday 8:00 AM to 4:30 PM Thursday 8:00 AM to 4:30 PM Friday 9:00 AM to 4:30 PM Evening: By Appointment Saturday Closed Sunday Closed"
"hearinglife.com","https://www.hearinglife.com/hearing-aids-centers/Tennessee/Clarksville","Summit Audiology, A HearingLife Co.:  Clarksville, TN","1825 Madison Street Suite C","Clarksville","TN","37043","US","<MISSING>","(931) 266-0760","<MISSING>","36.516292","-87.305772","Monday CLOSED Tuesday 9:00 AM to 5:00 PM Wednesday CLOSED Thursday CLOSED Friday 9:00 AM to 5:00 PM Saturday CLOSED Sunday CLOSED"
"hearinglife.com","https://www.hearinglife.com/hearing-aids-centers/Indiana/Clarksville","HearingLife – Hearing Aids: Clarksville, IN","914 Eastern Blvd. Suite 400","Clarksville","IN","47129","US","<MISSING>","(812) 590-4851","<MISSING>","38.3035553","-85.7644623","Monday 9:00 AM-5:00 PM Tuesday 9:00 AM-5:00 PM Wednesday 9:00 AM-5:00 PM Thursday 9:00 AM-5:00 PM Friday 9:00 AM-5:00 PM Saturday By Appt. Sunday CLOSED"
"hearinglife.com","https://www.hearinglife.com/hearing-aids-centers/North-Carolina/Clinton","HearingLife – Hearing Aids:  Clinton, NC","415-C Warsaw Road","Clinton","NC","28328","US","<MISSING>","(910) 682-3149","<MISSING>","34.9981448","-78.3105825","Monday 9:00 AM to 5:00 PM Tuesday 9:00 AM to 5:00 PM Wednesday 9:00 AM to 5:00 PM Thursday 9:00 AM to 5:00 PM Friday 9:00 AM to 12:00 PM Saturday By Appointment Sunday Closed"
"hearinglife.com","https://www.hearinglife.com/hearing-aids-centers/Minnesota/Cloquet","HearingLife – Hearing Aids:  Cloquet, MN","4-13th Street","Cloquet","MN","55720","US","<MISSING>","(218) 206-8851","<MISSING>","46.7213811","-92.4500802","Monday 9:00 AM to 5:00 PM Tuesday 9:00 AM to 5:00 PM Wednesday 9:00 AM to 5:00 PM Thursday 9:00 AM to 5:00 PM Friday 9:00 AM to 5:00 PM Saturday CLOSED Sunday CLOSED"
"hearinglife.com","https://www.hearinglife.com/hearing-aids-centers/California/Clovis","HearingLife Hearing Aid Center:  Clovis, CA","420 Bullard Ave. Suite 101","Clovis","CA","93612","US","<MISSING>","(559) 472-9044","<MISSING>","36.8228517","-119.703783","Monday 9:00 AM-5:00 PM Tuesday 9:00 AM-5:00 PM Wednesday 9:00 AM-5:00 PM Thursday 9:00 AM-5:00 PM Friday 9:00 AM-5:00 PM Saturday CLOSED Sunday CLOSED"
"hearinglife.com","https://www.hearinglife.com/hearing-aids-centers/North-Carolina/Clyde","HearingLife:  Clyde, NC","600 Hospital Dr. Suite 6","Clyde","NC","28721","US","<MISSING>","(828) 633-5763","<MISSING>","35.5263997","-82.9478871","Monday 9:00 AM to 5:00 PM Tuesday By Appointment Wednesday 9:00 AM to 5:00 PM Thursday By Appointment Friday 9:00 AM to 5:00 PM Saturday CLOSED Sunday CLOSED"
"hearinglife.com","https://www.hearinglife.com/hearing-aids-centers/Michigan/Coldwater","HearingLife – Hearing Aids:  Coldwater, MI","43 South Michigan Ave.","Coldwater","MI","49036","US","<MISSING>","(517) 774-4397","<MISSING>","41.9359681","-84.9801084","Monday 9:00 AM-5:00 PM Tuesday 9:00 AM-5:00 PM Wednesday 9:00 AM-5:00 PM Thursday 9:00 AM-5:00 PM Friday 9:00 AM-5:00 PM Saturday BY APPT. Sunday CLOSED"
"hearinglife.com","<INACCESSIBLE>","COLORADOHearing, A HearingLife Company: Colorado Springs, CO - East Woodmen Rd.","6071 East Woodmen Road NorthCare Pavilion Suite 325","Colorado Springs","CO","80923","US","<MISSING>","(719) 285-4269","<MISSING>","<INACCESSIBLE>","<INACCESSIBLE>","<INACCESSIBLE>"
"hearinglife.com","<INACCESSIBLE>","COLORADOHearing, A HearingLife Company: Colorado Springs, CO - North Circle Dr.","3030 North Circle Dr. Suite 300","Colorado Springs","CO","80909","US","<MISSING>","(719) 285-4169","<MISSING>","<INACCESSIBLE>","<INACCESSIBLE>","<INACCESSIBLE>"
"hearinglife.com","<INACCESSIBLE>","HearingLife – Hearing Aids: Colorado Springs, CO","1396 South 21st St.","Colorado Springs","CO","80904","US","<MISSING>","(719) 285-4042","<MISSING>","<INACCESSIBLE>","<INACCESSIBLE>","<INACCESSIBLE>"
"hearinglife.com","https://www.hearinglife.com/hearing-aids-centers/North-Carolina/Concord","HearingLife:  Concord, NC","845 Church Street North Suite 210","Concord","NC","28025","US","<MISSING>","(704) 706-2411","<MISSING>","35.4324217","-80.602812","Monday By Appointment Tuesday 9:00 AM to 5:00 PM Wednesday By Appointment Thursday 9:00 AM to 5:00 PM Friday By Appointment Saturday CLOSED Sunday CLOSED"
"hearinglife.com","<INACCESSIBLE>","HearingLife – Hearing Aids:  Concord, NH – Pleasant St.","66 Pleasant St.","Concord","NH","03301","US","<MISSING>","(603) 369-4873","<MISSING>","<INACCESSIBLE>","<INACCESSIBLE>","<INACCESSIBLE>"
"hearinglife.com","<INACCESSIBLE>","HearingLife – Hearing Aids: Concord, NH - Loudon Road","341 Loudon Road Unit 3","Concord","NH","03301","US","<MISSING>","(603) 565-0005","<MISSING>","<INACCESSIBLE>","<INACCESSIBLE>","<INACCESSIBLE>"
"hearinglife.com","https://www.hearinglife.com/hearing-aids-centers/Arkansas/Conway","HearingLife – Hearing Aids:  Conway, AR","2915 Dave Ward Dr. Suite 8","Conway","AR","72034","US","<MISSING>","(501) 764-3373","<MISSING>","35.0700095","-92.4730599","Monday 9:00 AM-5:00 PM Tuesday 9:00 AM-5:00 PM Wednesday 9:00 AM-5:00 PM Thursday 9:00 AM-5:00 PM Friday 9:00 AM-5:00 PM Saturday CLOSED Sunday CLOSED"
"hearinglife.com","https://www.hearinglife.com/hearing-aids-centers/Texas/Corpus-Christi","HearingLife – Hearing Aids: Corpus Christi, TX","3201 Airline Rd. Suite A","Corpus Christi","TX","78414","US","<MISSING>","(361) 288-7670","<MISSING>","27.6706703","-97.3654776","Monday 9:00 AM-5:00 PM Tuesday 9:00 AM-5:00 PM Wednesday 9:00 AM-5:00 PM Thursday 9:00 AM-5:00 PM Friday 9:00 AM-5:00 PM Saturday CLOSED Sunday CLOSED"
"hearinglife.com","<INACCESSIBLE>","HearingLife Hearing Aid Center: Corte Madera, CA","770 Tamalpais Drive Suite 410","Corte Madera","CA","94925","US","<MISSING>","(415) 742-8429","<MISSING>","<INACCESSIBLE>","<INACCESSIBLE>","<INACCESSIBLE>"
"hearinglife.com","https://www.hearinglife.com/hearing-aids-centers/Virginia/Covington","HearingLife – Hearing Aids: Covington, VA","911 Valley Ridge Rd","Covington","VA","24426","US","<MISSING>","(540) 319-6246","<MISSING>","37.7738302","-79.9643935","Monday 9:00 AM-5:00 PM Tuesday 9:00 AM-5:00 PM Wednesday 9:00 AM-5:00 PM Thursday 9:00 AM-5:00 PM Friday 9:00 AM-5:00 PM Saturday CLOSED Sunday CLOSED"
"hearinglife.com","https://www.hearinglife.com/hearing-aids-centers/Illinois/Crystal Lake","HearingLife:  Crystal Lake, IL","380 North Terra Cotta Rd. Unit B","Crystal Lake","IL","60012","US","<MISSING>","(815) 893-7031","<MISSING>","42.2520046","-88.297575","Monday 10:00 AM to 7:30 PM Tuesday 8:00 AM to 4:30 PM Wednesday 8:00 AM to 4:00 PM Thursday 8:00 AM to 4:30 PM Friday 8:00 AM to 3:00 PM Saturday CLOSED Sunday CLOSED"
"hearinglife.com","https://www.hearinglife.com/hearing-aids-centers/Virginia/Culpeper","HearingLife – Hearing Aids: Culpeper, VA","700 Southridge Parkway Suite 309","Culpeper","VA","22701","US","<MISSING>","(540) 212-6402","<MISSING>","38.4553878","-78.0176025","Monday 9:00 AM-5:00 PM Tuesday 9:00 AM-5:00 PM Wednesday 9:00 AM-5:00 PM Thursday 9:00 AM-5:00 PM Friday 9:00 AM-5:00 PM Saturday CLOSED Sunday CLOSED"
"hearinglife.com","https://www.hearinglife.com/hearing-aids-centers/Maine/Damariscotta","HearingLife – Hearing Aids:  Damariscotta, ME","468 Main Street","Damariscotta","ME","04543","US","<MISSING>","207-228-9746","<MISSING>","44.036144","-69.512943","Monday 8:30 AM-4:40 PM Tuesday 8:30 AM-4:40 PM Wednesday 8:30 AM-4:40 PM Thursday 8:30 AM-4:40 PM Friday 8:30 AM-4:40 PM Saturday CLOSED Sunday CLOSED"
"hearinglife.com","https://www.hearinglife.com/hearing-aids-centers/Illinois/Danville","HearingLife – Hearing Aids: Danville, IL","809 1/2 Gilbert St.","Danville","IL","61832","US","<MISSING>","(217) 213-3287","<MISSING>","40.1244272","-87.6353509","Monday 9:00 AM-4:30 PM Tuesday 9:00 AM-4:30 PM Wednesday 9:00 AM-4:30 PM Thursday 9:00 AM-4:30 PM Friday CLOSED Saturday CLOSED Sunday CLOSED"
"hearinglife.com","https://www.hearinglife.com/hearing-aids-centers/Virginia/Danville","HearingLife – Hearing Aids:  Danville, VA","625 Piney Forest Road Suite 206","Danville","VA","24540","US","<MISSING>","(434) 421-3039","<MISSING>","36.6101315","-79.4069537","Monday 9:00 AM to 4:30 PM Tuesday 9:00 AM to 4:30 PM Wednesday 9:00 AM to 4:30 PM Thursday 9:00 AM to 4:30 PM Friday 9:00 AM to 4:00 PM Saturday Closed Sunday Closed"
"hearinglife.com","https://www.hearinglife.com/hearing-aids-centers/Michigan/Davison","HearingLife – Hearing Aids:  Davison, MI","1141 South State Road Suite 15","Davison","MI","48423","US","<MISSING>","(810) 893-6502","<MISSING>","43.0160244","-83.5167242","Monday 9:00 AM to 5:00 PM Tuesday 9:00 AM to 5:00 PM Wednesday 9:00 AM to 5:00 PM Thursday 9:00 AM to 5:00 PM Friday 9:00 AM to 5:00 PM Saturday Closed Sunday Closed"
"hearinglife.com","https://www.hearinglife.com/hearing-aids-centers/Ohio/Dayton","HearingLife:  Dayton, OH","7271 N Main Street Suite 5","Dayton","OH","45415","US","<MISSING>","(937) 965-0403","<MISSING>","39.8311613","-84.2518329","Monday 9:00 AM to 5:00 PM Tuesday By Appointment Wednesday 9:00 AM to 5:00 PM Thursday By Appointment Friday By Appointment Saturday CLOSED Sunday CLOSED"
"hearinglife.com","<INACCESSIBLE>","HearingLife – Hearing Aids:  Dayton, OH","5525 North Main Street","Dayton","OH","45415","US","<MISSING>","(937) 660-8935","<MISSING>","<INACCESSIBLE>","<INACCESSIBLE>","<INACCESSIBLE>"
"hearinglife.com","https://www.hearinglife.com/hearing-aids-centers/Massachusetts/Dedham","HearingLife – Hearing Aids: Dedham, MA","624 Washington St.","Dedham","MA","02026","US","<MISSING>","781-355-7714","<MISSING>","42.240864","-71.1792556","Monday 8:30 AM-4:30 PM Tuesday 8:30 AM-4:30 PM Wednesday 8:30 AM-4:30 PM Thursday 8:30 AM-4:30 PM Friday 8:30 AM-4:30 PM Saturday CLOSED Sunday CLOSED"
"hearinglife.com","https://www.hearinglife.com/hearing-aids-centers/New-Jersey/Denville","HearingLife – Hearing Aids: Denville, NJ","92 Broadway","Denville","NJ","07834","US","<MISSING>","(973) 453-2967","<MISSING>","40.8915673","-74.4743595","Monday 8:00 AM-6:00 PM Tuesday 8:00 AM-6:00 PM Wednesday 8:00 AM-7:00 PM Thursday 8:00 AM-5:00 PM Friday 8:30 AM-5:00 PM Saturday 8:30 AM-5:00 PM Sunday CLOSED"
"hearinglife.com","https://www.hearinglife.com/hearing-aids-centers/Kansas/Derby","HearingLife – Hearing Aids: Derby, KS","1747 East Osage Road Suite F","Derby","KS","67037","US","<MISSING>","316-779-2968","<MISSING>","37.5445564","-97.2447006","Monday 9:00 AM-5:00 PM Tuesday 9:00 AM-5:00 PM Wednesday 9:00 AM-5:00 PM Thursday 9:00 AM-5:00 PM Friday 9:00 AM-5:00 PM Saturday CLOSED Sunday CLOSED"
"hearinglife.com","https://www.hearinglife.com/hearing-aids-centers/Georgia/Douglasville","HearingLife:  Douglasville, GA","8657 Hospital Dr. Suite 101 A","Douglasville","GA","30134","US","<MISSING>","(470) 795-7102","<MISSING>","33.7452527","-84.7313522","Monday 9:00 AM to 4:30 PM Tuesday 9:00 AM to 4:30 PM Wednesday 9:00 AM to 4:30 PM Thursday 9:00 AM to 4:30 PM Friday 9:00 AM to 4:30 PM Saturday By Appointment Sunday CLOSED"
"hearinglife.com","<INACCESSIBLE>","HearingLife – Hearing Aids: Dover Forrest, DE","1404 Forrest Ave. Suite 2B","Dover","DE","19904","US","<MISSING>","(302) 724-6188","<MISSING>","<INACCESSIBLE>","<INACCESSIBLE>","<INACCESSIBLE>"
"hearinglife.com","<INACCESSIBLE>","Hearing Services of Delaware, Inc., A HearingLife Company, Dover, DE","99 Wolf Creek Blvd Suite 3","Dover","DE","19901","US","<MISSING>","(302) 525-0380","<MISSING>","<INACCESSIBLE>","<INACCESSIBLE>","<INACCESSIBLE>"
"hearinglife.com","https://www.hearinglife.com/hearing-aids-centers/Florida/Dowling-Park","HearingLife – Hearing Aids:  Dowling Park, FL","10820 Marvin Jones Blvd.","Dowling Park","FL","32060","US","<MISSING>","386-269-1779","<MISSING>","30.2522587","-83.2334529","Monday Closed Tuesday 9:30 AM – 5:00 PM Wednesday Closed Thursday Closed Friday Closed Saturday Closed Sunday Closed"
"hearinglife.com","https://www.hearinglife.com/hearing-aids-centers/Ohio/Dublin","HearingLife:  Dublin, OH","3848 Hard Rd. Suite 109","Dublin","OH","43016","US","<MISSING>","(614) 602-4730","<MISSING>","40.1197128","-83.0925233","Monday 8:30 AM to 5:00 PM Tuesday CLOSED Wednesday 8:30 AM to 5:00 PM Thursday CLOSED Friday 8:30 AM to 5:00 PM Saturday CLOSED Sunday CLOSED"
"hearinglife.com","https://www.hearinglife.com/hearing-aids-centers/Minnesota/Duluth","HearingLife – Hearing Aids:  Duluth, MN","2216 Mountain Shadow Drive","Duluth","MN","55811","US","<MISSING>","(218) 491-6230","<MISSING>","46.8049769","-92.1655933","Monday 9:00 AM to 5:00 PM Tuesday 9:00 AM to 5:00 PM Wednesday 9:00 AM to 5:00 PM Thursday 9:00 AM to 5:00 PM Friday 9:00 AM to 5:00 PM Saturday CLOSED Sunday CLOSED"
"hearinglife.com","https://www.hearinglife.com/hearing-aids-centers/New-Jersey/Dunellen","HearingLife – Hearing Aids: Dunellen, NJ","8 S. Washington Avenue","Dunellen","NJ","08812","US","<MISSING>","(732) 529-2377","<MISSING>","40.591898","-74.463185","Monday 9:00 AM-4:00 PM Tuesday 9:00 AM-4:00 PM Wednesday 9:00 AM-4:00 PM Thursday 9:00 AM-4:00 PM Friday 9:00 AM-4:00 PM Saturday CLOSED Sunday CLOSED"
"hearinglife.com","https://www.hearinglife.com/hearing-aids-centers/North-Carolina/Dunn","HearingLife – Hearing Aids:  Dunn, NC","1804 W. Cumberland St.","Dunn","NC","28334","US","<MISSING>","(910) 292-3454","<MISSING>","35.317514","-78.627734","Monday 9:00 AM to 5:00 PM Tuesday 9:00 AM to 5:00 PM Wednesday 9:00 AM to 5:00 PM Thursday 9:00 AM to 5:00 PM Friday 9:00 AM to 5:00 PM Saturday By Appointment Sunday Closed"
"hearinglife.com","https://www.hearinglife.com/hearing-aids-centers/Georgia/Dunwoody","HearingLife:  Atlanta, GA","4468 Chamblee Dunwoody Rd Suite 3","Dunwoody","GA","30338","US","<MISSING>","(404) 935-7303","<MISSING>","33.8471722","-84.3668419","Monday 8:30 AM to 4:30 PM Tuesday CLOSED Wednesday 8:30 AM to 4:30 PM Thursday CLOSED Friday CLOSED Saturday CLOSED Sunday CLOSED"
"hearinglife.com","https://www.hearinglife.com/hearing-aids-centers/Georgia/Dunwoody","HearingLife:  Dunwoody, GA","4468 Chamblee Dunwoody Rd Suite 3","Dunwoody","GA","30338","US","<MISSING>","(404) 935-7303","<MISSING>","33.8471722","-84.3668419","Monday 8:30 AM to 4:30 PM Tuesday CLOSED Wednesday 8:30 AM to 4:30 PM Thursday CLOSED Friday CLOSED Saturday CLOSED Sunday CLOSED"
"hearinglife.com","https://www.hearinglife.com/hearing-aids-centers/North-Carolina/Durham","HearingLife – Hearing Aids:  Durham, NC","6011 Fayetteville Road Suite 102","Durham","NC","27713","US","<MISSING>","(919) 246-9362","<MISSING>","35.9165255","-78.9312551","Monday 9:00 AM to 5:00 PM Tuesday 9:00 AM to 5:00 PM Wednesday 9:00 AM to 5:00 PM Thursday 9:00 AM to 5:00 PM Friday 9:00 AM to 5:00 PM Saturday Closed Sunday Closed"
"hearinglife.com","https://www.hearinglife.com/hearing-aids-centers/New-Jersey/East Brunswick","HearingLife – Hearing Aids: East Brunswick, NJ","44 Milltown Rd.","East Brunswick","NJ","08816","US","<MISSING>","(732) 348-5553","<MISSING>","40.4414964","-74.3957568","Monday 9:00 AM-5:00 PM Tuesday 9:00 AM-5:00 PM Wednesday 9:00 AM-5:00 PM Thursday 9:00 AM-5:00 PM Friday 9:00 AM-5:00 PM Saturday CLOSED Sunday CLOSED"
"hearinglife.com","https://www.hearinglife.com/hearing-aids-centers/Michigan/East Lansing","HearingLife:  East Lansing, MI","1651 W. Lake Lansing Road Suite 200","East Lansing","MI","48823","US","<MISSING>","(517) 489-4341","<MISSING>","42.759474","-84.5059554","Monday 9:00 AM to 5:00 PM Tuesday 9:00 AM to 5:00 PM Wednesday 9:00 AM to 5:00 PM Thursday 9:00 AM to 5:00 PM Friday 9:00 AM to 5:00 PM Saturday By Appointment Sunday CLOSED"
"hearinglife.com","https://www.hearinglife.com/hearing-aids-centers/Connecticut/East-Windsor","HearingLife – Hearing Aids: East Windsor, CT","2A Pasco Drive","East Windsor","CT","06088","US","<MISSING>","(860) 254-4499","<MISSING>","41.908526","-72.612632","Monday 9:00 AM to 5:00 PM Tuesday 9:00 AM to 5:00 PM Wednesday 9:00 AM to 5:00 PM Thursday 9:00 AM to 5:00 PM Friday 9:00 AM to 5:00 PM Saturday By Appointment Sunday Closed"
"hearinglife.com","https://www.hearinglife.com/hearing-aids-centers/Maryland/Easton","HearingLife – Hearing Aids: Easton, MD","21 North Hanson Street Suite 101","Easton","MD","21601","US","<MISSING>","(410) 690-8982","<MISSING>","38.7750498","-76.0729038","Monday 9:00 AM - 5:00 PM Tuesday 9:00 AM - 5:00 PM Wednesday 9:00 AM - 5:00 PM Thursday 9:00 AM - 5:00 PM Friday 9:00 AM - 5:00 PM Saturday CLOSED Sunday CLOSED"
"hearinglife.com","https://www.hearinglife.com/hearing-aids-centers/Ohio/Eaton","HearingLife – Hearing Aids:  Eaton, OH","200 Eaton Lewisburg Road Ste 104","Eaton","OH","45320","US","<MISSING>","(937) 533-2119","<MISSING>","39.7606411","-84.6345459","Monday By Appointment Tuesday By Appointment Wednesday 9:00 AM to 5:00 PM Thursday By Appointment Friday By Appointment Saturday CLOSED Sunday CLOSED"
"hearinglife.com","https://www.hearinglife.com/hearing-aids-centers/Wisconsin/Eau Claire","HearingLife:  Eau Claire, WI","4631 Keystone Crossing","Eau Claire","WI","54701","US","<MISSING>","(715) 953-2255","<MISSING>","44.771242","-91.437526","Monday 8:00 AM to 4:00 PM Tuesday 8:00 AM to 4:00 PM Wednesday 8:00 AM to 4:00 PM Thursday 8:00 AM to 4:00 PM Friday 8:00 AM to 4:00 PM Saturday CLOSED Sunday CLOSED"
"hearinglife.com","https://www.hearinglife.com/hearing-aids-centers/North-Carolina/Edenton","HearingLife – Hearing Aids:  Edenton, NC","222 D Virginia Road","Edenton","NC","27932","US","<MISSING>","(252) 368-4010","<MISSING>","36.072492","-76.609758","Monday 9:00 AM to 5:00 PM Tuesday 9:00 AM to 5:00 PM Wednesday 9:00 AM to 5:00 PM Thursday 9:00 AM to 5:00 PM Friday 9:00 AM to 4:30PM Saturday Closed Sunday Closed"
"hearinglife.com","https://www.hearinglife.com/hearing-aids-centers/Minnesota/Edina","HearingLife – Hearing Aids:  Edina, MN","7300 Metro Blvd. Suite 140","Edina","MN","55439","US","<MISSING>","(952) 955-7920","<MISSING>","44.8698894","-93.3522342","Monday 9:00 AM to 5:00 PM Tuesday 9:00 AM to 5:00 PM Wednesday 9:00 AM to 5:00 PM Thursday 9:00 AM to 5:00 PM Friday 9:00 AM to 5:00 PM Saturday CLOSED Sunday CLOSED"
"hearinglife.com","https://www.hearinglife.com/hearing-aids-centers/New-Jersey/Edison","HearingLife – Hearing Aids: Edison, NJ","4 Progress St. Ste A-7","Edison","NJ","08820","US","<MISSING>","(908) 315-5367","<MISSING>","40.5976557","-74.3588113","Monday 9:00 AM-5:00 PM Wednesday 9:00 AM-5:00 PM Thursday 9:00 AM-5:00 PM Friday 9:00 AM-5:00 PM Saturday 9:00 AM-5:00 PM Saturday CLOSED Sunday CLOSED"
"hearinglife.com","https://www.hearinglife.com/hearing-aids-centers/Oklahoma/Edmond","HearingLife – Hearing Aids:  Edmond, OK","15816 North Pennsylvania Ave. Suite 2","Edmond","OK","73013","US","<MISSING>","(405) 241-4538","<MISSING>","35.631544","-97.5487069","Monday 9:00 AM-5:00 PM Tuesday 9:00 AM-5:00 PM Wednesday 9:00 AM-5:00 PM Thursday 9:00 AM-5:00 PM Friday 9:00 AM-5:00 PM Saturday CLOSED Sunday CLOSED"
"hearinglife.com","https://www.hearinglife.com/hearing-aids-centers/New-Jersey/Elizabeth","HearingLife – Hearing Aids: Elizabeth, NJ","1207 E. Grand St.","Elizabeth","NJ","07201","US","<MISSING>","(908) 242-3880","<MISSING>","40.6666704","-74.2142964","Monday 9:00 AM-4:30 PM Tuesday 9:00 AM-4:30 PM Wednesday 9:00 AM-4:30 PM Thursday 9:00 AM-4:30 PM Friday 9:00 AM-4:30 PM Saturday CLOSED Sunday CLOSED"
"hearinglife.com","https://www.hearinglife.com/hearing-aids-centers/North-Carolina/Elizabeth-City","HearingLife – Hearing Aids:  Elizabeth City, NC","1825 City Center West Suite C","Elizabeth City","NC","27909","US","<MISSING>","(252) 679-3203","<MISSING>","36.2982","-76.2603","Monday 9:00 AM to 5:00 PM Tuesday 9:00 AM to 5:00 PM Wednesday 9:00 AM to 5:00 PM Thursday 9:00 AM to 5:00 PM Friday 9:00 AM to 5:00 PM Saturday By Appointment Sunday Closed"
"hearinglife.com","https://www.hearinglife.com/hearing-aids-centers/Kentucky/Elizabethtown","HearingLife – Hearing Aids: Elizabethtown, KY","2414 Ring Road Suite 106","Elizabethtown","KY","42701","US","<MISSING>","(270) 506-5416","<MISSING>","37.7327265","-85.8447446","Monday 9:00 AM to 4:30 PM Tuesday 9:00 AM to 4:30 PM Wednesday 9:00 AM to 4:30 PM Thursday 9:00 AM to 4:30 PM Friday 9:00 AM to 4:30 PM Saturday Closed Sunday Closed"
"hearinglife.com","https://www.hearinglife.com/hearing-aids-centers/West-Virginia/Elkins","HearingLife – Hearing Aids:  Elkins, WV","1105 Harrison Ave","Elkins","WV","26241","US","<MISSING>","(304) 460-1277","<MISSING>","38.9307974","-79.8613364","Monday 8:30 AM-5:00 PM Tuesday 8:30 AM-5:00 PM Wednesday 8:30 AM-5:00 PM Thursday 8:30 AM-5:00 PM Friday 8:30 AM-5:00 PM Saturday CLOSED Sunday CLOSED"
"hearinglife.com","https://www.hearinglife.com/hearing-aids-centers/Ohio/Elyria","HearingLife – Hearing Aids:  Elyria, OH","1490 West River Road","Elyria","OH","44035","US","<MISSING>","(440) 328-4739","<MISSING>","41.393709","-82.106295","Monday 9:00 AM - 5:00 PM Tuesday 9:00 AM - 5:00 PM Wednesday 9:00 AM - 5:00 PM Thursday 9:00 AM - 5:00 PM Friday 9:00 AM - 5:00 PM Saturday Closed Sunday Closed"
"hearinglife.com","https://www.hearinglife.com/hearing-aids-centers/Virginia/Emporia","HearingLife – Hearing Aids:  Emporia, VA","307 Dogwood Lane Suite C","Emporia","VA","23847","US","<MISSING>","(434) 336-6115","<MISSING>","36.6994286","-77.5406475","Monday 9:00 AM to 5:00 PM Tuesday 9:00 AM to 5:00 PM Wednesday 9:00 AM to 5:00 PM Thursday 9:00 AM to 5:00 PM Friday 9:00 AM to 5:00 PM Saturday Closed Sunday Closed"
"hearinglife.com","https://www.hearinglife.com/hearing-aids-centers/New-York/Endicott","Family Audiology, A HearingLife Company, Endicott, NY","800 Hooper Road Suite 370","Endicott","NY","13760","US","<MISSING>","6072352412","<MISSING>","42.129745","-76.028023","Monday 8:00 am - 4:30 pm Tuesday 8:00 am - 5:30 pm Wednesday 8:00 am - 5:30 pm Thursday 8:00 am - 5:30 pm Friday 8:00 am - 2:00 pm Saturday CLOSED Sunday CLOSED"
"hearinglife.com","https://www.hearinglife.com/hearing-aids-centers/New-Jersey/Englewood","HearingLife – Hearing Aids: Englewood, NJ","300 Grand Avenue Suite P2N","Englewood","NJ","07631","US","<MISSING>","(201) 399-2476","<MISSING>","40.884212","-73.977259","Monday 9:00 AM-5:00 PM Tuesday 9:00 AM-5:00 PM Wednesday 9:00 AM-5:00 PM Thursday 9:00 AM-6:00 PM Friday 9:00 AM-5:00 PM Saturday CLOSED Sunday CLOSED"
"hearinglife.com","https://www.hearinglife.com/hearing-aids-centers/Oregon/Eugene","Audiology Professionals, A HearingLife Company, Eugene, OR","1600 Valley River Dr Suite 395","Eugene","OR","97401","US","<MISSING>","(541) 255-3943","<MISSING>","44.070931","-123.110936","Monday 9:00 am - 5:00 pm Tuesday 9:00 am - 5:00 pm Wednesday 9:00 am - 5:00 pm Thursday 9:00 am - 5:00 pm Friday 9:00 am - 5:00 pm Saturday CLOSED Sunday CLOSED"
"hearinglife.com","https://www.hearinglife.com/hearing-aids-centers/New-Hampshire/Exeter","HearingLife – Hearing Aids: Exeter, NH","21 Hampton Road","Exeter","NH","03833","US","<MISSING>","603-583-4081","<MISSING>","42.9755687","-70.9092855","Monday 8:30 AM-4:30 PM Tuesday 8:30 AM-4:30 PM Wednesday 8:30 AM-4:30 PM Thursday 8:30 AM-4:30 PM Friday 8:30 AM-4:30 PM Saturday CLOSED Sunday CLOSED"
"hearinglife.com","https://www.hearinglife.com/hearing-aids-centers/California/Fair-Oaks","HearingLife Hearing Aid Center:  Fair Oaks, CA","11723 Fair Oaks Boulevard","Fair Oaks","CA","95628","US","<MISSING>","(916) 436-1698","<MISSING>","38.665081","-121.2629995","Monday 8:30 AM-4:30 PM Tuesday 8:30 AM-4:30 PM Wednesday 8:30 AM-4:30 PM Thursday 8:30 AM-4:30 PM Friday 8:30 AM-4:30 PM Saturday CLOSED Sunday CLOSED"
"hearinglife.com","https://www.hearinglife.com/hearing-aids-centers/West-Virginia/Fairmont","HearingLife – Hearing Aids:  Fairmont, WV","719 Fairmont Ave. Suite 203","Fairmont","WV","26554","US","<MISSING>","(304) 368-6048","<MISSING>","39.4757957","-80.1517114","Monday By Appointment Tuesday By Appointment Wednesday By Appointment Thursday By Appointment Friday By Appointment Saturday CLOSED Sunday CLOSED"
"hearinglife.com","https://www.hearinglife.com/hearing-aids-centers/Massachusetts/Fall River","HearingLife – Hearing Aids: Fall River, MA","514 Hanover St.","Fall River","MA","02720","US","<MISSING>","508-689-9064","<MISSING>","41.7116723","-71.143787","Monday 8:30 AM-5:00 PM Tuesday 8:30 AM-5:00 PM Wednesday 8:30 AM-5:00 PM Thursday 8:30 AM-5:00 PM Friday 8:30 AM-5:00 PM Saturday CLOSED Sunday CLOSED"
"hearinglife.com","https://www.hearinglife.com/hearing-aids-centers/Maine/Farmington","HearingLife – Hearing Aids:  Farmington, ME","201 Front Street","Farmington","ME","04938","US","<MISSING>","207-561-6294","<MISSING>","44.6686487","-70.1518843","Monday 8:30 AM-4:30 PM Tuesday 8:30 AM-4:30 PM Wednesday 8:30 AM-4:30 PM Thursday 8:30 AM-4:30 PM Friday 8:30 AM-4:30 PM Saturday CLOSED Sunday CLOSED"
"hearinglife.com","https://www.hearinglife.com/hearing-aids-centers/Virginia/Farmville","HearingLife – Hearing Aids:  Farmville, VA","911 South Main Street","Farmville","VA","23901","US","<MISSING>","(434) 607-4629","<MISSING>","37.3053104","-78.4137485","Monday 9:00 AM to 5:00 PM Tuesday 9:00 AM to 5:00 PM Wednesday 9:00 AM to 5:00 PM Thursday 9:00 AM to 5:00 PM Friday 9:00 AM to 5:00 PM Saturday Closed Sunday Closed"
"hearinglife.com","https://www.hearinglife.com/hearing-aids-centers/Georgia/Fayetteville","HearingLife – Hearing Aids: Fayetteville, GA","101 Yorktown Dr. Suite 201","Fayetteville","GA","30214","US","<MISSING>","(770) 282-5025","<MISSING>","33.4505303","-84.4782176","Monday 9:00 AM-5:00 PM Tuesday 9:00 AM-5:00 PM Wednesday 9:00 AM-5:00 PM Thursday 9:00 AM-5:00 PM Friday 9:00 AM-5:00 PM Saturday CLOSED Sunday CLOSED"
"hearinglife.com","https://www.hearinglife.com/hearing-aids-centers/North-Carolina/Fayetteville","HearingLife – Hearing Aids:  Fayetteville, NC","206 Westwood Shopping Center","Fayetteville","NC","28314","US","<MISSING>","(910) 213-3995","<MISSING>","35.0653495","-78.9521469","Monday 9:00 AM to 5:00 PM Tuesday 9:00 AM to 5:00 PM Wednesday 9:00 AM to 5:00 PM Thursday 9:00 AM to 5:00 PM Friday 9:00 AM to 5:00 PM Saturday Closed Sunday Closed"
"hearinglife.com","https://www.hearinglife.com/hearing-aids-centers/Virginia/Fishersville","HearingLife – Hearing Aids: Fishersville, VA","1534 Jefferson Highway","Fishersville","VA","22939","US","<MISSING>","(540) 999-4165","<MISSING>","38.1039928","-78.9774098","Monday 9:00 AM-5:00 PM Tuesday 9:00 AM-5:00 PM Wednesday 9:00 AM-5:00 PM Thursday 9:00 AM-5:00 PM Friday 9:00 AM-5:00 PM Saturday CLOSED Sunday CLOSED"
"hearinglife.com","https://www.hearinglife.com/hearing-aids-centers/New-York/Fishkill","Family Hearing Center, A HearingLife Company, Fishkill, NY","18 Westage Business Center Drive","Fishkill","NY","12524","US","<MISSING>","8452446065","<MISSING>","41.528431","-73.894493","Monday 9:00 am - 5:00 pm Tuesday 9:00 am - 5:00 pm Wednesday 9:00 am - 5:00 pm Thursday 9:00 am - 5:00 pm Friday 9:00 am - 5:00 pm Saturday CLOSED Sunday CLOSED"
"hearinglife.com","<INACCESSIBLE>","HearingLife – Hearing Aids:  Flint, MI","4433 Miller Road","Flint","MI","48507","US","<MISSING>","(810) 893-6491","<MISSING>","<INACCESSIBLE>","<INACCESSIBLE>","<INACCESSIBLE>"
"hearinglife.com","https://www.hearinglife.com/hearing-aids-centers/Arizona/Florence","HearingLife – Hearing Aids: Florence, AZ","475 South Main Street","Florence","AZ","85132","US","<MISSING>","(866) 650-7967","<MISSING>","33.02755","-111.38698","Monday 8:00 AM to 4:00 PM Tuesday 8:00 AM to 4:00 PM Wednesday 8:00 AM to 4:00 PM Thursday 8:00 AM to 4:00 PM Friday 8:00 AM to 4:00 PM Saturday CLOSED Sunday CLOSED"
"hearinglife.com","https://www.hearinglife.com/hearing-aids-centers/California/Folsom","HearingLife Hearing Aid Center:  Folsom, CA","750 Oak Avenue Parkway Suite 180","Folsom","CA","95630","US","<MISSING>","(916) 794-0082","<MISSING>","38.6654108","-121.1358092","Monday 9:00 AM to 5:00 PM Tuesday 9:00 AM to 5:00 PM Wednesday 9:00 AM to 5:00 PM Thursday 9:00 AM to 5:00 PM Friday 9:00 AM to 5:00 PM Saturday CLOSED Sunday CLOSED"
"hearinglife.com","https://www.hearinglife.com/hearing-aids-centers/Wisconsin/Fond-du-Lac","HearingLife – Hearing Aids:  Fond du Lac, WI","1211 Rickmeyer Drive Suite CC","Fond du Lac","WI","54937","US","<MISSING>","(920) 933-8241","<MISSING>","43.7857397","-88.48829","Monday 9:00 AM to 5:00 PM Tuesday 9:00 AM to 5:00 PM Wednesday 9:00 AM to 5:00 PM Thursday 9:00 AM to 5:00 PM Friday 9:00 AM to 5:00 PM Saturday Closed Sunday Closed"
"hearinglife.com","https://www.hearinglife.com/hearing-aids-centers/Minnesota/Forest-Lake","HearingLife – Hearing Aids:  Forest Lake, MN","86 NW 3rd Street","Forest Lake","MN","55025","US","<MISSING>","(651) 356-6187","<MISSING>","45.280292","-92.987796","Monday 9:00 AM to 5:00 PM Tuesday 9:00 AM to 5:00 PM Wednesday 9:00 AM to 5:00 PM Thursday 9:00 AM to 5:00 PM Friday 9:00 AM to 5:00 PM Saturday CLOSED Sunday CLOSED"
"hearinglife.com","https://www.hearinglife.com/hearing-aids-centers/Tennessee/Franklin","Summit Audiology, A HearingLife Company, Franklin, TN","256 Seaboard Ln. Suite D103","Franklin","TN","37067","US","<MISSING>","(615) 656-4712","<MISSING>","35.9525492","-86.8268998","Monday By Appointment Tuesday 9:00 AM to 5:00 PM Wednesday By Appointment Thursday By Appointment Friday 9:00 AM to 5:00 PM Saturday CLOSED Sunday CLOSED"
"hearinglife.com","https://www.hearinglife.com/hearing-aids-centers/North-Carolina/Franklin","HearingLife:  Franklin, NC","205 Highlands Road","Franklin","NC","28734","US","<MISSING>","(828) 516-3009","<MISSING>","35.1850434","-83.3701544","Monday By Appointment Tuesday 9:00 AM to 5:00 PM Wednesday By Appointment Thursday 9:00 AM to 5:00 PM Friday By Appointment Saturday CLOSED Sunday CLOSED"
"hearinglife.com","https://www.hearinglife.com/hearing-aids-centers/Virginia/Franklin","HearingLife – Hearing Aids:  Franklin, VA","106 Fairview Drive Suite B","Franklin","VA","23851","US","<MISSING>","(757) 516-7085","<MISSING>","36.6917079","-76.9394144","Monday By Appointment Tuesday 9:00 AM to 5:00 PM Wednesday 9:00 AM to 5:00 PM Thursday 9:00 AM to 5:00 PM Friday 9:00 AM to 5:00 PM Saturday Closed Sunday Closed"
"hearinglife.com","https://www.hearinglife.com/hearing-aids-centers/New-Jersey/Freehold","HearingLife – Hearing Aids: Freehold, NJ","303 West Main St. Suite B401","Freehold","NJ","07728","US","<MISSING>","(732) 333-6404","<MISSING>","40.2454613","-74.2977797","Monday 9:00 AM-5:00 PM Tuesday 9:00 AM-5:00 PM Wednesday 9:00 AM-5:00 PM Thursday 9:00 AM-5:00 PM Friday 9:00 AM-5:00 PM Saturday CLOSED Sunday CLOSED"
"hearinglife.com","https://www.hearinglife.com/hearing-aids-centers/Illinois/Freeport","HearingLife – Hearing Aids:  Freeport, IL","705 East South Street","Freeport","IL","61032","US","<MISSING>","(815) 656-4921","<MISSING>","42.280019","-89.605962","Monday 9:00 AM-5:00 PM Tuesday 9:00 AM-5:00 PM Wednesday 9:00 AM-5:00 PM Thursday 9:00 AM-5:00 PM Friday 9:00 AM-5:00 PM Saturday CLOSED Sunday CLOSED"
"hearinglife.com","https://www.hearinglife.com/hearing-aids-centers/California/Fresno","HearingLife Hearing Aid Center:  Fresno, CA","8953 N. Chestnut Ave.","Fresno","CA","93720","US","<MISSING>","559-490-4476","<MISSING>","36.8658979","-119.7395302","Monday 9:00 AM-5:00 PM Tuesday 9:00 AM-5:00 PM Wednesday 9:00 AM-5:00 PM Thursday 9:00 AM-5:00 PM Friday 9:00 AM-5:00 PM Saturday CLOSED Sunday CLOSED"
"hearinglife.com","https://www.hearinglife.com/hearing-aids-centers/Idaho/Fruitland","HearingLife – Hearing Aids:  Fruitland, ID","801 NW 13th St.","Fruitland","ID","83619","US","<MISSING>","(208) 519-4643","<MISSING>","44.0239819","-116.9245433","Monday 9:00 AM-5:00 PM Tuesday 9:00 AM-5:00 PM Wednesday 9:00 AM-5:00 PM Thursday 9:00 AM-5:00 PM Friday 9:00 AM-5:00 PM Saturday CLOSED Sunday CLOSED"
"hearinglife.com","https://www.hearinglife.com/hearing-aids-centers/North-Carolina/Fuquay-Varina","HearingLife – Hearing Aids:  Fuquay Varina, NC","512 Attain Court","Fuquay Varina","NC","27526","US","<MISSING>","(919) 762-3257","<MISSING>","35.5907347","-78.7826729","Monday 9:00 AM to 5:00 PM Tuesday 9:00 AM to 5:00 PM Wednesday 9:00 AM to 5:00 PM Thursday 9:00 AM to 5:00 PM Friday 9:00 AM to 5:00 PM Saturday (By Appointment) Sunday Closed"
"hearinglife.com","https://www.hearinglife.com/hearing-aids-centers/Alabama/Gadsden","HearingLife – Hearing Aids:  Gadsden, AL","510 S 3rd St.","Gadsden","AL","35901","US","<MISSING>","(256) 399-4060","<MISSING>","34.0059306","-86.0038254","Monday 8:30 AM-4:00 PM Tuesday 8:30 AM-4:00 PM Wednesday 8:30 AM-4:00 PM Thursday 8:30 AM-4:00 PM Friday 8:30 AM-4:00 PM Saturday CLOSED Sunday CLOSED"
"hearinglife.com","https://www.hearinglife.com/hearing-aids-centers/Georgia/Gainesville","HearingLife – Hearing Aids: Gainesville, GA","333 Jesse Jewell Parkway","Gainesville","GA","30501","US","<MISSING>","(770) 769-1805","<MISSING>","34.2965153","-83.8270606","Monday 9:00 AM-5:00 PM Tuesday 9:00 AM-5:00 PM Wednesday 9:00 AM-5:00 PM Thursday 9:00 AM-5:00 PM Friday 9:00 AM-5:00 PM Saturday CLOSED Sunday CLOSED"
"hearinglife.com","<INACCESSIBLE>","HearingLife:  Gainesville, GA","601 Broad St. SE Suite A","Gainesville","GA","30501","US","<MISSING>","(678) 865-4360","<MISSING>","<INACCESSIBLE>","<INACCESSIBLE>","<INACCESSIBLE>"
"hearinglife.com","https://www.hearinglife.com/hearing-aids-centers/North-Carolina/Garner","HearingLife – Hearing Aids:  Garner, NC","135 US Highway 70 West","Garner","NC","27529","US","<MISSING>","(919) 760-6834","<MISSING>","36.081212","-79.1808276","Monday 9:00 AM to 4:30PM Tuesday 9:00 AM to 4:30PM Wednesday 9:00 AM to 4:30PM Thursday By Appointment Friday 9:00 AM to 4:30PM Saturday Closed Sunday Closed"
"hearinglife.com","https://www.hearinglife.com/hearing-aids-centers/North-Carolina/Gastonia","HearingLife:  Gastonia, NC","162 S. South Street Suite 102","Gastonia","NC","28052","US","<MISSING>","(704) 271-4631","<MISSING>","35.2628589","-81.1836468","Monday CLOSED Tuesday 9:00 AM to 5:00 PM Wednesday 9:00 AM to 5:00 PM Thursday CLOSED Friday 9:00 AM to 5:00 PM Saturday CLOSED Sunday CLOSED"
"hearinglife.com","https://www.hearinglife.com/hearing-aids-centers/Michigan/Gladwin","HearingLife:  Gladwin, MI","300-2W. Cedar Ave.","Gladwin","MI","48624","US","<MISSING>","(989) 359-3254","<MISSING>","43.9810526","-84.4894381","Monday By Appointment Tuesday CLOSED Wednesday 8:00 AM to 4:00 PM Thursday CLOSED Friday CLOSED Saturday CLOSED Sunday CLOSED"
"hearinglife.com","https://www.hearinglife.com/hearing-aids-centers/Minnesota/Glencoe","HearingLife – Hearing Aids:  Glencoe, MN","1130 Hennepin Avenue North","Glencoe","MN","55336","US","<MISSING>","(320) 332-0255","<MISSING>","44.7709031","-94.1515936","Monday CLOSED Tuesday 8:30am – 5:00pm Wednesday CLOSED Thursday CLOSED Friday 8:30am – 5:00pm Saturday CLOSED Sunday CLOSED"
"hearinglife.com","https://www.hearinglife.com/hearing-aids-centers/Arizona/Glendale","HearingLife – Hearing Aids:  Glendale, AZ","5757 W. Thunderbird Road Suite E156","Glendale","AZ","85306","US","<MISSING>","(480) 648-0524","<MISSING>","33.609487","-112.1829811","Monday 9:00 AM to 5:00 PM Tuesday 9:00 AM to 5:00 PM Wednesday 9:00 AM to 5:00 PM Thursday 9:00 AM to 5:00 PM Friday 9:00 AM to 5:00 PM Saturday Closed Sunday Closed"
"hearinglife.com","https://www.hearinglife.com/hearing-aids-centers/Illinois/Glenview","HearingLife:  Glenview, IL","2300 Lehigh Avenue Suite 140","Glenview","IL","60026","US","<MISSING>","(847) 999-4863","<MISSING>","42.0969636","-87.8166699","Monday 9:00 AM to 5:00 PM Tuesday CLOSED Wednesday 9:00 AM to 5:00 PM Thursday CLOSED Friday 9:00 AM to 5:00 PM Saturday CLOSED Sunday CLOSED"
"hearinglife.com","https://www.hearinglife.com/hearing-aids-centers/Minnesota/Glenwood","HearingLife:  Glenwood, MN","12 6th Ave. NE Suite 103","Glenwood","MN","56334","US","<MISSING>","(320) 262-8091","<MISSING>","45.669898","-95.3868725","Monday 9:00 AM to 5:00 PM Tuesday 9:00 AM to 5:00 PM Wednesday 9:00 AM to 5:00 PM Thursday 9:00 AM to 5:00 PM Friday 9:00 AM to 5:00 PM Saturday CLOSED Sunday CLOSED"
"hearinglife.com","https://www.hearinglife.com/hearing-aids-centers/North-Carolina/Goldsboro","HearingLife – Hearing Aids:  Goldsboro, NC","1506 Wayne Memorial Drive Suite E","Goldsboro","NC","27534","US","<MISSING>","(919) 648-0392","<MISSING>","35.3927996","-77.9736419","Monday 9:00 AM to 5:00 PM Tuesday 9:00 AM to 5:00 PM Wednesday 9:00 AM to 5:00 PM Thursday 9:00 AM to 5:00 PM Friday 9:00 AM to 5:00 PM Saturday Closed Sunday Closed"
"hearinglife.com","<INACCESSIBLE>","HearingLife – Hearing Aids:  Grand Rapids, MI - 54th St. SW","89 54th St. SW","Grand Rapids","MI","49548","US","<MISSING>","(616) 723-8457","<MISSING>","<INACCESSIBLE>","<INACCESSIBLE>","<INACCESSIBLE>"
"hearinglife.com","<INACCESSIBLE>","HearingLife – Hearing Aids: Grand Rapids, MI - Plainfield Ave. NE","4196 Plainfield Ave. NE","Grand Rapids","MI","49525","US","<MISSING>","(616) 723-8450","<MISSING>","<INACCESSIBLE>","<INACCESSIBLE>","<INACCESSIBLE>"
"hearinglife.com","https://www.hearinglife.com/hearing-aids-centers/Michigan/Grand-Rapids","HearingLife – Hearing Aids:  Grand Rapids, MI - 28th St. SE","6140 28th St. Southeast Suite 205","Grand Rapids","MI","49546","US","<MISSING>","(616) 552-8429","<MISSING>","42.9122766","-85.5161582","Monday 9:00 AM-5:00 PM Tuesday 9:00 AM-5:00 PM Wednesday 9:00 AM-5:00 PM Thursday 9:00 AM-5:00 PM Friday 9:00 AM-5:00 PM Saturday BY APPT. Sunday CLOSED"
"hearinglife.com","https://www.hearinglife.com/hearing-aids-centers/Michigan/Grandville","HearingLife – Hearing Aids:  Grandville, MI","4095 Chicago Dr. Southwest","Grandville","MI","49418","US","<MISSING>","(616) 552-8396","<MISSING>","42.9092924","-85.7653429","Monday 9:00 AM-5:00 PM Tuesday 9:00 AM-5:00 PM Wednesday 9:00 AM-5:00 PM Thursday CLOSED Friday 9:00 AM-5:00 PM Saturday BY APPT. Sunday CLOSED"
"hearinglife.com","https://www.hearinglife.com/hearing-aids-centers/Kansas/Great-Bend","HearingLife – Hearing Aids: Great Bend, KS","1925 Main St.","Great Bend","KS","67530","US","<MISSING>","620-603-5199","<MISSING>","38.3717231","-98.7656278","Monday 9:00 AM-5:00 PM Tuesday 9:00 AM-5:00 PM Wednesday 9:00 AM-5:00 PM Thursday 9:00 AM-5:00 PM Friday 9:00 AM-5:00 PM Saturday CLOSED Sunday CLOSED"
"hearinglife.com","https://www.hearinglife.com/hearing-aids-centers/Montana/Great-Falls","HearingLife – Hearing Aids:  Great Falls, MT","1102 Ninth St. South","Great Falls","MT","59405","US","<MISSING>","(406) 564-1038","<MISSING>","47.4930715","-111.2932398","Monday 9:00 AM to 5:00 PM Tuesday 9:00 AM to 5:00 PM Wednesday 9:00 AM to 5:00 PM Thursday 9:00 AM to 5:00 PM Friday 9:00 AM to 5:00 PM Saturday CLOSED Sunday CLOSED"
"hearinglife.com","https://www.hearinglife.com/hearing-aids-centers/New-York/Great-Neck","HearingLife – Hearing Aids:  Great Neck, NY","1010 Northern Boulevard Suite 318","Great Neck","NY","11021","US","<MISSING>","877-207-8915","<MISSING>","40.7849337","-73.7072377","Monday 9:00 AM - 5:00 PM Tuesday 9:00 AM - 5:00 PM Wednesday 9:00 AM - 5:00 PM Thursday 10:00 AM to 6:00 PM Friday 9:00 AM - 3:00 PM Saturday Closed Sunday Closed"
"hearinglife.com","https://www.hearinglife.com/hearing-aids-centers/Colorado/Greeley","HearingLife – Hearing Aids:  Greeley, CO","4675 West 20th Street Road Unit A","Greeley","CO","80634","US","<MISSING>","(970) 475-6287","<MISSING>","40.412704","-104.755903","Monday 8:30 AM to 5:00 PM Tuesday 8:30 AM to 5:00 PM Wednesday 8:30 AM to 5:00 PM Thursday 8:30 AM to 5:00 PM Friday 8:30 AM to 5:00 PM Saturday CLOSED Sunday CLOSED"
"hearinglife.com","https://www.hearinglife.com/hearing-aids-centers/Wisconsin/Green-Bay","HearingLife – Hearing Aids:  Green Bay, WI","550 N. Military Ave. Suite 4A","Green Bay","WI","54303","US","<MISSING>","(920) 593-9093","<MISSING>","44.5352772","-88.0550907","Monday 9:00 AM to 5:00 PM Tuesday 9:00 AM to 5:00 PM Wednesday 9:00 AM to 5:00 PM Thursday 9:00 AM to 5:00 PM Friday 9:00 AM to 5:00 PM Saturday Closed Sunday Closed"
"hearinglife.com","https://www.hearinglife.com/hearing-aids-centers/Wisconsin/Greendale","HearingLife – Hearing Aids:  Greendale, WI","5411 S. 76th St.","Greendale","WI","53129","US","<MISSING>","(414) 386-8690","<MISSING>","42.9469458","-88.0100726","Monday 9:00 AM to 5:00 PM Tuesday 9:00 AM to 5:00 PM Wednesday 9:00 AM to 5:00 PM Thursday 9:00 AM to 5:00 PM Friday 9:00 AM to 5:00 PM Saturday Closed Sunday Closed"
"hearinglife.com","https://www.hearinglife.com/hearing-aids-centers/Wisconsin/Greenfield","HearingLife:  Greenfield, WI","4860 South 74th Street Suite A-02","Greenfield","WI","53220","US","<MISSING>","(414) 219-1526","<MISSING>","42.9558694","-88.0057489","Monday 9:00 AM to 5:00 PM Tuesday 9:00 AM to 5:00 PM Wednesday 9:00 AM to 5:00 PM Thursday 9:00 AM to 5:00 PM Friday 9:00 AM to 5:00 PM Saturday CLOSED Sunday CLOSED"
"hearinglife.com","<INACCESSIBLE>","HearingLife:  Greensboro, NC","1500 Mill Street Suite 103","Greensboro","NC","27408","US","<MISSING>","(336) 740-9897","<MISSING>","<INACCESSIBLE>","<INACCESSIBLE>","<INACCESSIBLE>"
"hearinglife.com","https://www.hearinglife.com/hearing-aids-centers/North-Carolina/Greensboro","HearingLife – Hearing Aids:  Greensboro, NC","100 East Northwood St.","Greensboro","NC","27401","US","<MISSING>","(336) 542-5435","<MISSING>","36.0894608","-79.7886521","Monday 8:00 AM-5:00 PM Tuesday 8:00 AM-5:00 PM Wednesday 8:00 AM-5:00 PM Thursday 8:00 AM-5:00 PM Friday 8:00 AM-5:00 PM Saturday CLOSED Sunday CLOSED"
"hearinglife.com","https://www.hearinglife.com/hearing-aids-centers/Pennsylvania/Greensburg","HearingLife:  Greensburg, PA","432 East Pittsburgh St. Suite 16","Greensburg","PA","15601","US","<MISSING>","(724) 972-0341","<MISSING>","40.3029176","-79.5351737","Monday CLOSED Tuesday 9:00 AM to 5:00 PM Wednesday CLOSED Thursday 9:00 AM to 5:00 PM Friday CLOSED Saturday CLOSED Sunday CLOSED"
"hearinglife.com","<INACCESSIBLE>","HearingLife – Hearing Aids:  Greenville, MI","919 W. Washington St.","Greenville","MI","48838","US","<MISSING>","(616) 548-6234","<MISSING>","<INACCESSIBLE>","<INACCESSIBLE>","<INACCESSIBLE>"
"hearinglife.com","<INACCESSIBLE>","HearingLife – Hearing Aids:  Greenville, SC","210 W Stone Avenue","Greenville","SC","29609","US","<MISSING>","(864) 214-3392","<MISSING>","<INACCESSIBLE>","<INACCESSIBLE>","<INACCESSIBLE>"
"hearinglife.com","https://www.hearinglife.com/hearing-aids-centers/South-Carolina/Greenville","HearingLife:  Greenville, SC","101 Verdae Blvd. Suite 100","Greenville","SC","29607","US","<MISSING>","(864) 551-2326","<MISSING>","34.8208147","-82.3395011","Monday 9:00 AM to 5:00 PM Tuesday 9:00 AM to 5:00 PM Wednesday 9:00 AM to 5:00 PM Thursday 9:00 AM to 5:00 PM Friday 9:00 AM to 5:00 PM Saturday CLOSED Sunday CLOSED"
"hearinglife.com","https://www.hearinglife.com/hearing-aids-centers/North-Carolina/Greenville","HearingLife – Hearing Aids:  Greenville, NC","1970 W. Arlington Boulevard Suite B-1","Greenville","NC","27834","US","<MISSING>","(252) 558-1526","<MISSING>","35.6001954","-77.40847","Monday 9:00 AM to 4:30 PM Tuesday 9:00 AM to 4:30 PM Wednesday 9:00 AM to 4:30 PM Thursday 9:00 AM to 4:30 PM Friday 9:00 AM to 4:30 PM Saturday Closed Sunday Closed"
"hearinglife.com","https://www.hearinglife.com/hearing-aids-centers/Indiana/Greenwood","HearingLife:  Greenwood, IN","997 East County Line Road","Greenwood","IN","46143","US","<MISSING>","(317) 884-8605","<MISSING>","39.6349639","-86.0847357","Monday 9:00 AM to 5:00 PM Tuesday 9:00 AM to 5:00 PM Wednesday 9:00 AM to 5:00 PM Thursday 9:00 AM to 5:00 PM Friday 9:00 AM to 5:00 PM Saturday CLOSED Sunday CLOSED"
"hearinglife.com","https://www.hearinglife.com/hearing-aids-centers/Ohio/Grove City","HearingLife:  Grove City, OH","5917 Hoover Rd.","Grove City","OH","43123","US","<MISSING>","(614) 808-4637","<MISSING>","39.8421606","-83.0740025","Monday CLOSED Tuesday 8:30 AM to 5:00 PM Wednesday CLOSED Thursday 8:30 AM to 5:00 PM Friday CLOSED Saturday CLOSED Sunday CLOSED"
"hearinglife.com","https://www.hearinglife.com/hearing-aids-centers/Ohio/Grove City Stringtown","HearingLife – Hearing Aids:  Grove City, OH","2169 Stringtown Road","Grove City Stringtown","OH","43123","US","<MISSING>","(614) 808-4845","<MISSING>","39.8767254","-83.0609499","Monday 9:00 AM - 5:00 PM Tuesday 9:00 AM - 5:00 PM Wednesday 9:00 AM - 5:00 PM Thursday 9:00 AM - 5:00 PM Friday 9:00 AM - 5:00 PM Saturday CLOSED Sunday CLOSED"
"hearinglife.com","https://www.hearinglife.com/hearing-aids-centers/Illinois/Gurnee","HearingLife:  Gurnee, IL","501 N. IL Route 21 Suite 109","Gurnee","IL","60031","US","<MISSING>","(847) 786-2854","<MISSING>","42.3681363","-87.9240403","Monday 9:00 AM to 5:00 PM Tuesday 9:00 AM to 5:00 PM Wednesday 9:00 AM to 5:00 PM Thursday 9:00 AM to 5:00 PM Friday 1:00 PM to 4:30 PM Saturday CLOSED Sunday CLOSED"
"hearinglife.com","https://www.hearinglife.com/hearing-aids-centers/New-Jersey/Hackettstown","HearingLife – Hearing Aids: Hackettstown, NJ","174 Mountain Ave. Suite 3","Hackettstown","NJ","07840","US","<MISSING>","(908) 441-7391","<MISSING>","40.8430617","-74.824531","Monday 10:00 AM-6:00 PM Tuesday 8:00 AM-4:00 PM Wednesday 9:00 AM-5:00 PM Thursday 8:00 AM-4:00 PM Friday Closed Saturday CLOSED Sunday CLOSED"
"hearinglife.com","https://www.hearinglife.com/hearing-aids-centers/Idaho/Hailey","HearingLife – Hearing Aids:  Hailey, ID","221 S. River St. Suite 1B","Hailey","ID","83333","US","<MISSING>","(208) 806-0006","<MISSING>","43.5174877","-114.3156973","Monday 8:00 AM - 4:00 PM Tuesday 8:00 AM - 4:00 PM Wednesday 8:00 AM - 4:00 PM Thursday 8:00 AM - 4:00 PM Friday 8:00 AM - 4:00 PM Saturday Closed Sunday Closed"
"hearinglife.com","https://www.hearinglife.com/hearing-aids-centers/North-Carolina/Hampstead","HearingLife – Hearing Aids:  Hampstead, NC","14874 US Highway 17","Hampstead","NC","28443","US","<MISSING>","(910) 319-4073","<MISSING>","34.3689697","-77.7082219","Monday 9:00 AM to 5:00 PM Tuesday 9:00 AM to 5:00 PM Wednesday 9:00 AM to 5:00 PM Thursday 9:00 AM to 5:00 PM Friday 9:00 AM to 5:00 PM Saturday Closed Sunday Closed"
"hearinglife.com","https://www.hearinglife.com/hearing-aids-centers/Virginia/Hampton","HearingLife – Hearing Aids:  Hampton, VA","1507 Hardy Cash Drive","Hampton","VA","23666","US","<MISSING>","(757) 637-4277","<MISSING>","37.0559148","-76.3997331","Monday 9:00 AM to 5:00 PM Tuesday 9:00 AM to 5:00 PM Wednesday 9:00 AM to 5:00 PM Thursday 9:00 AM to 5:00 PM Friday 9:00 AM to 5:00 PM Saturday Closed Sunday Closed"
"hearinglife.com","https://www.hearinglife.com/hearing-aids-centers/Virginia/Harrisonburg","HearingLife – Hearing Aids: Harrisonburg, VA","1951 Evelyn Byrd Ave. Suite F","Harrisonburg","VA","22801","US","<MISSING>","(540) 908-2606","<MISSING>","38.4281452","-78.8483328","Monday 9:00 AM-5:00 PM Tuesday 9:00 AM-5:00 PM Wednesday 9:00 AM-5:00 PM Thursday 9:00 AM-5:00 PM Friday 9:00 AM-5:00 PM Saturday CLOSED Sunday CLOSED"
"hearinglife.com","https://www.hearinglife.com/hearing-aids-centers/Wisconsin/Hartford","HearingLife – Hearing Aids:  Hartford, WI","19 Lone Oak Lane","Hartford","WI","53027","US","<MISSING>","(262) 457-4556","<MISSING>","43.3187011","-88.3548099","Monday 8:30 AM to 5:00 PM Tuesday 8:30 AM to 5:00 PM Wednesday 8:30 AM to 5:00 PM Thursday 8:30 AM to 5:00 PM Friday 8:30 AM to 5:00 PM Saturday Closed Sunday Closed"
"hearinglife.com","https://www.hearinglife.com/hearing-aids-centers/Minnesota/Hastings","HearingLife – Hearing Aids:  Hastings, MN","107 West 12th Street","Hastings","MN","55033","US","<MISSING>","(651) 964-4865","<MISSING>","44.7337261","-92.8535593","Monday CLOSED Tuesday 9:00 AM to 5:00 PM Wednesday 9:00 AM to 5:00 PM Thursday 9:00 AM to 5:00 PM Friday CLOSED Saturday CLOSED Sunday CLOSED"
"hearinglife.com","https://www.hearinglife.com/hearing-aids-centers/Massachusetts/Hatfield","HearingLife – Hearing Aids: Hatfield, MA","10 West St. 3WN","Hatfield","MA","01038","US","<MISSING>","(413) 349-4060","<MISSING>","42.3673962","-72.6357211","Monday 9:00 AM to 5:00 PM Tuesday 9:00 AM to 5:00 PM Wednesday By Appointment Thursday 9:00 AM to 5:00 PM Friday 9:00 AM to 5:00 PM Evening: By Appointment Saturday By Appointment Sunday Closed"
"hearinglife.com","https://www.hearinglife.com/hearing-aids-centers/Massachusetts/Haverhill","HearingLife – Hearing Aids: Haverhill, MA","62 Brown Street","Haverhill","MA","01830","US","<MISSING>","978-420-4629","<MISSING>","42.7652403","-71.0450821","Monday 8:30 AM-4:30 PM Tuesday 8:30 AM-4:30 PM Wednesday 8:30 AM-4:30 PM Thursday 8:30 AM-4:30 PM Friday 8:30 AM-4:30 PM Saturday CLOSED Sunday CLOSED"
"hearinglife.com","https://www.hearinglife.com/hearing-aids-centers/Wisconsin/Hayward","HearingLife:  Hayward, WI","10541 North Ranch Road","Hayward","WI","54843","US","<MISSING>","(715) 403-5552","<MISSING>","46.0142622","-91.468001","Monday By Appointment Tuesday 9:00 AM to 3:00 PM Wednesday By Appointment Thursday By Appointment Friday By Appointment Saturday CLOSED Sunday CLOSED"
"hearinglife.com","https://www.hearinglife.com/hearing-aids-centers/Texas/Henderson","HearingLife – Hearing Aids: Henderson, TX","2006 Jacksonville Dr. Suite 2","Henderson","TX","75654","US","<MISSING>","(903) 884-0780","<MISSING>","32.1310188","-94.8083489","Monday 9:00 AM-5:00 PM Tuesday 9:00 AM-5:00 PM Wednesday 9:00 AM-5:00 PM Thursday 9:00 AM-5:00 PM Friday 9:00 AM-5:00 PM Saturday CLOSED Sunday CLOSED"
"hearinglife.com","https://www.hearinglife.com/hearing-aids-centers/North-Carolina/Henderson","HearingLife – Hearing Aids:  Henderson, NC","1775-106 Graham Ave.","Henderson","NC","27536","US","<MISSING>","(252) 915-3167","<MISSING>","36.3248035","-78.4485035","Monday 9:00 AM to 5:00 PM Tuesday 9:00 AM to 5:00 PM Wednesday 9:00 AM to 5:00 PM Thursday 9:00 AM to 5:00 PM Friday 9:00 AM to 4:00 PM Saturday Closed Sunday Closed"
"hearinglife.com","https://www.hearinglife.com/hearing-aids-centers/Tennessee/Hendersonville","Summit Audiology, A HearingLife Company, Hendersonville, TN","102 Glen Oak Blvd. Suite A 60","Hendersonville","TN","37075","US","<MISSING>","(615) 338-5119","<MISSING>","36.323465","-86.619025","Monday By Appointment Tuesday 9:00 AM to 5:00 PM Wednesday 9:00 AM to 5:00 PM Thursday By Appointment Friday 9:00 AM to 5:00 PM Saturday CLOSED Sunday CLOSED"
"hearinglife.com","https://www.hearinglife.com/hearing-aids-centers/North-Carolina/Hendersonville","HearingLife:  Hendersonville, NC","902 Fleming St.Suite B","Hendersonville","NC","28791","US","<MISSING>","(828) 513-2911","<MISSING>","35.3228438","-82.4658408","Monday By Appointment Tuesday 9:00 AM to 5:00 PM Wednesday 9:00 AM to 5:00 PM Thursday 9:00 AM to 5:00 PM Friday By Appointment Saturday CLOSED Sunday CLOSED"
"hearinglife.com","https://www.hearinglife.com/hearing-aids-centers/Tennessee/Hermitage","Summit Audiology, A HearingLife Company, Hermitage, TN","3901 Central Pike Suite 355","Hermitage","TN","37076","US","<MISSING>","(615) 283-4740","<MISSING>","36.1753512","-86.6044861","Monday 9:00 AM to 5:00 PM Tuesday 9:00 AM to 5:00 PM Wednesday 9:00 AM to 5:00 PM Thursday 9:00 AM to 5:00 PM Friday 9:00 AM to 5:00 PM Saturday CLOSED Sunday CLOSED"
"hearinglife.com","https://www.hearinglife.com/hearing-aids-centers/North-Carolina/Hickory","HearingLife:  Hickory, NC","1071 13th Street SE","Hickory","NC","28602","US","<MISSING>","(828) 358-3860","<MISSING>","35.719442","-81.3125631","Monday 9:00 AM to 5:00 PM Tuesday 9:00 AM to 5:00 PM Wednesday 9:00 AM to 5:00 PM Thursday 9:00 AM to 5:00 PM Friday 9:00 AM to 5:00 PM Saturday CLOSED Sunday CLOSED"
"hearinglife.com","https://www.hearinglife.com/hearing-aids-centers/North-Carolina/High Point","HearingLife:  High Point, NC","2762 NC-68 Suite 105","High Point","NC","27265","US","<MISSING>","(336) 802-1209","<MISSING>","36.0423972","-79.9632944","Monday 9:00 AM to 5:00 PM Tuesday 9:00 AM to 5:00 PM Wednesday 9:00 AM to 5:00 PM Thursday 9:00 AM to 5:00 PM Friday 9:00 AM to 5:00 PM Saturday CLOSED Sunday CLOSED"
"hearinglife.com","https://www.hearinglife.com/hearing-aids-centers/Indiana/Highland","HearingLife:  Highland, IN","2148 45th Street","Highland","IN","46322","US","<MISSING>","(219) 227-4001","<MISSING>","41.537191","-87.4769942","Monday 8:30 AM to 5:00 PM Tuesday 8:30 AM to 5:00 PM Wednesday 10:00 AM to 7:00 PM Thursday 9:00 AM to 5:00 PM Friday 8:30 AM to 5:00 PM Saturday CLOSED Sunday CLOSED"
"hearinglife.com","https://www.hearinglife.com/hearing-aids-centers/New-Jersey/Hillsborough","HearingLife – Hearing Aids: Hillsborough, NJ","311 Courtyard Dr.","Hillsborough","NJ","08844","US","<MISSING>","(908) 458-9063","<MISSING>","40.549659","-74.612729","Monday 9:00 AM-5:00 PM Tuesday 9:00 AM-5:00 PM Wednesday 9:00 AM-5:00 PM Thursday 9:00 AM-5:00 PM Friday 9:00 AM-5:00 PM Saturday CLOSED Sunday CLOSED"
"hearinglife.com","https://www.hearinglife.com/hearing-aids-centers/Illinois/Hinsdale","HearingLife:  Hinsdale, IL","15 Spinning Wheel Rd. Suite 318","Hinsdale","IL","60521","US","<MISSING>","(708) 260-8166","<MISSING>","41.8208778","-87.919001","Monday CLOSED Tuesday 9:00 AM to 5:00 PM Wednesday CLOSED Thursday 9:00 AM to 5:00 PM Friday CLOSED Saturday CLOSED Sunday CLOSED"
"hearinglife.com","https://www.hearinglife.com/hearing-aids-centers/Michigan/Holland","HearingLife – Hearing Aids:  Holland, MI","926 South Washington Ave. Building D","Holland","MI","49423","US","<MISSING>","(616) 298-3826","<MISSING>","42.7469472","-86.1157205","Monday 9:00 AM-5:00 PM Tuesday 9:00 AM-5:00 PM Wednesday 9:00 AM-5:00 PM Thursday 9:00 AM-5:00 PM Friday 9:00 AM-5:00 PM Saturday BY APPT. Sunday CLOSED"
"hearinglife.com","https://www.hearinglife.com/hearing-aids-centers/New-Jersey/Holmdel","HearingLife – Hearing Aids: Holmdel, NJ","100 Commons Way Suite 270","Holmdel","NJ","07733","US","<MISSING>","(732) 847-2095","<MISSING>","40.4125129","-74.1493088","Monday CLOSED Tuesday 9:00 AM-5:00 PM Wednesday 9:00 AM-5:00 PM Thursday 9:00 AM-5:00 PM Friday 9:00 AM-5:00 PM Saturday 9:00 AM-5:00 PM Sunday CLOSED"
"hearinglife.com","https://www.hearinglife.com/hearing-aids-centers/Minnesota/Hopkins","HearingLife – Hearing Aids:  Hopkins, MN","10417 Excelsior Boulevard Ste 2","Hopkins","MN","55343","US","<MISSING>","(952) 679-8666","<MISSING>","44.9206031","-93.4112524","Monday 8:30am – 5:00pm Tuesday 8:30am – 5:00pm Wednesday 8:30am – 5:00pm Thursday 8:30am – 5:00pm Friday 8:30am – 5:00pm Saturday CLOSED Sunday CLOSED"
"hearinglife.com","https://www.hearinglife.com/hearing-aids-centers/Wisconsin/Hudson","HearingLife – Hearing Aids:  Hudson, WI","2217 Vine St. Suite 205","Hudson","WI","54016","US","<MISSING>","(651) 964-4161","<MISSING>","44.9781449","-92.7268562","Monday 9:00 AM to 5:00 PM Tuesday Closed Wednesday Closed Thursday Closed Friday 9:00 AM to 5:00 PM Saturday Closed Sunday Closed"
"hearinglife.com","https://www.hearinglife.com/hearing-aids-centers/North-Carolina/Huntersville","HearingLife:  Huntersville, NC","13801 Reese Blvd. West Suite 320","Huntersville","NC","28078","US","<MISSING>","(704) 765-5459","<MISSING>","35.4016408","-80.8617352","Monday 9:00 AM to 5:00 PM Tuesday 9:00 AM to 5:00 PM Wednesday 9:00 AM to 5:00 PM Thursday 9:00 AM to 5:00 PM Friday 9:00 AM to 5:00 PM Saturday CLOSED Sunday CLOSED"
"hearinglife.com","https://www.hearinglife.com/hearing-aids-centers/Kansas/Hutchinson","HearingLife – Hearing Aids: Hutchinson, KS - North Main St.","2602 North Main St.","Hutchinson","KS","67502","US","<MISSING>","620-860-4001","<MISSING>","38.0823722","-97.9314777","Monday 9:00 AM-5:00 PM Tuesday 9:00 AM-5:00 PM Wednesday 9:00 AM-5:00 PM Thursday 9:00 AM-5:00 PM Friday 9:00 AM-5:00 PM Saturday CLOSED Sunday CLOSED"
"hearinglife.com","<INACCESSIBLE>","HearingLife – Hearing Aids: Hutchinson, KS - North Waldron St.","2020 N. Waldron St. Suite 115","Hutchinson","KS","67502","US","<MISSING>","(620) 860-4131","<MISSING>","<INACCESSIBLE>","<INACCESSIBLE>","<INACCESSIBLE>"
"hearinglife.com","<INACCESSIBLE>","HearingLife – Hearing Aids:  Idaho Falls 17th St, ID","1970 E. 17th St. Suite 119","Idaho Falls","ID","83404","US","<MISSING>","(208) 881-9837","<MISSING>","<INACCESSIBLE>","<INACCESSIBLE>","<INACCESSIBLE>"
"hearinglife.com","<INACCESSIBLE>","Regional Hearing & Balance Center, A HearingLife Company: Idaho Falls, ID","3345 Merlin Drive Suite 200","Idaho Falls","ID","83404","US","<MISSING>","(208) 357-4767","<MISSING>","<INACCESSIBLE>","<INACCESSIBLE>","<INACCESSIBLE>"
"hearinglife.com","https://www.hearinglife.com/hearing-aids-centers/Michigan/Imlay-City","HearingLife – Hearing Aids:  Imlay City, MI","2046 South Cedar St.","Imlay City","MI","48444","US","<MISSING>","(810) 272-9122","<MISSING>","43.0056881","-83.0732792","Monday Closed Tuesday Closed Wednesday 9:00 AM to 5:00 PM Thursday Closed Friday 9:00 AM to 5:00 PM Saturday By Appt. Sunday Closed"
"hearinglife.com","<INACCESSIBLE>","HearingLife:  Indianapolis, IN - East 96th St.","6905 East 96th Street Suite 700","Indianapolis","IN","46250","US","<MISSING>","(317) 348-2536","<MISSING>","<INACCESSIBLE>","<INACCESSIBLE>","<INACCESSIBLE>"
"hearinglife.com","https://www.hearinglife.com/hearing-aids-centers/Indiana/Indianapolis","HearingLife:  Indianapolis, IN - North Post Rd.","1523 North Post Road","Indianapolis","IN","46219","US","<MISSING>","(317) 899-9374","<MISSING>","39.7882244","-86.00845","Monday 9:00 AM to 5:00 PM Tuesday 9:00 AM to 5:00 PM Wednesday CLOSED Thursday 9:00 AM to 5:00 PM Friday CLOSED Saturday CLOSED Sunday CLOSED"
"hearinglife.com","https://www.hearinglife.com/hearing-aids-centers/Iowa/Indianola","HearingLife:  Indianola, IA","220 W. Salem Ave.","Indianola","IA","50125","US","<MISSING>","(515) 381-6245","<MISSING>","41.3606089","-93.5632849","Monday CLOSED Tuesday 9:00 AM to 5:00 PM Wednesday CLOSED Thursday CLOSED Friday 9:00 AM to 5:00 PM Saturday CLOSED Sunday CLOSED"
"hearinglife.com","<INACCESSIBLE>","HearingLife – Hearing Aids:  Inver Grove Heights, MN","5972 Cahill Avenue East","Inver Grove Hts.","MN","55076","US","<MISSING>","(651) 964-3989","<MISSING>","<INACCESSIBLE>","<INACCESSIBLE>","<INACCESSIBLE>"
"hearinglife.com","https://www.hearinglife.com/hearing-aids-centers/Michigan/Jackson","HearingLife – Hearing Aids:  Jackson, MI","824 North Wisner St.","Jackson","MI","49202","US","<MISSING>","(517) 879-2238","<MISSING>","42.2577138","-84.4287018","Monday 9:00 AM-5:00 PM Tuesday 9:00 AM-5:00 PM Wednesday 9:00 AM-5:00 PM Thursday 9:00 AM-5:00 PM Friday 9:00 AM-5:00 PM Saturday BY APPT. Sunday CLOSED"
"hearinglife.com","https://www.hearinglife.com/hearing-aids-centers/Florida/Jacksonville","HearingLife – Hearing Aids:  Jacksonville, FL","2051 Art Museum Dr. Suite 130","Jacksonville","FL","32207","US","<MISSING>","(904) 302-5722","<MISSING>","30.3025274","-81.6150687","Monday 8:00 AM-5:00 PM Tuesday 8:00 AM-5:00 PM Wednesday 8:00 AM-5:00 PM Thursday 8:00 AM-5:00 PM Friday 8:00 AM-5:00 PM Saturday CLOSED Sunday CLOSED"
"hearinglife.com","https://www.hearinglife.com/hearing-aids-centers/North-Carolina/Jacksonville","HearingLife – Hearing Aids:  Jacksonville, NC","3792 Henderson Drive","Jacksonville","NC","28546","US","<MISSING>","(910) 459-4190","<MISSING>","34.7934783","-77.4144671","Monday 9:00 AM to 5:00 PM Tuesday 9:00 AM to 5:00 PM Wednesday 9:00 AM to 5:00 PM Thursday 9:00 AM to 5:00 PM Friday 9:00 AM to 5:00 PM Saturday By Appointment Sunday Closed"
"hearinglife.com","https://www.hearinglife.com/hearing-aids-centers/Florida/Jacksonville-Beach","HearingLife – Hearing Aids:  Jacksonville Beach, FL","640 3rd St. North Suite 1","Jacksonville Beach","FL","32250","US","<MISSING>","(904) 746-4411","<MISSING>","30.2943855","-81.3933937","Monday 8:00 AM-5:00 PM Tuesday 8:00 AM-5:00 PM Wednesday 8:00 AM-5:00 PM Thursday 8:00 AM-5:00 PM Friday 8:00 AM-5:00 PM Saturday CLOSED Sunday CLOSED"
"hearinglife.com","https://www.hearinglife.com/hearing-aids-centers/New-York/Jericho","HearingLife – Hearing Aids:  Jericho, NY","366 N. Broadway Suite 403","Jericho","NY","11753","US","<MISSING>","(516) 336-4637","<MISSING>","40.7818283","-73.5329551","Monday 8:00 AM - 5:00 PM Tuesday 9:00 AM to 6:00 PM Wednesday 9:00 AM to 5:00 PM Thursday 9:00 AM to 6:00 PM Friday 9:00 AM to 5:00 PM Saturday Closed Sunday Closed"
