"city","country_code","hours_of_operation","latitude","location_name","location_type","locator_domain","longitude","page_url","phone","state","store_number","street_address","zip"
"Spartanburg","United States","monday: 9:00 AM-6:00 PM; tuesday: 9:00 AM-6:00 PM; wednesday: 9:00 AM-6:00 PM; thursday: 9:00 AM-6:00 PM; friday: 9:00 AM-6:00 PM; saturday: 9:00 AM-12:00 PM; sunday: False-False","34.936794","Spartanburg West","BranchId: 238","https://www.loansbyworld.com/","-81.981179","https://www.loansbyworld.com/locations/spartanburg-west/","8647544344","SC","18329","2500 Winchester Place,  Suite 106","29301"
"Spartanburg","United States","monday: 9:00 AM-6:00 PM; tuesday: 9:00 AM-6:00 PM; wednesday: 9:00 AM-6:00 PM; thursday: 9:00 AM-6:00 PM; friday: 9:00 AM-6:00 PM; saturday: 9:00 AM-12:00 PM; sunday: False-False","34.956496","Spartanburg","BranchId: 347","https://www.loansbyworld.com/","-81.93619","https://www.loansbyworld.com/locations/spartanburg-2/","8645850168","SC","19316","544 North Church Street,  Suite A & B","29303"
"Spartanburg","United States","monday: 9:00 AM-6:00 PM; tuesday: 9:00 AM-6:00 PM; wednesday: 9:00 AM-6:00 PM; thursday: 9:00 AM-6:00 PM; friday: 9:00 AM-6:00 PM; saturday: 9:00 AM-12:00 PM; sunday: False-False","34.950981","Spartanburg","BranchId: 300","https://www.loansbyworld.com/","-81.918582","https://www.loansbyworld.com/locations/spartanburg/","8645853461","SC","19337","159 South Pine Street,  Suite C","29302"
"Inman","United States","monday: 9:00 AM-6:00 PM; tuesday: 9:00 AM-6:00 PM; wednesday: 9:00 AM-6:00 PM; thursday: 9:00 AM-6:00 PM; friday: 9:00 AM-6:00 PM; saturday: 9:00 AM-12:00 PM; sunday: False-False","35.047929","Inman","BranchId: 389","https://www.loansbyworld.com/","-82.090613","https://www.loansbyworld.com/locations/inman/","8644730727","SC","19292","1 North Main Street","29349"
"Greer","United States","monday: 9:00 AM-6:00 PM; tuesday: 9:00 AM-6:00 PM; wednesday: 9:00 AM-6:00 PM; thursday: 9:00 AM-6:00 PM; friday: 9:00 AM-6:00 PM; saturday: 9:00 AM-12:00 PM; sunday: False-False","34.948016","Greer","BranchId: 270","https://www.loansbyworld.com/","-82.231976","https://www.loansbyworld.com/locations/greer/","8648776412","SC","19338","215 West Wade Hampton Boulevard,  Suite N","29650"
"Woodruff","United States","monday: 9:00 AM-6:00 PM; tuesday: 9:00 AM-6:00 PM; wednesday: 9:00 AM-6:00 PM; thursday: 9:00 AM-6:00 PM; friday: 9:00 AM-6:00 PM; saturday: 9:00 AM-12:00 PM; sunday: False-False","34.74002","Woodruff","BranchId: 330","https://www.loansbyworld.com/","-82.037712","https://www.loansbyworld.com/locations/woodruff/","8644768166","SC","19333","10195 Hwy 221 Suite 2","29388"
"Greer","United States","monday: 9:00 AM-6:00 PM; tuesday: 9:00 AM-6:00 PM; wednesday: 9:00 AM-6:00 PM; thursday: 9:00 AM-6:00 PM; friday: 9:00 AM-6:00 PM; saturday: 9:00 AM-12:00 PM; sunday: False-False","34.94227","Greer","BranchId: 248","https://www.loansbyworld.com/","-82.251752","https://www.loansbyworld.com/locations/greer-2/","864-874-7012","SC","18264","1309 W Poinsett St Ste A","29650-1251"
"Chesnee","United States","monday: 9:00 AM-6:00 PM; tuesday: 9:00 AM-6:00 PM; wednesday: 9:00 AM-6:00 PM; thursday: 9:00 AM-6:00 PM; friday: 9:00 AM-6:00 PM; saturday: 9:00 AM-12:00 PM; sunday: False-False","35.142508","Chesnee","BranchId: 374","https://www.loansbyworld.com/","-81.860498","https://www.loansbyworld.com/locations/chesnee/","8643107027","SC","19302","508 S. Alabama Avenue","29323"
"Greenville","United States","monday: 9:00 AM-6:00 PM; tuesday: 9:00 AM-6:00 PM; wednesday: 9:00 AM-6:00 PM; thursday: 9:00 AM-6:00 PM; friday: 9:00 AM-6:00 PM; saturday: 9:00 AM-12:00 PM; sunday: False-False","34.818992","Greenville Woodruff","BranchId: 231","https://www.loansbyworld.com/","-82.275018","https://www.loansbyworld.com/locations/greenville-woodruff/","8642970405","SC","18359","1618 Woodruff Road,  Unit F","29607"
"Mauldin","United States","monday: 9:00 AM-6:00 PM; tuesday: 9:00 AM-6:00 PM; wednesday: 9:00 AM-6:00 PM; thursday: 9:00 AM-6:00 PM; friday: 9:00 AM-6:00 PM; saturday: 9:00 AM-12:00 PM; sunday: False-False","34.780505","Mauldin","BranchId: 377","https://www.loansbyworld.com/","-82.302793","https://www.loansbyworld.com/locations/mauldin/","8642849335","SC","19300","113 E. Butler Road,  Suite B","29662"
"Fountain Inn","United States","monday: 9:00 AM-6:00 PM; tuesday: 9:00 AM-6:00 PM; wednesday: 9:00 AM-6:00 PM; thursday: 9:00 AM-6:00 PM; friday: 9:00 AM-6:00 PM; saturday: 9:00 AM-12:00 PM; sunday: False-False","34.70204","Fountain Inn","BranchId: 246","https://www.loansbyworld.com/","-82.217026","https://www.loansbyworld.com/locations/fountain-inn/","864-301-6481","SC","18267","1122 N Main St Ste D","29644-1322"
"Simpsonville","United States","monday: 9:00 AM-6:00 PM; tuesday: 9:00 AM-6:00 PM; wednesday: 9:00 AM-6:00 PM; thursday: 9:00 AM-6:00 PM; friday: 9:00 AM-6:00 PM; saturday: 9:00 AM-12:00 PM; sunday: False-False","34.705021","Simpsonville","BranchId: 234","https://www.loansbyworld.com/","-82.2606","https://www.loansbyworld.com/locations/simpsonville/","(864) 962-3081","SC","18350","404 Harrison Bridge Road,  Suite D","29680"
"Greenville","United States","monday: 9:00 AM-6:00 PM; tuesday: 9:00 AM-6:00 PM; wednesday: 9:00 AM-6:00 PM; thursday: 9:00 AM-6:00 PM; friday: 9:00 AM-6:00 PM; saturday: 9:00 AM-12:00 PM; sunday: False-False","34.850563","Greenville, SC","BranchId: 241","https://www.loansbyworld.com/","-82.375933","https://www.loansbyworld.com/locations/greenville-laurens/","864-568-0808","SC","18287","517 Laurens Road","29607"
"Gaffney","United States","monday: 9:00 AM-6:00 PM; tuesday: 9:00 AM-6:00 PM; wednesday: 9:00 AM-6:00 PM; thursday: 9:00 AM-6:00 PM; friday: 9:00 AM-6:00 PM; saturday: 9:00 AM-12:00 PM; sunday: False-False","35.066749","Gaffney","BranchId: 243","https://www.loansbyworld.com/","-81.66376","https://www.loansbyworld.com/locations/gaffney-2/","864-514-5058","SC","18266","124 Willis Plz","29341-1500"
"Greenville","United States","monday: 9:00 AM-6:00 PM; tuesday: 9:00 AM-6:00 PM; wednesday: 9:00 AM-6:00 PM; thursday: 9:00 AM-6:00 PM; friday: 9:00 AM-6:00 PM; saturday: 9:00 AM-12:00 PM; sunday: False-False","34.88764","Greenville","BranchId: 250","https://www.loansbyworld.com/","-82.401429","https://www.loansbyworld.com/locations/greenville/","8642334186","SC","19342","3223 N Pleasantburg Dr,  Suite D","29609"
"Gaffney","United States","monday: 9:00 AM-6:00 PM; tuesday: 9:00 AM-6:00 PM; wednesday: 9:00 AM-6:00 PM; thursday: 9:00 AM-6:00 PM; friday: 9:00 AM-6:00 PM; saturday: 9:00 AM-12:00 PM; sunday: False-False","35.076407","Gaffney","BranchId: 212","https://www.loansbyworld.com/","-81.646536","https://www.loansbyworld.com/locations/gaffney/","8644872019","SC","19359","523 N. Limestone St.","29340"
"Union","United States","monday: 9:00 AM-6:00 PM; tuesday: 9:00 AM-6:00 PM; wednesday: 9:00 AM-6:00 PM; thursday: 9:00 AM-6:00 PM; friday: 9:00 AM-6:00 PM; saturday: 9:00 AM-12:00 PM; sunday: False-False","34.719621","Union","BranchId: 311","https://www.loansbyworld.com/","-81.640368","https://www.loansbyworld.com/locations/union/","8644290144","SC","19335","403 N. Duncan Bypass","29379"
"Greenville","United States","monday: 9:00 AM-6:00 PM; tuesday: 9:00 AM-6:00 PM; wednesday: 9:00 AM-6:00 PM; thursday: 9:00 AM-6:00 PM; friday: 9:00 AM-6:00 PM; saturday: 9:00 AM-12:00 PM; sunday: False-False","34.854391","Greenville West","BranchId: 345","https://www.loansbyworld.com/","-82.455783","https://www.loansbyworld.com/locations/greenville-2/","864-269-0588","SC","19320","6135 White Horse Road,  Suite C","29611"
"Piedmont","United States","monday: 9:00 AM-6:00 PM; tuesday: 9:00 AM-6:00 PM; wednesday: 9:00 AM-6:00 PM; thursday: 9:00 AM-6:00 PM; friday: 9:00 AM-6:00 PM; saturday: 9:00 AM-12:00 PM; sunday: False-False","34.782686","Powdersville","BranchId: 239","https://www.loansbyworld.com/","-82.475378","https://www.loansbyworld.com/locations/powdersville/","8645689291","SC","18324","22 Halter Drive","29673"
"Laurens","United States","monday: 9:00 AM-6:00 PM; tuesday: 9:00 AM-6:00 PM; wednesday: 9:00 AM-6:00 PM; thursday: 9:00 AM-6:00 PM; friday: 9:00 AM-6:00 PM; saturday: 9:00 AM-12:00 PM; sunday: False-False","34.493785","Laurens","BranchId: 209","https://www.loansbyworld.com/","-81.986684","https://www.loansbyworld.com/locations/laurens/","(864) 715-0155","SC","19360","810 E. Main Street,  Suite E","29360"
"Williamston","United States","monday: 9:00 AM-6:00 PM; tuesday: 9:00 AM-6:00 PM; wednesday: 9:00 AM-6:00 PM; thursday: 9:00 AM-6:00 PM; friday: 9:00 AM-6:00 PM; saturday: 9:00 AM-12:00 PM; sunday: False-False","34.620457","Williamston","BranchId: 361","https://www.loansbyworld.com/","-82.471074","https://www.loansbyworld.com/locations/williamston/","8648477260","SC","19307","310 East Main Street,  Suite C","29697"
"Easley","United States","monday: 9:00 AM-6:00 PM; tuesday: 9:00 AM-6:00 PM; wednesday: 9:00 AM-6:00 PM; thursday: 9:00 AM-6:00 PM; friday: 9:00 AM-6:00 PM; saturday: 9:00 AM-12:00 PM; sunday: False-False","34.829933","Easley","BranchId: 240","https://www.loansbyworld.com/","-82.612401","https://www.loansbyworld.com/locations/easley/","8648597534","SC","19341","504 West Main Street,  Suite G","29640"
"Belton","United States","monday: 9:00 AM-6:00 PM; tuesday: 9:00 AM-6:00 PM; wednesday: 9:00 AM-6:00 PM; thursday: 9:00 AM-6:00 PM; friday: 9:00 AM-6:00 PM; saturday: 9:00 AM-12:00 PM; sunday: False-False","34.522084","Belton","BranchId: 220","https://www.loansbyworld.com/","-82.495056","https://www.loansbyworld.com/locations/belton/","8643386202","SC","19351","769 Anderson St.","29627"
"York","United States","monday: 9:00 AM-6:00 PM; tuesday: 9:00 AM-6:00 PM; wednesday: 9:00 AM-6:00 PM; thursday: 9:00 AM-6:00 PM; friday: 9:00 AM-6:00 PM; saturday: 9:00 AM-12:00 PM; sunday: False-False","34.994398","York","BranchId: 355","https://www.loansbyworld.com/","-81.242042","https://www.loansbyworld.com/locations/york/","8036281554","SC","19312","1734 Old York Road","29745"
"Anderson","United States","monday: 9:00 AM-6:00 PM; tuesday: 9:00 AM-6:00 PM; wednesday: 9:00 AM-6:00 PM; thursday: 9:00 AM-6:00 PM; friday: 9:00 AM-6:00 PM; saturday: 9:00 AM-12:00 PM; sunday: False-False","34.533453","Anderson","BranchId: 210","https://www.loansbyworld.com/","-82.665804","https://www.loansbyworld.com/locations/anderson/","8642262444","SC","19361","2927 North Main Street","29621"
"Anderson","United States","monday: 9:00 AM-6:00 PM; tuesday: 9:00 AM-6:00 PM; wednesday: 9:00 AM-6:00 PM; thursday: 9:00 AM-6:00 PM; friday: 9:00 AM-6:00 PM; saturday: 9:00 AM-12:00 PM; sunday: False-False","34.513748","Anderson","BranchId: 245","https://www.loansbyworld.com/","-82.652652","https://www.loansbyworld.com/locations/anderson-3/","864-532-2007","SC","18270","1108 N Main St Ste C","29621-4871"
"Chester","United States","monday: 9:00 AM-6:00 PM; tuesday: 9:00 AM-6:00 PM; wednesday: 9:00 AM-6:00 PM; thursday: 9:00 AM-6:00 PM; friday: 9:00 AM-6:00 PM; saturday: 9:00 AM-12:00 PM; sunday: False-False","34.693249","Chester","BranchId: 208","https://www.loansbyworld.com/","-81.194889","https://www.loansbyworld.com/locations/chester/","803-403-0986","SC","19363","1452 J A Cochran Bypass,  Suite C","29706"
"Newberry","United States","monday: 9:00 AM-6:00 PM; tuesday: 9:00 AM-6:00 PM; wednesday: 9:00 AM-6:00 PM; thursday: 9:00 AM-6:00 PM; friday: 9:00 AM-6:00 PM; saturday: 9:00 AM-12:00 PM; sunday: False-False","34.295097","Newberry","BranchId: 280","https://www.loansbyworld.com/","-81.608448","https://www.loansbyworld.com/locations/newberry/","8032765880","SC","19340","2010 Bear Village Court","29108"
"Greenwood","United States","monday: 9:00 AM-6:00 PM; tuesday: 9:00 AM-6:00 PM; wednesday: 9:00 AM-6:00 PM; thursday: 9:00 AM-6:00 PM; friday: 9:00 AM-6:00 PM; saturday: 9:00 AM-12:00 PM; sunday: False-False","34.196572","Greenwood","BranchId: 338","https://www.loansbyworld.com/","-82.166264","https://www.loansbyworld.com/locations/greenwood/","8642297989","SC","19324","310 Calhoun Ave. Suite E & F","29649"
"Rock Hill","United States","monday: 9:00 AM-6:00 PM; tuesday: 9:00 AM-6:00 PM; wednesday: 9:00 AM-6:00 PM; thursday: 9:00 AM-6:00 PM; friday: 9:00 AM-6:00 PM; saturday: 9:00 AM-12:00 PM; sunday: False-False","34.952338","Rock Hill","BranchId: 247","https://www.loansbyworld.com/","-81.018829","https://www.loansbyworld.com/locations/rock-hill-2/","803-681-2931","SC","18263","1030 Edwards St Ste 105","29732"
"Abbeville","United States","monday: 9:00 AM-6:00 PM; tuesday: 9:00 AM-6:00 PM; wednesday: 9:00 AM-6:00 PM; thursday: 9:00 AM-6:00 PM; friday: 9:00 AM-6:00 PM; saturday: 9:00 AM-12:00 PM; sunday: False-False","34.161886","Abbeville","BranchId: 200","https://www.loansbyworld.com/","-82.38238","https://www.loansbyworld.com/locations/abbeville/","8644595031","SC","19368","815 West Greenwood Street,  Suite 2","29620"
"Rock Hill","United States","monday: 9:00 AM-6:00 PM; tuesday: 9:00 AM-6:00 PM; wednesday: 9:00 AM-6:00 PM; thursday: 9:00 AM-6:00 PM; friday: 9:00 AM-6:00 PM; saturday: 9:00 AM-12:00 PM; sunday: False-False","34.951393","Rock Hill","BranchId: 313","https://www.loansbyworld.com/","-80.997493","https://www.loansbyworld.com/locations/rock-hill/","8039800360","SC","19332","562 North Anderson Road","29730"
"Seneca","United States","monday: 9:00 AM-6:00 PM; tuesday: 9:00 AM-6:00 PM; wednesday: 9:00 AM-6:00 PM; thursday: 9:00 AM-6:00 PM; friday: 9:00 AM-6:00 PM; saturday: 9:00 AM-12:00 PM; sunday: False-False","34.689707","Seneca","BranchId: 310","https://www.loansbyworld.com/","-82.992385","https://www.loansbyworld.com/locations/seneca/","8648821947","SC","19334","15871 Wells Hwy.","29678"
"Fort Mill","United States","monday: 9:00 AM-6:00 PM; tuesday: 9:00 AM-6:00 PM; wednesday: 9:00 AM-6:00 PM; thursday: 9:00 AM-6:00 PM; friday: 9:00 AM-6:00 PM; saturday: 9:00 AM-12:00 PM; sunday: False-False","35.035434","Fort Mill","BranchId: 224","https://www.loansbyworld.com/","-80.972118","https://www.loansbyworld.com/locations/fort-mill/","8035788055","SC","19345","1754 Highway 160 West,  Suite 107","29708"
"Winnsboro","United States","monday: 9:00 AM-6:00 PM; tuesday: 9:00 AM-6:00 PM; wednesday: 9:00 AM-6:00 PM; thursday: 9:00 AM-6:00 PM; friday: 9:00 AM-6:00 PM; saturday: 9:00 AM-12:00 PM; sunday: False-False","34.379016","Winnsboro","BranchId: 369","https://www.loansbyworld.com/","-81.085665","https://www.loansbyworld.com/locations/winnsboro/","8036351327","SC","19305","152 S. Congress St.","29180"
"Saluda","United States","monday: 9:00 AM-6:00 PM; tuesday: 9:00 AM-6:00 PM; wednesday: 9:00 AM-6:00 PM; thursday: 9:00 AM-6:00 PM; friday: 9:00 AM-6:00 PM; saturday: 9:00 AM-12:00 PM; sunday: False-False","33.999998","Saluda","BranchId: 395","https://www.loansbyworld.com/","-81.772846","https://www.loansbyworld.com/locations/saluda/","8644453770","SC","19287","115 West Eutaw Street","29138"
"Hartwell","United States","monday: 9:00 AM-6:00 PM; tuesday: 9:00 AM-6:00 PM; wednesday: 9:00 AM-6:00 PM; thursday: 9:00 AM-6:00 PM; friday: 9:00 AM-6:00 PM; saturday: 9:00 AM-12:00 PM; sunday: False-False","34.341498","Hartwell","BranchId: 19","https://www.loansbyworld.com/","-82.923081","https://www.loansbyworld.com/locations/hartwell/","7063766361","GA","19470","936 Benson St.","30643"
"Lavonia","United States","monday: 9:00 AM-6:00 PM; tuesday: 9:00 AM-6:00 PM; wednesday: 9:00 AM-6:00 PM; thursday: 9:00 AM-6:00 PM; friday: 9:00 AM-6:00 PM; saturday: 9:00 AM-12:00 PM; sunday: False-False","34.442862","Lavonia","BranchId: 194","https://www.loansbyworld.com/","-83.114062","https://www.loansbyworld.com/locations/lavonia/","7063564760","GA","19374","13375 Jones St Suite D","30553"
"Lancaster","United States","monday: 9:00 AM-6:00 PM; tuesday: 9:00 AM-6:00 PM; wednesday: 9:00 AM-6:00 PM; thursday: 9:00 AM-6:00 PM; friday: 9:00 AM-6:00 PM; saturday: 9:00 AM-12:00 PM; sunday: False-False","34.718265","Lancaster","BranchId: 348","https://www.loansbyworld.com/","-80.769931","https://www.loansbyworld.com/locations/lancaster/","8038368168","SC","19317","214 S. Main St.","29720"
"Elberton","United States","monday: 9:00 AM-6:00 PM; tuesday: 9:00 AM-6:00 PM; wednesday: 9:00 AM-6:00 PM; thursday: 9:00 AM-6:00 PM; friday: 9:00 AM-6:00 PM; saturday: 9:00 AM-12:00 PM; sunday: False-False","34.101843","Elberton","BranchId: 30","https://www.loansbyworld.com/","-82.84888","https://www.loansbyworld.com/locations/elberton/","7062834322","GA","19464","709-A Elbert Street","30635"
"Leesville","United States","monday: 9:00 AM-6:00 PM; tuesday: 9:00 AM-6:00 PM; wednesday: 9:00 AM-6:00 PM; thursday: 9:00 AM-6:00 PM; friday: 9:00 AM-6:00 PM; saturday: 9:00 AM-12:00 PM; sunday: False-False","33.914866","Batesburg","BranchId: 359","https://www.loansbyworld.com/","-81.526714","https://www.loansbyworld.com/locations/batesburg/","8035323381","SC","19309","141 E. Church Street,  Suite A","29070"
"Irmo","United States","monday: 9:00 AM-6:00 PM; tuesday: 9:00 AM-6:00 PM; wednesday: 9:00 AM-6:00 PM; thursday: 9:00 AM-6:00 PM; friday: 9:00 AM-6:00 PM; saturday: 9:00 AM-12:00 PM; sunday: False-False","34.095105","Irmo","BranchId: 233","https://www.loansbyworld.com/","-81.15576","https://www.loansbyworld.com/locations/irmo/","(803) 749-1524","SC","18351","7210 Broad River Road,  Suite E","29063"
"Lexington","United States","monday: 9:00 AM-6:00 PM; tuesday: 9:00 AM-6:00 PM; wednesday: 9:00 AM-6:00 PM; thursday: 9:00 AM-6:00 PM; friday: 9:00 AM-6:00 PM; saturday: 9:00 AM-12:00 PM; sunday: False-False","33.991417","Lexington West","BranchId: 235","https://www.loansbyworld.com/","-81.306776","https://www.loansbyworld.com/locations/lexington-west/","(803) 490-0590","SC","18342","851 Highway 378,  Suite 108","29072"
"Toccoa","United States","monday: 9:00 AM-6:00 PM; tuesday: 9:00 AM-6:00 PM; wednesday: 9:00 AM-6:00 PM; thursday: 9:00 AM-6:00 PM; friday: 9:00 AM-6:00 PM; saturday: 9:00 AM-12:00 PM; sunday: False-False","34.566118","Toccoa","BranchId: 176","https://www.loansbyworld.com/","-83.302674","https://www.loansbyworld.com/locations/toccoa/","7068868434","GA","19387","1496 Big A Road","30577"
"Lexington","United States","monday: 9:00 AM-6:00 PM; tuesday: 9:00 AM-6:00 PM; wednesday: 9:00 AM-6:00 PM; thursday: 9:00 AM-6:00 PM; friday: 9:00 AM-6:00 PM; saturday: 9:00 AM-12:00 PM; sunday: False-False","33.99795","Lexington","BranchId: 219","https://www.loansbyworld.com/","-81.218444","https://www.loansbyworld.com/locations/lexington/","8033582386","SC","19350","5483 Sunset Blvd.,  Ste. E","29072"
"Columbia","United States","monday: 9:00 AM-6:00 PM; tuesday: 9:00 AM-6:00 PM; wednesday: 9:00 AM-6:00 PM; thursday: 9:00 AM-6:00 PM; friday: 9:00 AM-6:00 PM; saturday: 9:00 AM-12:00 PM; sunday: False-False","34.024651","Columbia","BranchId: 202","https://www.loansbyworld.com/","-81.081376","https://www.loansbyworld.com/locations/columbia/","8037506446","SC","19369","1013 Broad River Road,  Suite A","29210"
"Columbia","United States","monday: 9:00 AM-6:00 PM; tuesday: 9:00 AM-6:00 PM; wednesday: 9:00 AM-6:00 PM; thursday: 9:00 AM-6:00 PM; friday: 9:00 AM-6:00 PM; saturday: 9:00 AM-12:00 PM; sunday: False-False","34.042218","Columbia","BranchId: 341","https://www.loansbyworld.com/","-80.993768","https://www.loansbyworld.com/locations/columbia-2/","8036916817","SC","19322","3906 Two Notch Road","29204"
"West Columbia","United States","monday: 9:00 AM-6:00 PM; tuesday: 9:00 AM-6:00 PM; wednesday: 9:00 AM-6:00 PM; thursday: 9:00 AM-6:00 PM; friday: 9:00 AM-6:00 PM; saturday: 9:00 AM-12:00 PM; sunday: False-False","33.984778","West Columbia","BranchId: 207","https://www.loansbyworld.com/","-81.071857","https://www.loansbyworld.com/locations/west-columbia/","8037914381","SC","19362","620 12th St.","29169"
"West Columbia","United States","monday: 9:00 AM-6:00 PM; tuesday: 9:00 AM-6:00 PM; wednesday: 9:00 AM-6:00 PM; thursday: 9:00 AM-6:00 PM; friday: 9:00 AM-6:00 PM; saturday: 9:00 AM-12:00 PM; sunday: False-False","33.970625","West Columbia","BranchId: 370","https://www.loansbyworld.com/","-81.079321","https://www.loansbyworld.com/locations/west-columbia-2/","8039269393","SC","19306","1630 Airport Blvd.","29169"
"Columbia","United States","monday: 9:00 AM-6:00 PM; tuesday: 9:00 AM-6:00 PM; wednesday: 9:00 AM-6:00 PM; thursday: 9:00 AM-6:00 PM; friday: 9:00 AM-6:00 PM; saturday: 9:00 AM-12:00 PM; sunday: False-False","34.112156","Columbia Northeast","BranchId: 237","https://www.loansbyworld.com/","-80.893493","https://www.loansbyworld.com/locations/columbia-northeast/","803-788-8565","SC","18337","10008 Two Notch Rd. Ste B","29223"
"Erwin","United States","monday: 9:00 AM-6:00 PM; tuesday: 9:00 AM-6:00 PM; wednesday: 9:00 AM-6:00 PM; thursday: 9:00 AM-6:00 PM; friday: 9:00 AM-6:00 PM; saturday: 9:00 AM-12:00 PM; sunday: False-False","36.157109","Erwin","BranchId: 844","https://www.loansbyworld.com/","-82.405671","https://www.loansbyworld.com/locations/erwin/","4237351090","TN","18933","1069 North Main Avenue,  Suite 1","37650"
"Columbia","United States","monday: 9:00 AM-6:00 PM; tuesday: 9:00 AM-6:00 PM; wednesday: 9:00 AM-6:00 PM; thursday: 9:00 AM-6:00 PM; friday: 9:00 AM-6:00 PM; saturday: 9:00 AM-12:00 PM; sunday: False-False","33.990263","Columbia East","BranchId: 344","https://www.loansbyworld.com/","-80.977194","https://www.loansbyworld.com/locations/columbia-east/","8037908877","SC","19319","4464 Devine Street,  Suite I","29205"
"Cornelia","United States","monday: 9:00 AM-6:00 PM; tuesday: 9:00 AM-6:00 PM; wednesday: 9:00 AM-6:00 PM; thursday: 9:00 AM-6:00 PM; friday: 9:00 AM-6:00 PM; saturday: 9:00 AM-12:00 PM; sunday: False-False","34.511488","Cornelia","BranchId: 124","https://www.loansbyworld.com/","-83.527117","https://www.loansbyworld.com/locations/cornelia/","7067763803","GA","19433","700 441 Business Highway,  Suite C","30531"
"Pageland","United States","monday: 9:00 AM-6:00 PM; tuesday: 9:00 AM-6:00 PM; wednesday: 9:00 AM-6:00 PM; thursday: 9:00 AM-6:00 PM; friday: 9:00 AM-6:00 PM; saturday: 9:00 AM-12:00 PM; sunday: False-False","34.773922","Pageland","BranchId: 356","https://www.loansbyworld.com/","-80.383011","https://www.loansbyworld.com/locations/pageland/","8438658284","SC","19313","713 East McGregor St.","29728"
"Camden","United States","monday: 9:00 AM-6:00 PM; tuesday: 9:00 AM-6:00 PM; wednesday: 9:00 AM-6:00 PM; thursday: 9:00 AM-6:00 PM; friday: 9:00 AM-6:00 PM; saturday: 9:00 AM-12:00 PM; sunday: False-False","34.245699","Camden","BranchId: 349","https://www.loansbyworld.com/","-80.605244","https://www.loansbyworld.com/locations/camden/","8034328411","SC","19318","1009 Market St.","29020"
"Aiken","United States","monday: 9:00 AM-6:00 PM; tuesday: 9:00 AM-6:00 PM; wednesday: 9:00 AM-6:00 PM; thursday: 9:00 AM-6:00 PM; friday: 9:00 AM-6:00 PM; saturday: 9:00 AM-12:00 PM; sunday: False-False","33.5618","Aiken","BranchId: 335","https://www.loansbyworld.com/","-81.764234","https://www.loansbyworld.com/locations/aiken/","8036482631","SC","19326","3555 Richland Avenue,  West,  Suite 164","29801"
"North Augusta","United States","monday: 9:00 AM-6:00 PM; tuesday: 9:00 AM-6:00 PM; wednesday: 9:00 AM-6:00 PM; thursday: 9:00 AM-6:00 PM; friday: 9:00 AM-6:00 PM; saturday: 9:00 AM-12:00 PM; sunday: False-False","33.54245","North Augusta","BranchId: 223","https://www.loansbyworld.com/","-81.941717","https://www.loansbyworld.com/locations/north-augusta/","8032020302","SC","19349","616 Edgefield Road,  Suite 160","29841"
"Greeneville","United States","monday: 9:00 AM-6:00 PM; tuesday: 9:00 AM-6:00 PM; wednesday: 9:00 AM-6:00 PM; thursday: 9:00 AM-6:00 PM; friday: 9:00 AM-6:00 PM; saturday: 9:00 AM-12:00 PM; sunday: False-False","36.178335","Greeneville","BranchId: 822","https://www.loansbyworld.com/","-82.800756","https://www.loansbyworld.com/locations/greeneville/","4236389491","TN","18953","104 Village Drive,  Suite 5","37745"
"Commerce","United States","monday: 9:00 AM-6:00 PM; tuesday: 9:00 AM-6:00 PM; wednesday: 9:00 AM-6:00 PM; thursday: 9:00 AM-6:00 PM; friday: 9:00 AM-6:00 PM; saturday: 9:00 AM-12:00 PM; sunday: False-False","34.205852","Commerce","BranchId: 136","https://www.loansbyworld.com/","-83.464124","https://www.loansbyworld.com/locations/commerce/","7063357504","GA","19423","2155 N. Elm Street","30529"
"Johnson City","United States","monday: 9:00 AM-6:00 PM; tuesday: 9:00 AM-6:00 PM; wednesday: 9:00 AM-6:00 PM; thursday: 9:00 AM-6:00 PM; friday: 9:00 AM-6:00 PM; saturday: 9:00 AM-12:00 PM; sunday: False-False","36.31454","Johnson City","BranchId: 811","https://www.loansbyworld.com/","-82.377631","https://www.loansbyworld.com/locations/johnson-city/","4239288139","TN","18962","1012 West Market Street,  Suites 1&2","37604"
"Newport","United States","monday: 9:00 AM-6:00 PM; tuesday: 9:00 AM-6:00 PM; wednesday: 9:00 AM-6:00 PM; thursday: 9:00 AM-6:00 PM; friday: 9:00 AM-6:00 PM; saturday: 9:00 AM-12:00 PM; sunday: False-False","35.97183","Newport","BranchId: 836","https://www.loansbyworld.com/","-83.208441","https://www.loansbyworld.com/locations/newport/","4236231888","TN","18938","129 Western Plaza Way","37821"
"Martinez","United States","monday: 9:00 AM-6:00 PM; tuesday: 9:00 AM-6:00 PM; wednesday: 9:00 AM-6:00 PM; thursday: 9:00 AM-6:00 PM; friday: 9:00 AM-6:00 PM; saturday: 9:00 AM-12:00 PM; sunday: False-False","33.512697","Martinez","BranchId: 18","https://www.loansbyworld.com/","-82.089006","https://www.loansbyworld.com/locations/martinez/","7068631229","GA","19469","3821 Washington Rd. Ste D","30907"
"Augusta","United States","monday: 9:00 AM-6:00 PM; tuesday: 9:00 AM-6:00 PM; wednesday: 9:00 AM-6:00 PM; thursday: 9:00 AM-6:00 PM; friday: 9:00 AM-6:00 PM; saturday: 9:00 AM-12:00 PM; sunday: False-False","33.511118","Augusta SF","BranchId: 37","https://www.loansbyworld.com/","-82.029568","https://www.loansbyworld.com/locations/augusta-sfc/","706-733-0368","GA","18368","2801 Washington Rd.,  Suite 108","30909"
"Elizabethton","United States","monday: 9:00 AM-6:00 PM; tuesday: 9:00 AM-6:00 PM; wednesday: 9:00 AM-6:00 PM; thursday: 9:00 AM-6:00 PM; friday: 9:00 AM-6:00 PM; saturday: 9:00 AM-12:00 PM; sunday: False-False","36.349977","Elizabethton","BranchId: 821","https://www.loansbyworld.com/","-82.237305","https://www.loansbyworld.com/locations/elizabethton/","4235429886","TN","18952","731 W. Elk Ave,  Suite B2A","37643"
"Aiken","United States","monday: 9:00 AM-6:00 PM; tuesday: 9:00 AM-6:00 PM; wednesday: 9:00 AM-6:00 PM; thursday: 9:00 AM-6:00 PM; friday: 9:00 AM-6:00 PM; saturday: 9:00 AM-12:00 PM; sunday: False-False","33.51315","Aiken","BranchId: 249","https://www.loansbyworld.com/","-81.73401","https://www.loansbyworld.com/locations/aiken-2/","803-845-2970","SC","18269","778 Silver Bluff Rd","29803-6055"
"Athens","United States","monday: 9:00 AM-6:00 PM; tuesday: 9:00 AM-6:00 PM; wednesday: 9:00 AM-6:00 PM; thursday: 9:00 AM-6:00 PM; friday: 9:00 AM-6:00 PM; saturday: 9:00 AM-12:00 PM; sunday: False-False","33.995637","Athens","BranchId: 183","https://www.loansbyworld.com/","-83.336972","https://www.loansbyworld.com/locations/athens/","7063536463","GA","19383","680 Highway 29 North,  Suite 225","30601"
"Macon","United States","monday: 9:00 AM-6:00 PM; tuesday: 9:00 AM-6:00 PM; wednesday: 9:00 AM-6:00 PM; thursday: 9:00 AM-6:00 PM; friday: 9:00 AM-6:00 PM; saturday: 9:00 AM-12:00 PM; sunday: False-False","32.900623","Macon","BranchId: 14","https://www.loansbyworld.com/","-83.688379","https://www.loansbyworld.com/locations/macon-2/","4784774021","GA","19475","120 Tom Hill SR Blvd.,  Suite 104","31210"
"Macon","United States","monday: 9:00 AM-6:00 PM; tuesday: 9:00 AM-6:00 PM; wednesday: 9:00 AM-6:00 PM; thursday: 9:00 AM-6:00 PM; friday: 9:00 AM-6:00 PM; saturday: 9:00 AM-12:00 PM; sunday: False-False","32.897894","Macon","BranchId: 44","https://www.loansbyworld.com/","-83.690018","https://www.loansbyworld.com/locations/macon-sf/","478-471-6858","GA","18363","226 Tom Hill Sr. Blvd.","31210"
"Macon","United States","monday: 9:00 AM-6:00 PM; tuesday: 9:00 AM-6:00 PM; wednesday: 9:00 AM-6:00 PM; thursday: 9:00 AM-6:00 PM; friday: 9:00 AM-6:00 PM; saturday: 9:00 AM-12:00 PM; sunday: False-False","32.871157","Macon","BranchId: 11","https://www.loansbyworld.com/","-83.704262","https://www.loansbyworld.com/locations/macon/","4784744588","GA","19474","4524 Forsyth Rd.,  Suite 105","31210"
"Macon","United States","monday: 9:00 AM-6:00 PM; tuesday: 9:00 AM-6:00 PM; wednesday: 9:00 AM-6:00 PM; thursday: 9:00 AM-6:00 PM; friday: 9:00 AM-6:00 PM; saturday: 9:00 AM-12:00 PM; sunday: False-False","32.795052","Macon","BranchId: 145","https://www.loansbyworld.com/","-83.667516","https://www.loansbyworld.com/locations/macon-3/","4787507381","GA","19414","1211 Gray Highway,  Suite B","31211"
"Centerville","United States","monday: 9:00 AM-6:00 PM; tuesday: 9:00 AM-6:00 PM; wednesday: 9:00 AM-6:00 PM; thursday: 9:00 AM-6:00 PM; friday: 9:00 AM-6:00 PM; saturday: 9:00 AM-12:00 PM; sunday: False-False","32.619892","Centerville","BranchId: 153","https://www.loansbyworld.com/","-83.683204","https://www.loansbyworld.com/locations/centerville/","4789535015","GA","19408","100 N. Houston Lake Blvd. Suite R","31028"
"Warner Robins","United States","monday: 9:00 AM-6:00 PM; tuesday: 9:00 AM-6:00 PM; wednesday: 9:00 AM-6:00 PM; thursday: 9:00 AM-6:00 PM; friday: 9:00 AM-6:00 PM; saturday: 9:00 AM-12:00 PM; sunday: False-False","32.617791","Warner Robins","BranchId: 95","https://www.loansbyworld.com/","-83.676841","https://www.loansbyworld.com/locations/warner-robins/","4789714620","GA","19450","2801 Watson Blvd.,  Suite B","31093"
"Forsyth","United States","monday: 9:00 AM-6:00 PM; tuesday: 9:00 AM-6:00 PM; wednesday: 9:00 AM-6:00 PM; thursday: 9:00 AM-6:00 PM; friday: 9:00 AM-6:00 PM; saturday: 9:00 AM-12:00 PM; sunday: False-False","33.034582","Forsyth","BranchId: 166","https://www.loansbyworld.com/","-83.933715","https://www.loansbyworld.com/locations/forsyth/","4789940080","GA","19396","130 East Main Street,  Suite 5","31029"
"Fort Valley","United States","monday: 9:00 AM-6:00 PM; tuesday: 9:00 AM-6:00 PM; wednesday: 9:00 AM-6:00 PM; thursday: 9:00 AM-6:00 PM; friday: 9:00 AM-6:00 PM; saturday: 9:00 AM-12:00 PM; sunday: False-False","32.570458","Fort Valley","BranchId: 90","https://www.loansbyworld.com/","-83.871579","https://www.loansbyworld.com/locations/fort-valley/","4788255575","GA","19454","1030 Peach Parkway,  Suite 10","31030"
"Eatonton","United States","monday: 9:00 AM-6:00 PM; tuesday: 9:00 AM-6:00 PM; wednesday: 9:00 AM-6:00 PM; thursday: 9:00 AM-6:00 PM; friday: 9:00 AM-6:00 PM; saturday: 9:00 AM-12:00 PM; sunday: False-False","33.326719","Eatonton","BranchId: 25","https://www.loansbyworld.com/","-83.388907","https://www.loansbyworld.com/locations/eatonton/","7064858501","GA","19465","307 S. Jefferson Avenue","31024"
"Perry","United States","monday: 9:00 AM-6:00 PM; tuesday: 9:00 AM-6:00 PM; wednesday: 9:00 AM-6:00 PM; thursday: 9:00 AM-6:00 PM; friday: 9:00 AM-6:00 PM; saturday: 9:00 AM-12:00 PM; sunday: False-False","32.462794","Perry","BranchId: 139","https://www.loansbyworld.com/","-83.736451","https://www.loansbyworld.com/locations/perry/","4782242324","GA","19418","1003 Saint Patricks Drive","31069"
"Jackson","United States","monday: 9:00 AM-6:00 PM; tuesday: 9:00 AM-6:00 PM; wednesday: 9:00 AM-6:00 PM; thursday: 9:00 AM-6:00 PM; friday: 9:00 AM-6:00 PM; saturday: 9:00 AM-12:00 PM; sunday: False-False","33.294502","Jackson","BranchId: 50","https://www.loansbyworld.com/","-83.959561","https://www.loansbyworld.com/locations/jackson/","7707753135","GA","19458","621 East 3rd Street","30233"
"Reynolds","United States","monday: 9:00 AM-6:00 PM; tuesday: 9:00 AM-6:00 PM; wednesday: 9:00 AM-6:00 PM; thursday: 9:00 AM-6:00 PM; friday: 9:00 AM-6:00 PM; saturday: 9:00 AM-12:00 PM; sunday: False-False","32.558344","Reynolds","BranchId: 173","https://www.loansbyworld.com/","-84.089292","https://www.loansbyworld.com/locations/reynolds/","4788472628","GA","19393","78 East Marion Street","31076"
"Thomaston","United States","monday: 9:00 AM-6:00 PM; tuesday: 9:00 AM-6:00 PM; wednesday: 9:00 AM-6:00 PM; thursday: 9:00 AM-6:00 PM; friday: 9:00 AM-6:00 PM; saturday: 9:00 AM-12:00 PM; sunday: False-False","32.889183","Thomaston","BranchId: 105","https://www.loansbyworld.com/","-84.327449","https://www.loansbyworld.com/locations/thomaston/","7069386456","GA","19446","1059 Highway 19 N","30286"
"Griffin","United States","monday: 9:00 AM-6:00 PM; tuesday: 9:00 AM-6:00 PM; wednesday: 9:00 AM-6:00 PM; thursday: 9:00 AM-6:00 PM; friday: 9:00 AM-6:00 PM; saturday: 9:00 AM-12:00 PM; sunday: False-False","33.247531","Griffin","BranchId: 142","https://www.loansbyworld.com/","-84.270749","https://www.loansbyworld.com/locations/griffin/","6786885000","GA","19416","505 W Taylor St","30223"
"Dublin","United States","monday: 9:00 AM-6:00 PM; tuesday: 9:00 AM-6:00 PM; wednesday: 9:00 AM-6:00 PM; thursday: 9:00 AM-6:00 PM; friday: 9:00 AM-6:00 PM; saturday: 9:00 AM-12:00 PM; sunday: False-False","32.548355","Dublin","BranchId: 15","https://www.loansbyworld.com/","-82.927417","https://www.loansbyworld.com/locations/dublin/","4782750550","GA","19471","2301 Bellevue Road,  Suite 800","31021"
"Dublin","United States","monday: 9:00 AM-6:00 PM; tuesday: 9:00 AM-6:00 PM; wednesday: 9:00 AM-6:00 PM; thursday: 9:00 AM-6:00 PM; friday: 9:00 AM-6:00 PM; saturday: 9:00 AM-12:00 PM; sunday: False-False","32.535709","Dublin SF","BranchId: 40","https://www.loansbyworld.com/","-82.93129","https://www.loansbyworld.com/locations/dublin-sf/","478-272-0186","GA","18365","1632 Veterans Blvd,  Suite D&E","31021"
"Montezuma","United States","monday: 9:00 AM-6:00 PM; tuesday: 9:00 AM-6:00 PM; wednesday: 9:00 AM-6:00 PM; thursday: 9:00 AM-6:00 PM; friday: 9:00 AM-6:00 PM; saturday: 9:00 AM-12:00 PM; sunday: False-False","32.295078","Montezuma","BranchId: 187","https://www.loansbyworld.com/","-84.018498","https://www.loansbyworld.com/locations/montezuma/","4784722596","GA","19377","502 Spaulding Rd.,  Suite C","31063"
"Covington","United States","monday: 9:00 AM-6:00 PM; tuesday: 9:00 AM-6:00 PM; wednesday: 9:00 AM-6:00 PM; thursday: 9:00 AM-6:00 PM; friday: 9:00 AM-6:00 PM; saturday: 9:00 AM-12:00 PM; sunday: False-False","33.602682","Covington","BranchId: 100","https://www.loansbyworld.com/","-83.847947","https://www.loansbyworld.com/locations/covington/","7707862472","GA","19447","3138 Highway 278 NW,  Suite B","30014"
"McDonough","United States","monday: 9:00 AM-6:00 PM; tuesday: 9:00 AM-6:00 PM; wednesday: 9:00 AM-6:00 PM; thursday: 9:00 AM-6:00 PM; friday: 9:00 AM-6:00 PM; saturday: 9:00 AM-12:00 PM; sunday: False-False","33.457903","McDonough","BranchId: 127","https://www.loansbyworld.com/","-84.175057","https://www.loansbyworld.com/locations/mcdonough/","7709549400","GA","19427","547 Jonesboro Rd.","30253"
"Conyers","United States","monday: 9:00 AM-6:00 PM; tuesday: 9:00 AM-6:00 PM; wednesday: 9:00 AM-6:00 PM; thursday: 9:00 AM-6:00 PM; friday: 9:00 AM-6:00 PM; saturday: 9:00 AM-12:00 PM; sunday: False-False","33.623465","Conyers","BranchId: 158","https://www.loansbyworld.com/","-83.9783","https://www.loansbyworld.com/locations/conyers/","7707609909","GA","19403","2445 Salem Road,  SE,  Suite H","30013"
"Eastman","United States","monday: 9:00 AM-6:00 PM; tuesday: 9:00 AM-6:00 PM; wednesday: 9:00 AM-6:00 PM; thursday: 9:00 AM-6:00 PM; friday: 9:00 AM-6:00 PM; saturday: 9:00 AM-12:00 PM; sunday: False-False","32.194055","Eastman","BranchId: 125","https://www.loansbyworld.com/","-83.175105","https://www.loansbyworld.com/locations/eastman/","4783742043","GA","19430","6295 Oak Street","31023"
"Hampton","United States","monday: 9:00 AM-6:00 PM; tuesday: 9:00 AM-6:00 PM; wednesday: 9:00 AM-6:00 PM; thursday: 9:00 AM-6:00 PM; friday: 9:00 AM-6:00 PM; saturday: 9:00 AM-12:00 PM; sunday: False-False","33.447571","Hampton","BranchId: 22","https://www.loansbyworld.com/","-84.323676","https://www.loansbyworld.com/locations/hampton-2/","7704712716","GA","19467","11274 Tara Blvd,  Suite 100","30228"
"Manchester","United States","monday: 9:00 AM-6:00 PM; tuesday: 9:00 AM-6:00 PM; wednesday: 9:00 AM-6:00 PM; thursday: 9:00 AM-6:00 PM; friday: 9:00 AM-6:00 PM; saturday: 9:00 AM-12:00 PM; sunday: False-False","32.860826","Manchester","BranchId: 109","https://www.loansbyworld.com/","-84.622211","https://www.loansbyworld.com/locations/manchester/","7068464321","GA","19443","410 B 5TH Ave. N","31816"
"Jonesboro","United States","monday: 9:00 AM-6:00 PM; tuesday: 9:00 AM-6:00 PM; wednesday: 9:00 AM-6:00 PM; thursday: 9:00 AM-6:00 PM; friday: 9:00 AM-6:00 PM; saturday: 9:00 AM-12:00 PM; sunday: False-False","33.521042","Jonesboro","BranchId: 49","https://www.loansbyworld.com/","-84.362565","https://www.loansbyworld.com/locations/jonesboro/","678-369-7385","GA","18277","8600 Tara Blvd Ste A & B","30236"
"Monroe","United States","monday: 9:00 AM-6:00 PM; tuesday: 9:00 AM-6:00 PM; wednesday: 9:00 AM-6:00 PM; thursday: 9:00 AM-6:00 PM; friday: 9:00 AM-6:00 PM; saturday: 9:00 AM-12:00 PM; sunday: False-False","33.794707","Monroe","BranchId: 170","https://www.loansbyworld.com/","-83.741057","https://www.loansbyworld.com/locations/monroe/","7702674473","GA","19395","1970 W. Spring Street","30655"
"Fayetteville","United States","monday: 9:00 AM-6:00 PM; tuesday: 9:00 AM-6:00 PM; wednesday: 9:00 AM-6:00 PM; thursday: 9:00 AM-6:00 PM; friday: 9:00 AM-6:00 PM; saturday: 9:00 AM-12:00 PM; sunday: False-False","33.465305","Fayetteville","BranchId: 181","https://www.loansbyworld.com/","-84.449351","https://www.loansbyworld.com/locations/fayetteville/","7707167593","GA","19386","770 Glynn St N Ste B2","30214"
"Morrow","United States","monday: 9:00 AM-6:00 PM; tuesday: 9:00 AM-6:00 PM; wednesday: 9:00 AM-6:00 PM; thursday: 9:00 AM-6:00 PM; friday: 9:00 AM-6:00 PM; saturday: 9:00 AM-12:00 PM; sunday: False-False","33.575478","Morrow","BranchId: 190","https://www.loansbyworld.com/","-84.339676","https://www.loansbyworld.com/locations/morrow/","7709605911","GA","19375","1510 Southlake Parkway,  Suite 1F","30260"
"Decatur","United States","monday: 9:00 AM-6:00 PM; tuesday: 9:00 AM-6:00 PM; wednesday: 9:00 AM-6:00 PM; thursday: 9:00 AM-6:00 PM; friday: 9:00 AM-6:00 PM; saturday: 9:00 AM-12:00 PM; sunday: False-False","33.694887","Decatur","BranchId: 130","https://www.loansbyworld.com/","-84.261405","https://www.loansbyworld.com/locations/decatur/","7703232677","GA","19429","3910 Flat Shoals Parkway Suite 107A","30034"
"Cordele","United States","monday: 9:00 AM-6:00 PM; tuesday: 9:00 AM-6:00 PM; wednesday: 9:00 AM-6:00 PM; thursday: 9:00 AM-6:00 PM; friday: 9:00 AM-6:00 PM; saturday: 9:00 AM-12:00 PM; sunday: False-False","31.963322","Cordele","BranchId: 10","https://www.loansbyworld.com/","-83.77732","https://www.loansbyworld.com/locations/cordele/","2292732744","GA","19476","408 A 16th Ave. East","31015"
"Forest Park","United States","monday: 9:00 AM-6:00 PM; tuesday: 9:00 AM-6:00 PM; wednesday: 9:00 AM-6:00 PM; thursday: 9:00 AM-6:00 PM; friday: 9:00 AM-6:00 PM; saturday: 9:00 AM-12:00 PM; sunday: False-False","33.621513","Forest Park","BranchId: 102","https://www.loansbyworld.com/","-84.374061","https://www.loansbyworld.com/locations/forest-park/","4043617000","GA","19449","526 Forest Parkway,  Suite I","30297"
"Cordele","United States","monday: 9:00 AM-6:00 PM; tuesday: 9:00 AM-6:00 PM; wednesday: 9:00 AM-6:00 PM; thursday: 9:00 AM-6:00 PM; friday: 9:00 AM-6:00 PM; saturday: 9:00 AM-12:00 PM; sunday: False-False","31.959887","Cordele","BranchId: 164","https://www.loansbyworld.com/","-83.750832","https://www.loansbyworld.com/locations/cordele-2/","2292737112","GA","19399","817-A East 16th Avenue","31015"
"Watkinsville","United States","monday: 9:00 AM-6:00 PM; tuesday: 9:00 AM-6:00 PM; wednesday: 9:00 AM-6:00 PM; thursday: 9:00 AM-6:00 PM; friday: 9:00 AM-6:00 PM; saturday: 9:00 AM-12:00 PM; sunday: False-False","33.873564","Watkinsville","BranchId: 117","https://www.loansbyworld.com/","-83.439057","https://www.loansbyworld.com/locations/watkinsville/","7067694057","GA","19436","2061 Hog Mountain Rd.","30677"
"Americus","United States","monday: 9:00 AM-6:00 PM; tuesday: 9:00 AM-6:00 PM; wednesday: 9:00 AM-6:00 PM; thursday: 9:00 AM-6:00 PM; friday: 9:00 AM-6:00 PM; saturday: 9:00 AM-12:00 PM; sunday: False-False","32.07224","Americus","BranchId: 126","https://www.loansbyworld.com/","-84.230651","https://www.loansbyworld.com/locations/americus/","2299316160","GA","19431","109 N. Prince Street,  Suite A","31709"
"Decatur","United States","monday: 9:00 AM-6:00 PM; tuesday: 9:00 AM-6:00 PM; wednesday: 9:00 AM-6:00 PM; thursday: 9:00 AM-6:00 PM; friday: 9:00 AM-6:00 PM; saturday: 9:00 AM-12:00 PM; sunday: False-False","33.74144","Decatur","BranchId: 137","https://www.loansbyworld.com/","-84.259486","https://www.loansbyworld.com/locations/decatur-2/","4042886669","GA","19420","4108 Covington Hwy Suite B&C","30032"
"Stone Mountain","United States","monday: 9:00 AM-6:00 PM; tuesday: 9:00 AM-6:00 PM; wednesday: 9:00 AM-6:00 PM; thursday: 9:00 AM-6:00 PM; friday: 9:00 AM-6:00 PM; saturday: 9:00 AM-12:00 PM; sunday: False-False","33.823313","Stone Mountain","BranchId: 186","https://www.loansbyworld.com/","-84.108327","https://www.loansbyworld.com/locations/stone-mountain/","7708796440","GA","19381","5170 Stone Mountain Highway,  Suite C","30087"
"Snellville","United States","monday: 9:00 AM-6:00 PM; tuesday: 9:00 AM-6:00 PM; wednesday: 9:00 AM-6:00 PM; thursday: 9:00 AM-6:00 PM; friday: 9:00 AM-6:00 PM; saturday: 9:00 AM-12:00 PM; sunday: False-False","33.857236","Snellville","BranchId: 156","https://www.loansbyworld.com/","-84.016847","https://www.loansbyworld.com/locations/snellville/","7709728182","GA","19406","2469 Heritage Village,  Suite 14","30078"
"Decatur","United States","monday: 9:00 AM-6:00 PM; tuesday: 9:00 AM-6:00 PM; wednesday: 9:00 AM-6:00 PM; thursday: 9:00 AM-6:00 PM; friday: 9:00 AM-6:00 PM; saturday: 9:00 AM-12:00 PM; sunday: False-False","33.754096","Decatur TC","BranchId: 52","https://www.loansbyworld.com/","-84.266418","https://www.loansbyworld.com/locations/decatur-tc/","404-534-1526","GA","18334","1202 Columbia Drive","30032"
"Athens","United States","monday: 9:00 AM-6:00 PM; tuesday: 9:00 AM-6:00 PM; wednesday: 9:00 AM-6:00 PM; thursday: 9:00 AM-6:00 PM; friday: 9:00 AM-6:00 PM; saturday: 9:00 AM-12:00 PM; sunday: False-False","33.921759","Athens SF","BranchId: 35","https://www.loansbyworld.com/","-83.441598","https://www.loansbyworld.com/locations/athens-sfc/","706-549-1486","GA","18370","1021 Parkway Blvd.,  Suite 109","30606"
"Atlanta","United States","monday: 9:00 AM-6:00 PM; tuesday: 9:00 AM-6:00 PM; wednesday: 9:00 AM-6:00 PM; thursday: 9:00 AM-6:00 PM; friday: 9:00 AM-6:00 PM; saturday: 9:00 AM-12:00 PM; sunday: False-False","33.682961","Atlanta Eastpoint","BranchId: 23","https://www.loansbyworld.com/","-84.407362","https://www.loansbyworld.com/locations/atlanta-eastpoint/","4047662582","GA","19468","2640 B Metropolitan Parkway SW","30315"
"Union City","United States","monday: 9:00 AM-6:00 PM; tuesday: 9:00 AM-6:00 PM; wednesday: 9:00 AM-6:00 PM; thursday: 9:00 AM-6:00 PM; friday: 9:00 AM-6:00 PM; saturday: 9:00 AM-12:00 PM; sunday: False-False","33.568687","Union City","BranchId: 138","https://www.loansbyworld.com/","-84.544275","https://www.loansbyworld.com/locations/union-city/","7703062812","GA","19421","4720 Jonesboro Rd.,  Suite 15","30291"
"Athens","United States","monday: 9:00 AM-6:00 PM; tuesday: 9:00 AM-6:00 PM; wednesday: 9:00 AM-6:00 PM; thursday: 9:00 AM-6:00 PM; friday: 9:00 AM-6:00 PM; saturday: 9:00 AM-12:00 PM; sunday: False-False","33.939988","Athens West","BranchId: 116","https://www.loansbyworld.com/","-83.465814","https://www.loansbyworld.com/locations/athens-west/","7066135080","GA","19440","3701 Atlanta Hwy Suite 13","30606"
"Pine Mountain","United States","monday: 9:00 AM-6:00 PM; tuesday: 9:00 AM-6:00 PM; wednesday: 9:00 AM-6:00 PM; thursday: 9:00 AM-6:00 PM; friday: 9:00 AM-6:00 PM; saturday: 9:00 AM-12:00 PM; sunday: False-False","32.853135","Pine Mountain","BranchId: 157","https://www.loansbyworld.com/","-84.846405","https://www.loansbyworld.com/locations/pine-mountain/","7066632550","GA","19407","743 Gardens View Drive","31822"
"Atlanta","United States","monday: 9:00 AM-6:00 PM; tuesday: 9:00 AM-6:00 PM; wednesday: 9:00 AM-6:00 PM; thursday: 9:00 AM-6:00 PM; friday: 9:00 AM-6:00 PM; saturday: 9:00 AM-12:00 PM; sunday: False-False","33.737326","Atlanta","BranchId: 122","https://www.loansbyworld.com/","-84.414333","https://www.loansbyworld.com/locations/atlanta/","4047585586","GA","19435","651 Lee St. SW","30310"
"Thomson","United States","monday: 9:00 AM-6:00 PM; tuesday: 9:00 AM-6:00 PM; wednesday: 9:00 AM-6:00 PM; thursday: 9:00 AM-6:00 PM; friday: 9:00 AM-6:00 PM; saturday: 9:00 AM-12:00 PM; sunday: False-False","33.471533","Thomson","BranchId: 101","https://www.loansbyworld.com/","-82.504875","https://www.loansbyworld.com/locations/thomson/","7065954755","GA","19448","406 Main Street","30824"
"Winder","United States","monday: 9:00 AM-6:00 PM; tuesday: 9:00 AM-6:00 PM; wednesday: 9:00 AM-6:00 PM; thursday: 9:00 AM-6:00 PM; friday: 9:00 AM-6:00 PM; saturday: 9:00 AM-12:00 PM; sunday: False-False","33.988657","Winder","BranchId: 80","https://www.loansbyworld.com/","-83.720264","https://www.loansbyworld.com/locations/winder/","7708677461","GA","19457","55 E. May St.,  Ste B","30680"
"Winder","United States","monday: 9:00 AM-6:00 PM; tuesday: 9:00 AM-6:00 PM; wednesday: 9:00 AM-6:00 PM; thursday: 9:00 AM-6:00 PM; friday: 9:00 AM-6:00 PM; saturday: 9:00 AM-12:00 PM; sunday: False-False","33.988527","Winder","BranchId: 63","https://www.loansbyworld.com/","-83.722055","https://www.loansbyworld.com/locations/winder-2/","678-269-4960","GA","18274","39 E May St Ste E","30680"
"Lawrenceville","United States","monday: 9:00 AM-6:00 PM; tuesday: 9:00 AM-6:00 PM; wednesday: 9:00 AM-6:00 PM; thursday: 9:00 AM-6:00 PM; friday: 9:00 AM-6:00 PM; saturday: 9:00 AM-12:00 PM; sunday: False-False","33.949383","Lawrenceville","BranchId: 60","https://www.loansbyworld.com/","-83.985808","https://www.loansbyworld.com/locations/lawrenceville/","7709636169","GA","19459","134 S. Clayton Street,  Suite 20","30046"
"Newnan","United States","monday: 9:00 AM-6:00 PM; tuesday: 9:00 AM-6:00 PM; wednesday: 9:00 AM-6:00 PM; thursday: 9:00 AM-6:00 PM; friday: 9:00 AM-6:00 PM; saturday: 9:00 AM-12:00 PM; sunday: False-False","33.38643","Newnan","BranchId: 32","https://www.loansbyworld.com/","-84.78378","https://www.loansbyworld.com/locations/newnan/","7707556900","GA","19461","1111 Bullsboro Dr.,  Suite 5","30263"
"Dacula","United States","monday: 9:00 AM-6:00 PM; tuesday: 9:00 AM-6:00 PM; wednesday: 9:00 AM-6:00 PM; thursday: 9:00 AM-6:00 PM; friday: 9:00 AM-6:00 PM; saturday: 9:00 AM-12:00 PM; sunday: False-False","33.988605","Dacula","BranchId: 31","https://www.loansbyworld.com/","-83.898721","https://www.loansbyworld.com/locations/dacula/","6784421483","GA","19460","1250B Auburn Rd. Suite 204","30019"
"Atlanta","United States","monday: 9:00 AM-6:00 PM; tuesday: 9:00 AM-6:00 PM; wednesday: 9:00 AM-6:00 PM; thursday: 9:00 AM-6:00 PM; friday: 9:00 AM-6:00 PM; saturday: 9:00 AM-12:00 PM; sunday: False-False","33.752705","Atlanta Hightower","BranchId: 143","https://www.loansbyworld.com/","-84.474276","https://www.loansbyworld.com/locations/atlanta-hightower/","4046967772","GA","19417","2636 Martin Luther King Jr Dr SW St 8","30311"
"Atlanta","United States","monday: 9:00 AM-6:00 PM; tuesday: 9:00 AM-6:00 PM; wednesday: 9:00 AM-6:00 PM; thursday: 9:00 AM-6:00 PM; friday: 9:00 AM-6:00 PM; saturday: 9:00 AM-12:00 PM; sunday: False-False","33.822966","Atlanta SF","BranchId: 36","https://www.loansbyworld.com/","-84.367711","https://www.loansbyworld.com/locations/atlanta-sfc/","404-347-3707","GA","18369","1874 Piedmont Ave NE,  Suite 201B","30324"
"Duluth","United States","monday: 9:00 AM-6:00 PM; tuesday: 9:00 AM-6:00 PM; wednesday: 9:00 AM-6:00 PM; thursday: 9:00 AM-6:00 PM; friday: 9:00 AM-6:00 PM; saturday: 9:00 AM-12:00 PM; sunday: False-False","33.976491","Duluth","BranchId: 114","https://www.loansbyworld.com/","-84.082225","https://www.loansbyworld.com/locations/duluth/","6786828149","GA","19442","2320 Satellite Blvd,  Suite 160","30096"
"LaGrange","United States","monday: 9:00 AM-6:00 PM; tuesday: 9:00 AM-6:00 PM; wednesday: 9:00 AM-6:00 PM; thursday: 9:00 AM-6:00 PM; friday: 9:00 AM-6:00 PM; saturday: 9:00 AM-12:00 PM; sunday: False-False","33.041574","LaGrange SF","BranchId: 41","https://www.loansbyworld.com/","-84.982809","https://www.loansbyworld.com/locations/lagrange-sf/","706-882-0144","GA","18364","1470 Lafayette Pkwy,  Suite 210A","30241"
"Columbus","United States","monday: 9:00 AM-6:00 PM; tuesday: 9:00 AM-6:00 PM; wednesday: 9:00 AM-6:00 PM; thursday: 9:00 AM-6:00 PM; friday: 9:00 AM-6:00 PM; saturday: 9:00 AM-12:00 PM; sunday: False-False","32.53238","Columbus SF","BranchId: 39","https://www.loansbyworld.com/","-84.954569","https://www.loansbyworld.com/locations/columbus-sf/","706-257-5051","GA","18366","6100 Veterans Pkwy Suite 13B","31909"
"LaGrange","United States","monday: 9:00 AM-6:00 PM; tuesday: 9:00 AM-6:00 PM; wednesday: 9:00 AM-6:00 PM; thursday: 9:00 AM-6:00 PM; friday: 9:00 AM-6:00 PM; saturday: 9:00 AM-12:00 PM; sunday: False-False","33.051148","Lagrange","BranchId: 54","https://www.loansbyworld.com/","-85.028178","https://www.loansbyworld.com/locations/lagrange-2/","706-350-6180","GA","18276","422 New Franklin Rd Ste A","30240"
"Columbus","United States","monday: 9:00 AM-6:00 PM; tuesday: 9:00 AM-6:00 PM; wednesday: 9:00 AM-6:00 PM; thursday: 9:00 AM-6:00 PM; friday: 9:00 AM-6:00 PM; saturday: 9:00 AM-12:00 PM; sunday: False-False","32.460753","Columbus 1","BranchId: 133","https://www.loansbyworld.com/","-84.932372","https://www.loansbyworld.com/locations/columbus-1/","7066879220","GA","19426","3640 Buena Vista Road Suite 6","31906"
"Ashburn","United States","monday: 9:00 AM-6:00 PM; tuesday: 9:00 AM-6:00 PM; wednesday: 9:00 AM-6:00 PM; thursday: 9:00 AM-6:00 PM; friday: 9:00 AM-6:00 PM; saturday: 9:00 AM-12:00 PM; sunday: False-False","31.705499","Ashburn","BranchId: 58","https://www.loansbyworld.com/","-83.650763","https://www.loansbyworld.com/locations/ashburn/","2295673321","GA","18284","221 E Monroe Ave Ste A","31714"
"Lithia Springs","United States","monday: 9:00 AM-6:00 PM; tuesday: 9:00 AM-6:00 PM; wednesday: 9:00 AM-6:00 PM; thursday: 9:00 AM-6:00 PM; friday: 9:00 AM-6:00 PM; saturday: 9:00 AM-12:00 PM; sunday: False-False","33.780155","Lithia Springs","BranchId: 121","https://www.loansbyworld.com/","-84.606111","https://www.loansbyworld.com/locations/lithia-springs/","7709481200","GA","19434","900 Thornton Road Suite E","30122"
"Buford","United States","monday: 9:00 AM-6:00 PM; tuesday: 9:00 AM-6:00 PM; wednesday: 9:00 AM-6:00 PM; thursday: 9:00 AM-6:00 PM; friday: 9:00 AM-6:00 PM; saturday: 9:00 AM-12:00 PM; sunday: False-False","34.085848","Buford","BranchId: 57","https://www.loansbyworld.com/","-83.988356","https://www.loansbyworld.com/locations/buford/","470-589-5207","GA","18280","1935 Buford Mill Dr Ste E","30519"
"Columbus","United States","monday: 9:00 AM-6:00 PM; tuesday: 9:00 AM-6:00 PM; wednesday: 9:00 AM-6:00 PM; thursday: 9:00 AM-6:00 PM; friday: 9:00 AM-6:00 PM; saturday: 9:00 AM-12:00 PM; sunday: False-False","32.506042","Columbus","BranchId: 110","https://www.loansbyworld.com/","-84.977377","https://www.loansbyworld.com/locations/columbus/","7062575200","GA","19444","1056 Manchester Expressway,  Suite A-2","31904"
"Columbus","United States","monday: 9:00 AM-6:00 PM; tuesday: 9:00 AM-6:00 PM; wednesday: 9:00 AM-6:00 PM; thursday: 9:00 AM-6:00 PM; friday: 9:00 AM-6:00 PM; saturday: 9:00 AM-12:00 PM; sunday: False-False","32.411746","Columbus Victory","BranchId: 123","https://www.loansbyworld.com/","-84.94098","https://www.loansbyworld.com/locations/columbus-military/","7066826955","GA","19432","3941 Victory Drive Suite A","31903"
"Smyrna","United States","monday: 9:00 AM-6:00 PM; tuesday: 9:00 AM-6:00 PM; wednesday: 9:00 AM-6:00 PM; thursday: 9:00 AM-6:00 PM; friday: 9:00 AM-6:00 PM; saturday: 9:00 AM-12:00 PM; sunday: False-False","33.875067","Smyrna","BranchId: 17","https://www.loansbyworld.com/","-84.529806","https://www.loansbyworld.com/locations/smyrna/","7704345575","GA","19473","821 Concord Rd. SE,  Ste. K","30080"
"Sandy Springs","United States","monday: 9:00 AM-6:00 PM; tuesday: 9:00 AM-6:00 PM; wednesday: 9:00 AM-6:00 PM; thursday: 9:00 AM-6:00 PM; friday: 9:00 AM-6:00 PM; saturday: 9:00 AM-12:00 PM; sunday: False-False","33.987622","Sandy Springs TC","BranchId: 51","https://www.loansbyworld.com/","-84.351451","https://www.loansbyworld.com/locations/sandy-springs-tc/","770-640-7951","GA","18335","8590 Roswell Road","30350"
"Columbus","United States","monday: 9:00 AM-6:00 PM; tuesday: 9:00 AM-6:00 PM; wednesday: 9:00 AM-6:00 PM; thursday: 9:00 AM-6:00 PM; friday: 9:00 AM-6:00 PM; saturday: 9:00 AM-12:00 PM; sunday: False-False","32.469202","Columbus 3","BranchId: 135","https://www.loansbyworld.com/","-84.991299","https://www.loansbyworld.com/locations/columbus-3/","7063278885","GA","19422","1214 1st Avenue,  Suite 100","31901"
"Douglasville","United States","monday: 9:00 AM-6:00 PM; tuesday: 9:00 AM-6:00 PM; wednesday: 9:00 AM-6:00 PM; thursday: 9:00 AM-6:00 PM; friday: 9:00 AM-6:00 PM; saturday: 9:00 AM-12:00 PM; sunday: False-False","33.714258","Douglasville","BranchId: 184","https://www.loansbyworld.com/","-84.766458","https://www.loansbyworld.com/locations/douglasville/","7704895600","GA","19384","3318 Highway 5","30135"
"Phenix City","United States","monday: 9:00 AM-6:00 PM; tuesday: 9:00 AM-6:00 PM; wednesday: 9:00 AM-6:00 PM; thursday: 9:00 AM-6:00 PM; friday: 9:00 AM-6:00 PM; saturday: 9:00 AM-12:00 PM; sunday: False-False","32.476054","Phenix City","BranchId: 1536","https://www.loansbyworld.com/","-85.03483","https://www.loansbyworld.com/locations/phenix-city/","3347322762","AL","18593","3604 US Highway 431 N.","36867"
"Marietta","United States","monday: 9:00 AM-6:00 PM; tuesday: 9:00 AM-6:00 PM; wednesday: 9:00 AM-6:00 PM; thursday: 9:00 AM-6:00 PM; friday: 9:00 AM-6:00 PM; saturday: 9:00 AM-12:00 PM; sunday: False-False","33.949862","Marietta South","BranchId: 111","https://www.loansbyworld.com/","-84.512132","https://www.loansbyworld.com/locations/marietta-south/","7705783730","GA","19441","80 Powers Ferry Road,  Suite A-08","30067"
"Grovetown","United States","monday: 9:00 AM-6:00 PM; tuesday: 9:00 AM-6:00 PM; wednesday: 9:00 AM-6:00 PM; thursday: 9:00 AM-6:00 PM; friday: 9:00 AM-6:00 PM; saturday: 9:00 AM-12:00 PM; sunday: False-False","33.454286","Grovetown","BranchId: 119","https://www.loansbyworld.com/","-82.208945","https://www.loansbyworld.com/locations/grovetown/","7629940075","GA","19437","110 Harlem Grovetown Rd.,  Suite B","30813"
"Franklin","United States","monday: 9:00 AM-6:00 PM; tuesday: 9:00 AM-6:00 PM; wednesday: 9:00 AM-6:00 PM; thursday: 9:00 AM-6:00 PM; friday: 9:00 AM-6:00 PM; saturday: 9:00 AM-12:00 PM; sunday: False-False","33.279247","Franklin","BranchId: 140","https://www.loansbyworld.com/","-85.099873","https://www.loansbyworld.com/locations/franklin/","7066756733","GA","19419","137 S. Court Square","30217"
"Valley","United States","monday: 9:00 AM-6:00 PM; tuesday: 9:00 AM-6:00 PM; wednesday: 9:00 AM-6:00 PM; thursday: 9:00 AM-6:00 PM; friday: 9:00 AM-6:00 PM; saturday: 9:00 AM-12:00 PM; sunday: False-False","32.837507","Valley","BranchId: 1557","https://www.loansbyworld.com/","-85.175458","https://www.loansbyworld.com/locations/valley/","3345925022","AL","18574","3418 20th Avenue,  Suite J","36854"
"West Point","United States","monday: 9:00 AM-6:00 PM; tuesday: 9:00 AM-6:00 PM; wednesday: 9:00 AM-6:00 PM; thursday: 9:00 AM-6:00 PM; friday: 9:00 AM-6:00 PM; saturday: 9:00 AM-12:00 PM; sunday: False-False","32.87656","West Point","BranchId: 120","https://www.loansbyworld.com/","-85.184484","https://www.loansbyworld.com/locations/west-point/","7066452994","GA","19438","705 Third Avenue,  Suite B","31833"
"Waynesboro","United States","monday: 9:00 AM-6:00 PM; tuesday: 9:00 AM-6:00 PM; wednesday: 9:00 AM-6:00 PM; thursday: 9:00 AM-6:00 PM; friday: 9:00 AM-6:00 PM; saturday: 9:00 AM-12:00 PM; sunday: False-False","33.091191","Waynesboro","BranchId: 192","https://www.loansbyworld.com/","-82.01699","https://www.loansbyworld.com/locations/waynesboro/","7065545725","GA","19372","641 N. Liberty Street","30830"
"Ocilla","United States","monday: 9:00 AM-6:00 PM; tuesday: 9:00 AM-6:00 PM; wednesday: 9:00 AM-6:00 PM; thursday: 9:00 AM-6:00 PM; friday: 9:00 AM-6:00 PM; saturday: 9:00 AM-12:00 PM; sunday: False-False","31.59401","Ocilla","BranchId: 172","https://www.loansbyworld.com/","-83.249955","https://www.loansbyworld.com/locations/ocilla/","2294689448","GA","19392","113 East 4th Street","31774"
"Cumming","United States","monday: 9:00 AM-6:00 PM; tuesday: 9:00 AM-6:00 PM; wednesday: 9:00 AM-6:00 PM; thursday: 9:00 AM-6:00 PM; friday: 9:00 AM-6:00 PM; saturday: 9:00 AM-12:00 PM; sunday: False-False","34.188733","Cumming","BranchId: 165","https://www.loansbyworld.com/","-84.139102","https://www.loansbyworld.com/locations/cumming/","7708873076","GA","19400","580 Atlanta Highway,  Suite 226","30040"
"Villa Rica","United States","monday: 9:00 AM-6:00 PM; tuesday: 9:00 AM-6:00 PM; wednesday: 9:00 AM-6:00 PM; thursday: 9:00 AM-6:00 PM; friday: 9:00 AM-6:00 PM; saturday: 9:00 AM-12:00 PM; sunday: False-False","33.725887","Villa Rica","BranchId: 104","https://www.loansbyworld.com/","-84.939975","https://www.loansbyworld.com/locations/villa-rica/","7704591545","GA","19445","88 Highway 61 connector","30180"
"Carrollton","United States","monday: 9:00 AM-6:00 PM; tuesday: 9:00 AM-6:00 PM; wednesday: 9:00 AM-6:00 PM; thursday: 9:00 AM-6:00 PM; friday: 9:00 AM-6:00 PM; saturday: 9:00 AM-12:00 PM; sunday: False-False","33.553755","Carrollton SF","BranchId: 38","https://www.loansbyworld.com/","-85.073512","https://www.loansbyworld.com/locations/carrollton-sf/","7708306122","GA","18367","1670 S. Highway 27,  Suite 1000","30117"
"Albany","United States","monday: 9:00 AM-6:00 PM; tuesday: 9:00 AM-6:00 PM; wednesday: 9:00 AM-6:00 PM; thursday: 9:00 AM-6:00 PM; friday: 9:00 AM-6:00 PM; saturday: 9:00 AM-12:00 PM; sunday: False-False","31.617139","Albany","BranchId: 93","https://www.loansbyworld.com/","-84.212894","https://www.loansbyworld.com/locations/albany-2/","2294357251","GA","19452","1104 North Westover Rd,  Suite 2","31707"
"Gainesville","United States","monday: 9:00 AM-6:00 PM; tuesday: 9:00 AM-6:00 PM; wednesday: 9:00 AM-6:00 PM; thursday: 9:00 AM-6:00 PM; friday: 9:00 AM-6:00 PM; saturday: 9:00 AM-12:00 PM; sunday: False-False","34.297072","Gainesville","BranchId: 167","https://www.loansbyworld.com/","-83.839471","https://www.loansbyworld.com/locations/gainesville/","7705326329","GA","19397","250 John W. Morrow Jr.,  Pkwy,  Suite 101","30501"
"Albany","United States","monday: 9:00 AM-6:00 PM; tuesday: 9:00 AM-6:00 PM; wednesday: 9:00 AM-6:00 PM; thursday: 9:00 AM-6:00 PM; friday: 9:00 AM-6:00 PM; saturday: 9:00 AM-12:00 PM; sunday: False-False","31.603093","Albany SF","BranchId: 34","https://www.loansbyworld.com/","-84.203347","https://www.loansbyworld.com/locations/albany-sf/","2294357118","GA","18325","2231 Dawson Rd,  Suite B","31707"
"Albany","United States","monday: 9:00 AM-6:00 PM; tuesday: 9:00 AM-6:00 PM; wednesday: 9:00 AM-6:00 PM; thursday: 9:00 AM-6:00 PM; friday: 9:00 AM-6:00 PM; saturday: 9:00 AM-12:00 PM; sunday: False-False","31.576651","Albany","BranchId: 179","https://www.loansbyworld.com/","-84.153901","https://www.loansbyworld.com/locations/albany-3/","2294354700","GA","19388","300 West Broad Street","31701"
"Carrollton","United States","monday: 9:00 AM-6:00 PM; tuesday: 9:00 AM-6:00 PM; wednesday: 9:00 AM-6:00 PM; thursday: 9:00 AM-6:00 PM; friday: 9:00 AM-6:00 PM; saturday: 9:00 AM-12:00 PM; sunday: False-False","33.599565","Carrollton","BranchId: 132","https://www.loansbyworld.com/","-85.081054","https://www.loansbyworld.com/locations/carrollton/","6787969898","GA","19425","1124 N. Park St. Suite C","30117"
"Augusta","United States","monday: 9:00 AM-6:00 PM; tuesday: 9:00 AM-6:00 PM; wednesday: 9:00 AM-6:00 PM; thursday: 9:00 AM-6:00 PM; friday: 9:00 AM-6:00 PM; saturday: 9:00 AM-12:00 PM; sunday: False-False","33.409043","Augusta Southwest","BranchId: 48","https://www.loansbyworld.com/","-82.023429","https://www.loansbyworld.com/locations/augusta-southwest/","(706) 214-2122","GA","18299","3206 Peach Orchard Road,  Suite G","30906"
"Augusta","United States","monday: 9:00 AM-6:00 PM; tuesday: 9:00 AM-6:00 PM; wednesday: 9:00 AM-6:00 PM; thursday: 9:00 AM-6:00 PM; friday: 9:00 AM-6:00 PM; saturday: 9:00 AM-12:00 PM; sunday: False-False","33.47014","Augusta South","BranchId: 131","https://www.loansbyworld.com/","-82.035789","https://www.loansbyworld.com/locations/augusta-south/","7067384878","GA","19424","2803 Wrightsboro Road,  Suite 20B","30909"
"Ashland","United States","monday: 8:30 AM-5:30 PM; tuesday: 8:30 AM-5:30 PM; wednesday: 8:30 AM-5:30 PM; thursday: 8:30 AM-5:30 PM; friday: 8:30 AM-5:30 PM; saturday: 9:00 AM-12:00 PM; sunday: False-False","38.50291","Ashland","BranchId: 1471","https://www.loansbyworld.com/","-82.679127","https://www.loansbyworld.com/locations/ashland/","6063275551","KY","18637","379 Diedrich Blvd.","41101"
"South Williamson","United States","monday: 8:30 AM-5:30 PM; tuesday: 8:30 AM-5:30 PM; wednesday: 8:30 AM-5:30 PM; thursday: 8:30 AM-5:30 PM; friday: 8:30 AM-5:30 PM; saturday: 9:00 AM-12:00 PM; sunday: False-False","37.667757","South Williamson","BranchId: 1465","https://www.loansbyworld.com/","-82.274914","https://www.loansbyworld.com/locations/south-williamson/","6062375115","KY","18642","162 Appalachian Plaza","41503"
"Louisa","United States","monday: 8:30 AM-5:30 PM; tuesday: 8:30 AM-5:30 PM; wednesday: 8:30 AM-5:30 PM; thursday: 8:30 AM-5:30 PM; friday: 8:30 AM-5:30 PM; saturday: 9:00 AM-12:00 PM; sunday: False-False","38.043346","Louisa","BranchId: 1429","https://www.loansbyworld.com/","-82.646875","https://www.loansbyworld.com/locations/louisa/","6066384080","KY","18676","4361 Highway 2565","41230"
"Dallas","United States","monday: 9:00 AM-6:00 PM; tuesday: 9:00 AM-6:00 PM; wednesday: 9:00 AM-6:00 PM; thursday: 9:00 AM-6:00 PM; friday: 9:00 AM-6:00 PM; saturday: 9:00 AM-12:00 PM; sunday: False-False","32.857803","Dallas Central","BranchId: 1758","https://www.loansbyworld.com/","-96.747518","https://www.loansbyworld.com/locations/dallas-central/","2149871240","TX","18494","6012 Abrams Road,  Suite 101","75231"
"Garland","United States","monday: 9:00 AM-6:00 PM; tuesday: 9:00 AM-6:00 PM; wednesday: 9:00 AM-6:00 PM; thursday: 9:00 AM-6:00 PM; friday: 9:00 AM-6:00 PM; saturday: 9:00 AM-12:00 PM; sunday: False-False","32.873841","Garland","BranchId: 431","https://www.loansbyworld.com/","-96.616394","https://www.loansbyworld.com/locations/garland/","9728400222","TX","19251","3345 Broadway Boulevard,  Suite 101","75043"
"Dallas","United States","monday: 9:00 AM-6:00 PM; tuesday: 9:00 AM-6:00 PM; wednesday: 9:00 AM-6:00 PM; thursday: 9:00 AM-6:00 PM; friday: 9:00 AM-6:00 PM; saturday: 9:00 AM-12:00 PM; sunday: False-False","32.793727","Dallas East","BranchId: 496","https://www.loansbyworld.com/","-96.747716","https://www.loansbyworld.com/locations/dallas-east/","2148239252","TX","19190","5521 East Grand Avenue","75223"
"Mesquite","United States","monday: 9:00 AM-6:00 PM; tuesday: 9:00 AM-6:00 PM; wednesday: 9:00 AM-6:00 PM; thursday: 9:00 AM-6:00 PM; friday: 9:00 AM-6:00 PM; saturday: 9:00 AM-12:00 PM; sunday: False-False","32.782576","Mesquite","BranchId: 1793","https://www.loansbyworld.com/","-96.600492","https://www.loansbyworld.com/locations/mesquite/","9722851510","TX","18476","1336 N. Galloway Ave.,  Suite 128","75149"
"Dallas","United States","monday: 9:00 AM-6:00 PM; tuesday: 9:00 AM-6:00 PM; wednesday: 9:00 AM-6:00 PM; thursday: 9:00 AM-6:00 PM; friday: 9:00 AM-6:00 PM; saturday: 9:00 AM-12:00 PM; sunday: False-False","32.855002","Dallas West","BranchId: 1756","https://www.loansbyworld.com/","-96.866169","https://www.loansbyworld.com/locations/dallas-west/","2143501644","TX","18496","3021 Bachman Drive,  Suite 106","75220"
"Dallas","United States","monday: 9:00 AM-6:00 PM; tuesday: 9:00 AM-6:00 PM; wednesday: 9:00 AM-6:00 PM; thursday: 9:00 AM-6:00 PM; friday: 9:00 AM-6:00 PM; saturday: 9:00 AM-12:00 PM; sunday: False-False","32.744599","Dallas South","BranchId: 1726","https://www.loansbyworld.com/","-96.683457","https://www.loansbyworld.com/locations/dallas-south/","2143913603","TX","18525","1909 South Buckner Blvd.","75217"
"Dallas","United States","monday: 9:00 AM-6:00 PM; tuesday: 9:00 AM-6:00 PM; wednesday: 9:00 AM-6:00 PM; thursday: 9:00 AM-6:00 PM; friday: 9:00 AM-6:00 PM; saturday: 9:00 AM-12:00 PM; sunday: False-False","32.757334","Dallas","BranchId: 411","https://www.loansbyworld.com/","-96.822429","https://www.loansbyworld.com/locations/dallas/","2149429933","TX","19271","1133 North Zang Boulevard,  Suite 106","75203"
"Plano","United States","monday: 9:00 AM-6:00 PM; tuesday: 9:00 AM-6:00 PM; wednesday: 9:00 AM-6:00 PM; thursday: 9:00 AM-6:00 PM; friday: 9:00 AM-6:00 PM; saturday: 9:00 AM-12:00 PM; sunday: False-False","33.039432","Plano","BranchId: 1759","https://www.loansbyworld.com/","-96.708287","https://www.loansbyworld.com/locations/plano/","9724235285","TX","18495","230 West Parker Rd.,  Suite 180B","75075"
"Dallas","United States","monday: 9:00 AM-6:00 PM; tuesday: 9:00 AM-6:00 PM; wednesday: 9:00 AM-6:00 PM; thursday: 9:00 AM-6:00 PM; friday: 9:00 AM-6:00 PM; saturday: 9:00 AM-12:00 PM; sunday: False-False","32.742937","Dallas","BranchId: 421","https://www.loansbyworld.com/","-96.824368","https://www.loansbyworld.com/locations/dallas-2/","2149416933","TX","19262","134 West Jefferson Boulevard","75208"
"Carrollton","United States","monday: 9:00 AM-6:00 PM; tuesday: 9:00 AM-6:00 PM; wednesday: 9:00 AM-6:00 PM; thursday: 9:00 AM-6:00 PM; friday: 9:00 AM-6:00 PM; saturday: 9:00 AM-12:00 PM; sunday: False-False","32.974646","Carrollton","BranchId: 1776","https://www.loansbyworld.com/","-96.88849","https://www.loansbyworld.com/locations/carrollton-3/","9722456194","TX","18488","2150 N. Josey Lane,  Suite 218","75006"
"Balch Springs","United States","monday: 9:00 AM-6:00 PM; tuesday: 9:00 AM-6:00 PM; wednesday: 9:00 AM-6:00 PM; thursday: 9:00 AM-6:00 PM; friday: 9:00 AM-6:00 PM; saturday: 9:00 AM-12:00 PM; sunday: False-False","32.713696","Balch Springs","BranchId: 1613","https://www.loansbyworld.com/","-96.606122","https://www.loansbyworld.com/locations/balchsprings/","9722874181","TX","18548","4101 Pioneer Road Suite 200","75180"
"Wylie","United States","monday: 9:00 AM-6:00 PM; tuesday: 9:00 AM-6:00 PM; wednesday: 9:00 AM-6:00 PM; thursday: 9:00 AM-6:00 PM; friday: 9:00 AM-6:00 PM; saturday: 9:00 AM-12:00 PM; sunday: False-False","33.016068","Wylie","BranchId: 1707","https://www.loansbyworld.com/","-96.532576","https://www.loansbyworld.com/locations/wylie/","9724297757","TX","18540","620 North Highway 78,  Ste 624","75098"
"Irving","United States","monday: 9:00 AM-6:00 PM; tuesday: 9:00 AM-6:00 PM; wednesday: 9:00 AM-6:00 PM; thursday: 9:00 AM-6:00 PM; friday: 9:00 AM-6:00 PM; saturday: 9:00 AM-12:00 PM; sunday: False-False","32.824762","Irving South","BranchId: 1617","https://www.loansbyworld.com/","-96.968826","https://www.loansbyworld.com/locations/irving-south-tcc/","4694729123","TX","18358","1900 West Irving Boulevard,  Suite 103","75060"
"Irving","United States","monday: 9:00 AM-6:00 PM; tuesday: 9:00 AM-6:00 PM; wednesday: 9:00 AM-6:00 PM; thursday: 9:00 AM-6:00 PM; friday: 9:00 AM-6:00 PM; saturday: 9:00 AM-12:00 PM; sunday: False-False","32.835346","Irving","BranchId: 462","https://www.loansbyworld.com/","-96.976307","https://www.loansbyworld.com/locations/irving/","9722561384","TX","19221","1916 North Story Road","75061"
"Dallas","United States","monday: 9:00 AM-6:00 PM; tuesday: 9:00 AM-6:00 PM; wednesday: 9:00 AM-6:00 PM; thursday: 9:00 AM-6:00 PM; friday: 9:00 AM-6:00 PM; saturday: 9:00 AM-12:00 PM; sunday: False-False","32.719591","Dallas Southwest","BranchId: 1784","https://www.loansbyworld.com/","-96.907455","https://www.loansbyworld.com/locations/dallas-southwest/","2143392202","TX","18484","4950 W. Illinois Ave,  Suite 117","75211"
"The Colony","United States","monday: 9:00 AM-6:00 PM; tuesday: 9:00 AM-6:00 PM; wednesday: 9:00 AM-6:00 PM; thursday: 9:00 AM-6:00 PM; friday: 9:00 AM-6:00 PM; saturday: 9:00 AM-12:00 PM; sunday: False-False","33.074407","The Colony","BranchId: 1794","https://www.loansbyworld.com/","-96.891932","https://www.loansbyworld.com/locations/the-colony/","2144691292","TX","18473","4300 Main Street,  Suite 500","75056"
"Dallas","United States","monday: 9:00 AM-6:00 PM; tuesday: 9:00 AM-6:00 PM; wednesday: 9:00 AM-6:00 PM; thursday: 9:00 AM-6:00 PM; friday: 9:00 AM-6:00 PM; saturday: 9:00 AM-12:00 PM; sunday: False-False","32.663828","Duncanville","BranchId: 1742","https://www.loansbyworld.com/","-96.873668","https://www.loansbyworld.com/locations/duncanville/","(972) 780-5805","TX","18507","3333 W Camp Wisdom Rd,  Ste 112","75237"
"Lancaster","United States","monday: 9:00 AM-6:00 PM; tuesday: 9:00 AM-6:00 PM; wednesday: 9:00 AM-6:00 PM; thursday: 9:00 AM-6:00 PM; friday: 9:00 AM-6:00 PM; saturday: 9:00 AM-12:00 PM; sunday: False-False","32.606105","Lancaster","BranchId: 463","https://www.loansbyworld.com/","-96.778407","https://www.loansbyworld.com/locations/lancaster-2/","9722186591","TX","19222","1019 W. Pleasant Run Road","75146"
"Lewisville","United States","monday: 9:00 AM-6:00 PM; tuesday: 9:00 AM-6:00 PM; wednesday: 9:00 AM-6:00 PM; thursday: 9:00 AM-6:00 PM; friday: 9:00 AM-6:00 PM; saturday: 9:00 AM-12:00 PM; sunday: False-False","33.03847","Lewisville","BranchId: 1728","https://www.loansbyworld.com/","-96.993272","https://www.loansbyworld.com/locations/lewisville/","9729569639","TX","18522","817 South Mill Street,  Suite 102","75057"
"Desoto","United States","monday: 9:00 AM-6:00 PM; tuesday: 9:00 AM-6:00 PM; wednesday: 9:00 AM-6:00 PM; thursday: 9:00 AM-6:00 PM; friday: 9:00 AM-6:00 PM; saturday: 9:00 AM-12:00 PM; sunday: False-False","32.601903","Desoto","BranchId: 1610","https://www.loansbyworld.com/","-96.857859","https://www.loansbyworld.com/locations/desoto/","9722740909","TX","18550","719 N. Hampton Road,  Suite 207","75115"
"Grand Prairie","United States","monday: 9:00 AM-6:00 PM; tuesday: 9:00 AM-6:00 PM; wednesday: 9:00 AM-6:00 PM; thursday: 9:00 AM-6:00 PM; friday: 9:00 AM-6:00 PM; saturday: 9:00 AM-12:00 PM; sunday: False-False","32.708683","Grand Prairie","BranchId: 516","https://www.loansbyworld.com/","-97.011203","https://www.loansbyworld.com/locations/grand-prairie/","9722637247","TX","19169","525 West Pioneer Pkwy,  Suite 549","75051"
"McKinney","United States","monday: 9:00 AM-6:00 PM; tuesday: 9:00 AM-6:00 PM; wednesday: 9:00 AM-6:00 PM; thursday: 9:00 AM-6:00 PM; friday: 9:00 AM-6:00 PM; saturday: 9:00 AM-12:00 PM; sunday: False-False","33.20085","McKinney","BranchId: 519","https://www.loansbyworld.com/","-96.61254","https://www.loansbyworld.com/locations/mckinney/","9725429461","TX","19168","405 N. McDonald Street,  Suite A","75069"
"Bedford","United States","monday: 9:00 AM-6:00 PM; tuesday: 9:00 AM-6:00 PM; wednesday: 9:00 AM-6:00 PM; thursday: 9:00 AM-6:00 PM; friday: 9:00 AM-6:00 PM; saturday: 9:00 AM-12:00 PM; sunday: False-False","32.851039","Bedford","BranchId: 1796","https://www.loansbyworld.com/","-97.131983","https://www.loansbyworld.com/locations/bedford/","8173584588","TX","18475","2841 Central Drive","76021"
"Arlington","United States","monday: 9:00 AM-6:00 PM; tuesday: 9:00 AM-6:00 PM; wednesday: 9:00 AM-6:00 PM; thursday: 9:00 AM-6:00 PM; friday: 9:00 AM-6:00 PM; saturday: 9:00 AM-12:00 PM; sunday: False-False","32.733774","Arlington North","BranchId: 1786","https://www.loansbyworld.com/","-97.097016","https://www.loansbyworld.com/locations/arlington-north/","8173031414","TX","18481","2544 E. Abram Street,  Suite 105","76010"
"Terrell","United States","monday: 9:00 AM-6:00 PM; tuesday: 9:00 AM-6:00 PM; wednesday: 9:00 AM-6:00 PM; thursday: 9:00 AM-6:00 PM; friday: 9:00 AM-6:00 PM; saturday: 9:00 AM-12:00 PM; sunday: False-False","32.739532","Terrell","BranchId: 506","https://www.loansbyworld.com/","-96.285348","https://www.loansbyworld.com/locations/terrell/","9725635786","TX","19181","101-B Sage Street","75160"
"Arlington","United States","monday: 9:00 AM-6:00 PM; tuesday: 9:00 AM-6:00 PM; wednesday: 9:00 AM-6:00 PM; thursday: 9:00 AM-6:00 PM; friday: 9:00 AM-6:00 PM; saturday: 9:00 AM-12:00 PM; sunday: False-False","32.700481","Arlington","BranchId: 498","https://www.loansbyworld.com/","-97.121178","https://www.loansbyworld.com/locations/arlington/","8174193645","TX","19188","2637 South Cooper Street","76015"
"North Richland Hills","United States","monday: 9:00 AM-6:00 PM; tuesday: 9:00 AM-6:00 PM; wednesday: 9:00 AM-6:00 PM; thursday: 9:00 AM-6:00 PM; friday: 9:00 AM-6:00 PM; saturday: 9:00 AM-12:00 PM; sunday: False-False","32.848433","North Richland Hills","BranchId: 574","https://www.loansbyworld.com/","-97.237988","https://www.loansbyworld.com/locations/north-richland-hills/","8174270800","TX","19113","5600 Rufe Snow Drive,  Suite 115","76180"
"Mansfield","United States","monday: 9:00 AM-6:00 PM; tuesday: 9:00 AM-6:00 PM; wednesday: 9:00 AM-6:00 PM; thursday: 9:00 AM-6:00 PM; friday: 9:00 AM-6:00 PM; saturday: 9:00 AM-12:00 PM; sunday: False-False","32.583089","Mansfield","BranchId: 1798","https://www.loansbyworld.com/","-97.129544","https://www.loansbyworld.com/locations/mansfield-2/","8174739818","TX","18472","990 Highway 287 N. Ste. 107","76063"
"Haltom City","United States","monday: 9:00 AM-6:00 PM; tuesday: 9:00 AM-6:00 PM; wednesday: 9:00 AM-6:00 PM; thursday: 9:00 AM-6:00 PM; friday: 9:00 AM-6:00 PM; saturday: 9:00 AM-12:00 PM; sunday: False-False","32.804178","Haltom City","BranchId: 1625","https://www.loansbyworld.com/","-97.264991","https://www.loansbyworld.com/locations/haltom-city/","682-204-1444","TX","18288","3159 Denton Highway Suite C","76117"
"Waxahachie","United States","monday: 9:00 AM-6:00 PM; tuesday: 9:00 AM-6:00 PM; wednesday: 9:00 AM-6:00 PM; thursday: 9:00 AM-6:00 PM; friday: 9:00 AM-6:00 PM; saturday: 9:00 AM-12:00 PM; sunday: False-False","32.409529","Waxahachie","BranchId: 429","https://www.loansbyworld.com/","-96.843924","https://www.loansbyworld.com/locations/waxahachie/","9729378093","TX","19254","507 North Highway 77,  Suite 804","75165"
"Denton","United States","monday: 9:00 AM-6:00 PM; tuesday: 9:00 AM-6:00 PM; wednesday: 9:00 AM-6:00 PM; thursday: 9:00 AM-6:00 PM; friday: 9:00 AM-6:00 PM; saturday: 9:00 AM-12:00 PM; sunday: False-False","33.229659","Denton","BranchId: 475","https://www.loansbyworld.com/","-97.139784","https://www.loansbyworld.com/locations/denton/","9403875534","TX","19211","711 Sunset Street","76201"
"Fort Worth","United States","monday: 9:00 AM-6:00 PM; tuesday: 9:00 AM-6:00 PM; wednesday: 9:00 AM-6:00 PM; thursday: 9:00 AM-6:00 PM; friday: 9:00 AM-6:00 PM; saturday: 9:00 AM-12:00 PM; sunday: False-False","32.733783","Fort Worth","BranchId: 425","https://www.loansbyworld.com/","-97.330419","https://www.loansbyworld.com/locations/fort-worth/","8173364406","TX","19261","508 West Rosedale Street","76104"
"Saginaw","United States","monday: 9:00 AM-6:00 PM; tuesday: 9:00 AM-6:00 PM; wednesday: 9:00 AM-6:00 PM; thursday: 9:00 AM-6:00 PM; friday: 9:00 AM-6:00 PM; saturday: 9:00 AM-12:00 PM; sunday: False-False","32.854094","Saginaw","BranchId: 1747","https://www.loansbyworld.com/","-97.362085","https://www.loansbyworld.com/locations/saginaw/","8173065124","TX","18506","528 S. Saginaw Blvd.","76179"
"Ennis","United States","monday: 9:00 AM-6:00 PM; tuesday: 9:00 AM-6:00 PM; wednesday: 9:00 AM-6:00 PM; thursday: 9:00 AM-6:00 PM; friday: 9:00 AM-6:00 PM; saturday: 9:00 AM-12:00 PM; sunday: False-False","32.327688","Ennis","BranchId: 1713","https://www.loansbyworld.com/","-96.627978","https://www.loansbyworld.com/locations/ennis/","9728754970","TX","18536","112 West Ennis Avenue","75119"
"Greenville","United States","monday: 9:00 AM-6:00 PM; tuesday: 9:00 AM-6:00 PM; wednesday: 9:00 AM-6:00 PM; thursday: 9:00 AM-6:00 PM; friday: 9:00 AM-6:00 PM; saturday: 9:00 AM-12:00 PM; sunday: False-False","33.122585","Greenville","BranchId: 403","https://www.loansbyworld.com/","-96.108764","https://www.loansbyworld.com/locations/greenville-3/","9034559669","TX","19283","4717 Wesley Street,  Suite A","75401"
"Fort Worth","United States","monday: 9:00 AM-6:00 PM; tuesday: 9:00 AM-6:00 PM; wednesday: 9:00 AM-6:00 PM; thursday: 9:00 AM-6:00 PM; friday: 9:00 AM-6:00 PM; saturday: 9:00 AM-12:00 PM; sunday: False-False","32.705599","Fort Worth Berry","BranchId: 408","https://www.loansbyworld.com/","-97.34418","https://www.loansbyworld.com/locations/fort-worth-berry/","8179260976","TX","19277","1601 W Berry St,  Suite 201","76110"
"Fort Worth","United States","monday: 9:00 AM-6:00 PM; tuesday: 9:00 AM-6:00 PM; wednesday: 9:00 AM-6:00 PM; thursday: 9:00 AM-6:00 PM; friday: 9:00 AM-6:00 PM; saturday: 9:00 AM-12:00 PM; sunday: False-False","32.784969","Fort Worth NW","BranchId: 1773","https://www.loansbyworld.com/","-97.381719","https://www.loansbyworld.com/locations/fort-worth-nw/","8173780933","TX","18490","2246 Jacksboro Highway,  Suite 128","76114"
"Fort Worth","United States","monday: 9:00 AM-6:00 PM; tuesday: 9:00 AM-6:00 PM; wednesday: 9:00 AM-6:00 PM; thursday: 9:00 AM-6:00 PM; friday: 9:00 AM-6:00 PM; saturday: 9:00 AM-12:00 PM; sunday: False-False","32.669288","Fort Worth South","BranchId: 464","https://www.loansbyworld.com/","-97.354916","https://www.loansbyworld.com/locations/fort-worth-south/","8179272277","TX","19223","5201 McCart Avenue,  Suite 107","76115"
"Fort Worth","United States","monday: 9:00 AM-6:00 PM; tuesday: 9:00 AM-6:00 PM; wednesday: 9:00 AM-6:00 PM; thursday: 9:00 AM-6:00 PM; friday: 9:00 AM-6:00 PM; saturday: 9:00 AM-12:00 PM; sunday: False-False","32.732671","Fort Worth TCC","BranchId: 1616","https://www.loansbyworld.com/","-97.4402","https://www.loansbyworld.com/locations/fort-worth-tcc/","8175706004","TX","18357","2901 Alta Mere Drive,  Suite 500","76116"
"Whitesettlement","United States","monday: 9:00 AM-6:00 PM; tuesday: 9:00 AM-6:00 PM; wednesday: 9:00 AM-6:00 PM; thursday: 9:00 AM-6:00 PM; friday: 9:00 AM-6:00 PM; saturday: 9:00 AM-12:00 PM; sunday: False-False","32.756384","Whitesettlement","BranchId: 1712","https://www.loansbyworld.com/","-97.450582","https://www.loansbyworld.com/locations/whitesettlement/","8172466717","TX","18535","601 South Cherry Lane,  Suite C","76108"
"Burleson","United States","monday: 9:00 AM-6:00 PM; tuesday: 9:00 AM-6:00 PM; wednesday: 9:00 AM-6:00 PM; thursday: 9:00 AM-6:00 PM; friday: 9:00 AM-6:00 PM; saturday: 9:00 AM-12:00 PM; sunday: False-False","32.526505","Burleson","BranchId: 1762","https://www.loansbyworld.com/","-97.339924","https://www.loansbyworld.com/locations/burleson/","8174260820","TX","18491","1055 SW Wilshire Blvd.,  Suite 301-C","76028"
"Sherman","United States","monday: 9:00 AM-6:00 PM; tuesday: 9:00 AM-6:00 PM; wednesday: 9:00 AM-6:00 PM; thursday: 9:00 AM-6:00 PM; friday: 9:00 AM-6:00 PM; saturday: 9:00 AM-12:00 PM; sunday: False-False","33.658106","Sherman","BranchId: 415","https://www.loansbyworld.com/","-96.605716","https://www.loansbyworld.com/locations/sherman/","903-328-6219","TX","19270","1926 N. Grand Avenue","75090"
"Cleburne","United States","monday: 9:00 AM-6:00 PM; tuesday: 9:00 AM-6:00 PM; wednesday: 9:00 AM-6:00 PM; thursday: 9:00 AM-6:00 PM; friday: 9:00 AM-6:00 PM; saturday: 9:00 AM-12:00 PM; sunday: False-False","32.34184","Cleburne","BranchId: 529","https://www.loansbyworld.com/","-97.42625","https://www.loansbyworld.com/locations/cleburne/","8176411960","TX","19157","708 N. Nolan River Road,  Suite B","76033"
"Corsicana","United States","monday: 9:00 AM-6:00 PM; tuesday: 9:00 AM-6:00 PM; wednesday: 9:00 AM-6:00 PM; thursday: 9:00 AM-6:00 PM; friday: 9:00 AM-6:00 PM; saturday: 9:00 AM-12:00 PM; sunday: False-False","32.091996","Corsicana","BranchId: 417","https://www.loansbyworld.com/","-96.470615","https://www.loansbyworld.com/locations/corsicana/","9038727401","TX","19268","200 North 15th Street,  Suite 13","75110"
"Decatur","United States","monday: 9:00 AM-6:00 PM; tuesday: 9:00 AM-6:00 PM; wednesday: 9:00 AM-6:00 PM; thursday: 9:00 AM-6:00 PM; friday: 9:00 AM-6:00 PM; saturday: 9:00 AM-12:00 PM; sunday: False-False","33.22184","Decatur","BranchId: 577","https://www.loansbyworld.com/","-97.594908","https://www.loansbyworld.com/locations/decatur-3/","9406272018","TX","19111","1504 South FM 51","76234"
"Gainesville","United States","monday: 9:00 AM-6:00 PM; tuesday: 9:00 AM-6:00 PM; wednesday: 9:00 AM-6:00 PM; thursday: 9:00 AM-6:00 PM; friday: 9:00 AM-6:00 PM; saturday: 9:00 AM-12:00 PM; sunday: False-False","33.623985","Gainesville","BranchId: 584","https://www.loansbyworld.com/","-97.136162","https://www.loansbyworld.com/locations/gainesville-2/","9406688838","TX","19102","406 North Grand Avenue Suite 104","76240"
"Bonham","United States","monday: 9:00 AM-6:00 PM; tuesday: 9:00 AM-6:00 PM; wednesday: 9:00 AM-6:00 PM; thursday: 9:00 AM-6:00 PM; friday: 9:00 AM-6:00 PM; saturday: 9:00 AM-12:00 PM; sunday: False-False","33.590036","Bonham","BranchId: 555","https://www.loansbyworld.com/","-96.17789","https://www.loansbyworld.com/locations/bonham/","9035834270","TX","19133","1609 N. Center Street,  Suite C","75418"
"Denison","United States","monday: 9:00 AM-6:00 PM; tuesday: 9:00 AM-6:00 PM; wednesday: 9:00 AM-6:00 PM; thursday: 9:00 AM-6:00 PM; friday: 9:00 AM-6:00 PM; saturday: 9:00 AM-12:00 PM; sunday: False-False","33.75532","Denison","BranchId: 493","https://www.loansbyworld.com/","-96.545506","https://www.loansbyworld.com/locations/denison/","9034654858","TX","19191","720 West Main Street","75020"
"Weatherford","United States","monday: 9:00 AM-6:00 PM; tuesday: 9:00 AM-6:00 PM; wednesday: 9:00 AM-6:00 PM; thursday: 9:00 AM-6:00 PM; friday: 9:00 AM-6:00 PM; saturday: 9:00 AM-12:00 PM; sunday: False-False","32.738249","Weatherford","BranchId: 461","https://www.loansbyworld.com/","-97.798149","https://www.loansbyworld.com/locations/weatherford/","8175990777","TX","19225","1708 Bethel Rd","76086"
"Hillsboro","United States","monday: 9:00 AM-6:00 PM; tuesday: 9:00 AM-6:00 PM; wednesday: 9:00 AM-6:00 PM; thursday: 9:00 AM-6:00 PM; friday: 9:00 AM-6:00 PM; saturday: 9:00 AM-12:00 PM; sunday: False-False","32.006795","Hillsboro","BranchId: 553","https://www.loansbyworld.com/","-97.099509","https://www.loansbyworld.com/locations/hillsboro/","2545827616","TX","19135","1320 Corsicana Highway,  STE 190","76645"
"Sulphur Springs","United States","monday: 9:00 AM-6:00 PM; tuesday: 9:00 AM-6:00 PM; wednesday: 9:00 AM-6:00 PM; thursday: 9:00 AM-6:00 PM; friday: 9:00 AM-6:00 PM; saturday: 9:00 AM-12:00 PM; sunday: False-False","33.124483","Sulphur Springs","BranchId: 424","https://www.loansbyworld.com/","-95.597665","https://www.loansbyworld.com/locations/sulphur-springs/","9038850811","TX","19260","1009 Gilmer Street","75482"
"Athens","United States","monday: 9:00 AM-6:00 PM; tuesday: 9:00 AM-6:00 PM; wednesday: 9:00 AM-6:00 PM; thursday: 9:00 AM-6:00 PM; friday: 9:00 AM-6:00 PM; saturday: 9:00 AM-12:00 PM; sunday: False-False","32.206633","Athens","BranchId: 531","https://www.loansbyworld.com/","-95.848222","https://www.loansbyworld.com/locations/athens-2/","9036759054","TX","19156","607 East Tyler Street,  Suite 110-A","75751"
"Granbury","United States","monday: 9:00 AM-6:00 PM; tuesday: 9:00 AM-6:00 PM; wednesday: 9:00 AM-6:00 PM; thursday: 9:00 AM-6:00 PM; friday: 9:00 AM-6:00 PM; saturday: 9:00 AM-12:00 PM; sunday: False-False","32.436028","Granbury","BranchId: 489","https://www.loansbyworld.com/","-97.768244","https://www.loansbyworld.com/locations/granbury/","8174083565","TX","19196","1327 North Plaza Drive","76048"
"Mineola","United States","monday: 9:00 AM-6:00 PM; tuesday: 9:00 AM-6:00 PM; wednesday: 9:00 AM-6:00 PM; thursday: 9:00 AM-6:00 PM; friday: 9:00 AM-6:00 PM; saturday: 9:00 AM-12:00 PM; sunday: False-False","32.674549","Mineola","BranchId: 458","https://www.loansbyworld.com/","-95.484294","https://www.loansbyworld.com/locations/mineola/","9035692014","TX","19226","1120 North Pacific Street,  Suite 2","75773"
"Durant","United States","monday: 9:00 AM-6:00 PM; tuesday: 9:00 AM-6:00 PM; wednesday: 9:00 AM-6:00 PM; thursday: 9:00 AM-6:00 PM; friday: 9:00 AM-6:00 PM; saturday: 9:00 AM-12:00 PM; sunday: False-False","33.993361","Durant","BranchId: 630","https://www.loansbyworld.com/","-96.386763","https://www.loansbyworld.com/locations/durant/","5809247122","OK","19067","1007 W. Main Street","74701"
"Mineral Wells","United States","monday: 9:00 AM-6:00 PM; tuesday: 9:00 AM-6:00 PM; wednesday: 9:00 AM-6:00 PM; thursday: 9:00 AM-6:00 PM; friday: 9:00 AM-6:00 PM; saturday: 9:00 AM-12:00 PM; sunday: False-False","32.808866","Mineral Wells","BranchId: 471","https://www.loansbyworld.com/","-98.10633","https://www.loansbyworld.com/locations/mineral-wells/","9403252243","TX","19215","800 East Hubbard Street #A","76067"
"Paris","United States","monday: 9:00 AM-6:00 PM; tuesday: 9:00 AM-6:00 PM; wednesday: 9:00 AM-6:00 PM; thursday: 9:00 AM-6:00 PM; friday: 9:00 AM-6:00 PM; saturday: 9:00 AM-12:00 PM; sunday: False-False","33.661343","Paris","BranchId: 428","https://www.loansbyworld.com/","-95.513489","https://www.loansbyworld.com/locations/paris/","9037859751","TX","19258","3365 Lamar Avenue","75460"
"Tyler","United States","monday: 9:00 AM-6:00 PM; tuesday: 9:00 AM-6:00 PM; wednesday: 9:00 AM-6:00 PM; thursday: 9:00 AM-6:00 PM; friday: 9:00 AM-6:00 PM; saturday: 9:00 AM-12:00 PM; sunday: False-False","32.340742","Tyler North","BranchId: 492","https://www.loansbyworld.com/","-95.292844","https://www.loansbyworld.com/locations/tyler-north/","9035319900","TX","19194","759 South Beckham Avenue","75701"
"Tyler","United States","monday: 9:00 AM-6:00 PM; tuesday: 9:00 AM-6:00 PM; wednesday: 9:00 AM-6:00 PM; thursday: 9:00 AM-6:00 PM; friday: 9:00 AM-6:00 PM; saturday: 9:00 AM-12:00 PM; sunday: False-False","32.317869","Tyler","BranchId: 480","https://www.loansbyworld.com/","-95.27926","https://www.loansbyworld.com/locations/tyler/","9035978393","TX","19206","1729 Troup Highway","75701"
"Bellmead","United States","monday: 9:00 AM-6:00 PM; tuesday: 9:00 AM-6:00 PM; wednesday: 9:00 AM-6:00 PM; thursday: 9:00 AM-6:00 PM; friday: 9:00 AM-6:00 PM; saturday: 9:00 AM-12:00 PM; sunday: False-False","31.583675","Bellmead","BranchId: 1708","https://www.loansbyworld.com/","-97.114986","https://www.loansbyworld.com/locations/bellmead/","2547998800","TX","18541","901 North Loop 340,  Suite 2 1/2","76705"
"Ardmore","United States","monday: 9:00 AM-6:00 PM; tuesday: 9:00 AM-6:00 PM; wednesday: 9:00 AM-6:00 PM; thursday: 9:00 AM-6:00 PM; friday: 9:00 AM-6:00 PM; saturday: 9:00 AM-12:00 PM; sunday: False-False","34.172378","Ardmore","BranchId: 615","https://www.loansbyworld.com/","-97.12866","https://www.loansbyworld.com/locations/ardmore/","5802264480","OK","19074","2 West Main St.,  Suite 100","73401"
"Waco","United States","monday: 9:00 AM-6:00 PM; tuesday: 9:00 AM-6:00 PM; wednesday: 9:00 AM-6:00 PM; thursday: 9:00 AM-6:00 PM; friday: 9:00 AM-6:00 PM; saturday: 9:00 AM-12:00 PM; sunday: False-False","31.543267","Waco South","BranchId: 543","https://www.loansbyworld.com/","-97.152248","https://www.loansbyworld.com/locations/waco-south/","2547567931","TX","19142","2414 West Waco Drive","76701"
"Waco","United States","monday: 9:00 AM-6:00 PM; tuesday: 9:00 AM-6:00 PM; wednesday: 9:00 AM-6:00 PM; thursday: 9:00 AM-6:00 PM; friday: 9:00 AM-6:00 PM; saturday: 9:00 AM-12:00 PM; sunday: False-False","31.538136","Waco","BranchId: 1744","https://www.loansbyworld.com/","-97.17866","https://www.loansbyworld.com/locations/waco/","2547525552","TX","18504","1311 North New Road","76710"
"Waco","United States","monday: 9:00 AM-6:00 PM; tuesday: 9:00 AM-6:00 PM; wednesday: 9:00 AM-6:00 PM; thursday: 9:00 AM-6:00 PM; friday: 9:00 AM-6:00 PM; saturday: 9:00 AM-12:00 PM; sunday: False-False","31.534358","Waco North","BranchId: 416","https://www.loansbyworld.com/","-97.195191","https://www.loansbyworld.com/locations/waco-north/","2547411480","TX","19267","1201 Lake Air Dr.,  Suites A & B","76710"
"Stephenville","United States","monday: 9:00 AM-6:00 PM; tuesday: 9:00 AM-6:00 PM; wednesday: 9:00 AM-6:00 PM; thursday: 9:00 AM-6:00 PM; friday: 9:00 AM-6:00 PM; saturday: 9:00 AM-12:00 PM; sunday: False-False","32.215046","Stephenville","BranchId: 479","https://www.loansbyworld.com/","-98.21299","https://www.loansbyworld.com/locations/stephenville/","2549685899","TX","19205","1206 West Washington Street","76401"
"Palestine","United States","monday: 9:00 AM-6:00 PM; tuesday: 9:00 AM-6:00 PM; wednesday: 9:00 AM-6:00 PM; thursday: 9:00 AM-6:00 PM; friday: 9:00 AM-6:00 PM; saturday: 9:00 AM-12:00 PM; sunday: False-False","31.76242","Palestine","BranchId: 518","https://www.loansbyworld.com/","-95.633229","https://www.loansbyworld.com/locations/palestine/","9037296999","TX","19167","215 West Main Street","75801"
"Brownfield","United States","monday: 9:00 AM-6:00 PM; tuesday: 9:00 AM-6:00 PM; wednesday: 9:00 AM-6:00 PM; thursday: 9:00 AM-6:00 PM; friday: 9:00 AM-6:00 PM; saturday: 9:00 AM-12:00 PM; sunday: False-False","33.193602","Brownfield","BranchId: 500","https://www.loansbyworld.com/","-102.274122","https://www.loansbyworld.com/locations/brownfield/","8066372202","TX","19185","1402 Lubbock Rd,  Ste D","79316"
"Lamesa","United States","monday: 9:00 AM-6:00 PM; tuesday: 9:00 AM-6:00 PM; wednesday: 9:00 AM-6:00 PM; thursday: 9:00 AM-6:00 PM; friday: 9:00 AM-6:00 PM; saturday: 9:00 AM-12:00 PM; sunday: False-False","32.732025","Lamesa","BranchId: 508","https://www.loansbyworld.com/","-101.953468","https://www.loansbyworld.com/locations/lamesa/","8068536663","TX","19179","510 South 1st Street","79331"
"Andrews","United States","monday: 9:00 AM-6:00 PM; tuesday: 9:00 AM-6:00 PM; wednesday: 9:00 AM-6:00 PM; thursday: 9:00 AM-6:00 PM; friday: 9:00 AM-6:00 PM; saturday: 9:00 AM-12:00 PM; sunday: False-False","32.326587","Andrews","BranchId: 469","https://www.loansbyworld.com/","-102.549662","https://www.loansbyworld.com/locations/andrews/","4325232379","TX","19218","801 North Main Street,  Suite C","79714"
"Levelland","United States","monday: 9:00 AM-6:00 PM; tuesday: 9:00 AM-6:00 PM; wednesday: 9:00 AM-6:00 PM; thursday: 9:00 AM-6:00 PM; friday: 9:00 AM-6:00 PM; saturday: 9:00 AM-12:00 PM; sunday: False-False","33.582491","Levelland","BranchId: 1711","https://www.loansbyworld.com/","-102.367196","https://www.loansbyworld.com/locations/levelland/","8068971126","TX","18539","1009 South College Avenue","79336"
"Hobbs","United States","monday: False-False; tuesday: False-False; wednesday: False-False; thursday: False-False; friday: False-False; saturday: False-False; sunday: False-False","32.709884","Hobbs","BranchId: 1208","https://www.loansbyworld.com/","-103.136573","https://www.loansbyworld.com/locations/hobbs/","5753919347","NM","18730","915 North Turner Street","88240"
"Lubbock","United States","monday: 9:00 AM-6:00 PM; tuesday: 9:00 AM-6:00 PM; wednesday: 9:00 AM-6:00 PM; thursday: 9:00 AM-6:00 PM; friday: 9:00 AM-6:00 PM; saturday: 9:00 AM-12:00 PM; sunday: False-False","33.549157","Lubbock South","BranchId: 1749","https://www.loansbyworld.com/","-101.88181","https://www.loansbyworld.com/locations/lubbock-south/","8067840525","TX","18503","3106 50th Street,  Suite 300","79413"
"Lubbock","United States","monday: 9:00 AM-6:00 PM; tuesday: 9:00 AM-6:00 PM; wednesday: 9:00 AM-6:00 PM; thursday: 9:00 AM-6:00 PM; friday: 9:00 AM-6:00 PM; saturday: 9:00 AM-12:00 PM; sunday: False-False","33.563321","Lubbock West","BranchId: 494","https://www.loansbyworld.com/","-101.901761","https://www.loansbyworld.com/locations/lubbock/","8067855600","TX","19192","4136 34th Street","79410"
"Lubbock","United States","monday: 9:00 AM-6:00 PM; tuesday: 9:00 AM-6:00 PM; wednesday: 9:00 AM-6:00 PM; thursday: 9:00 AM-6:00 PM; friday: 9:00 AM-6:00 PM; saturday: 9:00 AM-12:00 PM; sunday: False-False","33.562976","Lubbock","BranchId: 552","https://www.loansbyworld.com/","-101.85072","https://www.loansbyworld.com/locations/lubbock-2/","8067441491","TX","19134","1417 34th Street","79411"
"Lubbock","United States","monday: 9:00 AM-6:00 PM; tuesday: 9:00 AM-6:00 PM; wednesday: 9:00 AM-6:00 PM; thursday: 9:00 AM-6:00 PM; friday: 9:00 AM-6:00 PM; saturday: 9:00 AM-12:00 PM; sunday: False-False","33.568793","Lubbock North","BranchId: 1626","https://www.loansbyworld.com/","-101.855783","https://www.loansbyworld.com/locations/lubbock-north/","806-905-5010","TX","18298","2806 Avenue Q,  Suite B","79411"
"Lovington","United States","monday: False-False; tuesday: False-False; wednesday: False-False; thursday: False-False; friday: False-False; saturday: False-False; sunday: False-False","32.946181","Lovington","BranchId: 1228","https://www.loansbyworld.com/","-103.360824","https://www.loansbyworld.com/locations/lovington/","5753960289","NM","18715","930 West Avenue D","88260"
"Midland","United States","monday: 9:00 AM-6:00 PM; tuesday: 9:00 AM-6:00 PM; wednesday: 9:00 AM-6:00 PM; thursday: 9:00 AM-6:00 PM; friday: 9:00 AM-6:00 PM; saturday: 9:00 AM-12:00 PM; sunday: False-False","32.01888","Midland","BranchId: 551","https://www.loansbyworld.com/","-102.080179","https://www.loansbyworld.com/locations/midland/","4325700291","TX","19137","2207 North Big Spring Street","79705"
"Midland","United States","monday: 9:00 AM-6:00 PM; tuesday: 9:00 AM-6:00 PM; wednesday: 9:00 AM-6:00 PM; thursday: 9:00 AM-6:00 PM; friday: 9:00 AM-6:00 PM; saturday: 9:00 AM-12:00 PM; sunday: False-False","31.991693","Midland","BranchId: 588","https://www.loansbyworld.com/","-102.117276","https://www.loansbyworld.com/locations/midland-tws/","4325202205","TX","19101","3308 West Illinois Avenue","79703"
"Midland","United States","monday: 9:00 AM-6:00 PM; tuesday: 9:00 AM-6:00 PM; wednesday: 9:00 AM-6:00 PM; thursday: 9:00 AM-6:00 PM; friday: 9:00 AM-6:00 PM; saturday: 9:00 AM-12:00 PM; sunday: False-False","31.989073","Midland South","BranchId: 1717","https://www.loansbyworld.com/","-102.067067","https://www.loansbyworld.com/locations/midland-south/","4326873139","TX","18531","610 East Florida Avenue,  Suite B","79701"
"Big Spring","United States","monday: 9:00 AM-6:00 PM; tuesday: 9:00 AM-6:00 PM; wednesday: 9:00 AM-6:00 PM; thursday: 9:00 AM-6:00 PM; friday: 9:00 AM-6:00 PM; saturday: 9:00 AM-12:00 PM; sunday: False-False","32.252972","Big Spring","BranchId: 530","https://www.loansbyworld.com/","-101.476172","https://www.loansbyworld.com/locations/big-spring/","4322634962","TX","19155","121 East 3rd Street","79720"
"Odessa","United States","monday: 9:00 AM-6:00 PM; tuesday: 9:00 AM-6:00 PM; wednesday: 9:00 AM-6:00 PM; thursday: 9:00 AM-6:00 PM; friday: 9:00 AM-6:00 PM; saturday: 9:00 AM-12:00 PM; sunday: False-False","31.879215","Odessa","BranchId: 548","https://www.loansbyworld.com/","-102.371853","https://www.loansbyworld.com/locations/odessa-2/","4323664777","TX","19138","3602 North Dixie Boulevard","79762"
"Odessa","United States","monday: 9:00 AM-6:00 PM; tuesday: 9:00 AM-6:00 PM; wednesday: 9:00 AM-6:00 PM; thursday: 9:00 AM-6:00 PM; friday: 9:00 AM-6:00 PM; saturday: 9:00 AM-12:00 PM; sunday: False-False","31.875017","Odessa ODS","BranchId: 579","https://www.loansbyworld.com/","-102.346013","https://www.loansbyworld.com/locations/odessa-ods/","4323625664","TX","19109","2610 North Grandview Avenue","79761"
"Odessa","United States","monday: 9:00 AM-6:00 PM; tuesday: 9:00 AM-6:00 PM; wednesday: 9:00 AM-6:00 PM; thursday: 9:00 AM-6:00 PM; friday: 9:00 AM-6:00 PM; saturday: 9:00 AM-12:00 PM; sunday: False-False","31.868755","Odessa","BranchId: 505","https://www.loansbyworld.com/","-102.397808","https://www.loansbyworld.com/locations/odessa/","4323321609","TX","19180","2806 North County Road West","79764"
"Snyder","United States","monday: 9:00 AM-6:00 PM; tuesday: 9:00 AM-6:00 PM; wednesday: 9:00 AM-6:00 PM; thursday: 9:00 AM-6:00 PM; friday: 9:00 AM-6:00 PM; saturday: 9:00 AM-12:00 PM; sunday: False-False","32.716962","Snyder","BranchId: 486","https://www.loansbyworld.com/","-100.919589","https://www.loansbyworld.com/locations/snyder/","3255739335","TX","19198","1926 25th Street","79549"
"Plainview","United States","monday: 9:00 AM-6:00 PM; tuesday: 9:00 AM-6:00 PM; wednesday: 9:00 AM-6:00 PM; thursday: 9:00 AM-6:00 PM; friday: 9:00 AM-6:00 PM; saturday: 9:00 AM-12:00 PM; sunday: False-False","34.183748","Plainview","BranchId: 457","https://www.loansbyworld.com/","-101.731219","https://www.loansbyworld.com/locations/plainview/","8062918099","TX","19230","2309 West 5th Street","79072"
"Monahans","United States","monday: 9:00 AM-6:00 PM; tuesday: 9:00 AM-6:00 PM; wednesday: 9:00 AM-6:00 PM; thursday: 9:00 AM-6:00 PM; friday: 9:00 AM-6:00 PM; saturday: 9:00 AM-12:00 PM; sunday: False-False","31.594309","Monahans","BranchId: 449","https://www.loansbyworld.com/","-102.884419","https://www.loansbyworld.com/locations/monahans/","4329439100","TX","19234","801 East 4th Street,  Suite A","79756"
"Pikeville","United States","monday: 8:30 AM-5:30 PM; tuesday: 8:30 AM-5:30 PM; wednesday: 8:30 AM-5:30 PM; thursday: 8:30 AM-5:30 PM; friday: 8:30 AM-5:30 PM; saturday: 9:00 AM-12:00 PM; sunday: False-False","37.527689","Pikeville","BranchId: 1425","https://www.loansbyworld.com/","-82.574731","https://www.loansbyworld.com/locations/pikeville/","6064371431","KY","18678","4553 N. Mayo Trail","41501"
"Prestonsburg","United States","monday: 8:30 AM-5:30 PM; tuesday: 8:30 AM-5:30 PM; wednesday: 8:30 AM-5:30 PM; thursday: 8:30 AM-5:30 PM; friday: 8:30 AM-5:30 PM; saturday: 9:00 AM-12:00 PM; sunday: False-False","37.684369","Prestonsburg","BranchId: 1451","https://www.loansbyworld.com/","-82.780763","https://www.loansbyworld.com/locations/prestonsburg/","6068861484","KY","18657","196 Collins Circle","41653"
"Paintsville","United States","monday: 8:30 AM-5:30 PM; tuesday: 8:30 AM-5:30 PM; wednesday: 8:30 AM-5:30 PM; thursday: 8:30 AM-5:30 PM; friday: 8:30 AM-5:30 PM; saturday: 9:00 AM-12:00 PM; sunday: False-False","37.810431","Paintsville","BranchId: 1476","https://www.loansbyworld.com/","-82.804054","https://www.loansbyworld.com/locations/paintsville/","6067889040","KY","18634","433 N. Mayo Trail","41240"
"Salyersville","United States","monday: 8:30 AM-5:30 PM; tuesday: 8:30 AM-5:30 PM; wednesday: 8:30 AM-5:30 PM; thursday: 8:30 AM-5:30 PM; friday: 8:30 AM-5:30 PM; saturday: 9:00 AM-12:00 PM; sunday: False-False","37.752592","Salyersville","BranchId: 1483","https://www.loansbyworld.com/","-83.068782","https://www.loansbyworld.com/locations/salyersville/","6062594108","KY","18627","120 Amanda Avenue,  Suite 400","41465"
"Whitesburg","United States","monday: 8:30 AM-5:30 PM; tuesday: 8:30 AM-5:30 PM; wednesday: 8:30 AM-5:30 PM; thursday: 8:30 AM-5:30 PM; friday: 8:30 AM-5:30 PM; saturday: 9:00 AM-12:00 PM; sunday: False-False","37.123241","Whitesburg","BranchId: 1474","https://www.loansbyworld.com/","-82.839506","https://www.loansbyworld.com/locations/whitesburg/","6066339600","KY","18636","144 Parkway Plaza Loop","41858"
"Hazard","United States","monday: 8:30 AM-5:30 PM; tuesday: 8:30 AM-5:30 PM; wednesday: 8:30 AM-5:30 PM; thursday: 8:30 AM-5:30 PM; friday: 8:30 AM-5:30 PM; saturday: 9:00 AM-12:00 PM; sunday: False-False","37.29396","Hazard North","BranchId: 1419","https://www.loansbyworld.com/","-83.216596","https://www.loansbyworld.com/locations/hazard-north/","6064391900","KY","18682","110 Corporate Drive,  Suite 100","41701"
