[
    {
        "lat": "33.500953",
        "lng": "-86.869484",
        "title": "Five Points W Lomb Ave",
        "address": "2800 Lomb Avenue<br />Birmingham, AL 35208",
        "markerNumber": "1",
        "distance": "0.5",
        "openState": "CLOSED",
        "hours": "",
        "services": {
            "label": "Drive-up ATM, Mortgage Lender",
            "x": "y"
        },
        "itemId": "AL0005",
        "type": "branch",
        "geolocation": "35208"
    },
    {
        "lat": "33.513726",
        "lng": "-86.896174",
        "title": "Ensley Birmingham",
        "address": "1809 Avenue E<br />Birmingham, AL 35218",
        "markerNumber": "2",
        "distance": "2.2",
        "openState": "OPEN",
        "hours": "",
        "services": {
            "label": "Mortgage Lender",
            "x": "y"
        },
        "itemId": "AL0003",
        "type": "branch",
        "geolocation": "35208"
    },
    {
        "lat": "33.4807",
        "lng": "-86.907099",
        "title": "Miles College",
        "address": "5500 Myron Massey Blvd<br />Fairfield, AL 35064",
        "markerNumber": "3",
        "distance": "3.2",
        "openState": "OPEN",
        "hours": "",
        "services": {
            "label": "Walk-up ATM",
            "x": "y"
        },
        "itemId": "MILES",
        "type": "atm",
        "geolocation": "35208"
    },
    {
        "lat": "33.480587",
        "lng": "-86.841496",
        "title": "Dennison Av",
        "address": "833 Dennison Av SW<br />Birmingham, AL 35211",
        "markerNumber": "4",
        "distance": "3.5",
        "openState": "OPEN",
        "hours": "",
        "services": {
            "label": "Walk-up ATM",
            "x": "y"
        },
        "itemId": "DNSN",
        "type": "atm",
        "geolocation": "35208"
    },
    {
        "lat": "33.507705",
        "lng": "-86.81219",
        "title": "Regions Field",
        "address": "1400 1st Ave South<br />Birmingham, AL 35233",
        "markerNumber": "5",
        "distance": "3.5",
        "openState": "OPEN",
        "hours": "",
        "services": {
            "label": "Walk-up ATM",
            "x": "y"
        },
        "itemId": "RFIELD",
        "type": "atm",
        "geolocation": "35208"
    },
    {
        "lat": "33.507705",
        "lng": "-86.81219",
        "title": "Regions Field #2",
        "address": "1400 1st Ave South<br />Birmingham, AL 35233",
        "markerNumber": "6",
        "distance": "3.5",
        "openState": "OPEN",
        "hours": "",
        "services": {
            "label": "Walk-up ATM",
            "x": "y"
        },
        "itemId": "RFIELD2",
        "type": "atm",
        "geolocation": "35208"
    },
    {
        "lat": "33.51806",
        "lng": "-86.809173",
        "title": "Birmingham Main 5Th Ave N",
        "address": "1900 Fifth Avenue North<br />Birmingham, AL 35203",
        "markerNumber": "7",
        "distance": "3.7",
        "openState": "CLOSED",
        "hours": "",
        "services": {
            "label": "Walk-up ATM, Walk-up Video Banking Machine, Mortgage Lender",
            "x": "y"
        },
        "itemId": "AL0027",
        "type": "branch",
        "geolocation": "35208"
    },
    {
        "lat": "33.514699",
        "lng": "-86.807699",
        "title": "McWane Ctr",
        "address": "200 19th St N<br />Birmingham, AL 35203",
        "markerNumber": "8",
        "distance": "3.7",
        "openState": "OPEN",
        "hours": "",
        "services": {
            "label": "Walk-up ATM",
            "x": "y"
        },
        "itemId": "WOODS",
        "type": "atm",
        "geolocation": "35208"
    },
    {
        "lat": "33.500799",
        "lng": "-86.807499",
        "title": "UAB Hill University Center",
        "address": "1400 University Blvd<br />Birmingham, AL 35294",
        "markerNumber": "9",
        "distance": "4.1",
        "openState": "OPEN",
        "hours": "",
        "services": {
            "label": "Walk-up ATM",
            "x": "y"
        },
        "itemId": "BLAZERS",
        "type": "atm",
        "geolocation": "35208"
    },
    {
        "lat": "33.5032",
        "lng": "-86.805499",
        "title": "Children&#39;s Hospital",
        "address": "1601 5th Ave South<br />Birmingham, AL 35233",
        "markerNumber": "10",
        "distance": "4.2",
        "openState": "OPEN",
        "hours": "",
        "services": {
            "label": "Walk-up ATM",
            "x": "y"
        },
        "itemId": "CHOSP",
        "type": "atm",
        "geolocation": "35208"
    },
    {
        "lat": "33.5032",
        "lng": "-86.805499",
        "title": "Childrens Hospital",
        "address": "1600 7th Av S<br />Birmingham, AL 35233",
        "markerNumber": "11",
        "distance": "4.2",
        "openState": "OPEN",
        "hours": "",
        "services": {
            "label": "Walk-up ATM",
            "x": "y"
        },
        "itemId": "EBCA6",
        "type": "atm",
        "geolocation": "35208"
    },
    {
        "lat": "33.50443",
        "lng": "-86.800426",
        "title": "Uab",
        "address": "1900 University Boulevard<br />Birmingham, AL 35233",
        "markerNumber": "12",
        "distance": "4.5",
        "openState": "CLOSED",
        "hours": "",
        "services": {
            "label": "Walk-up ATM, Walk-up Video Banking Machine, Mortgage Lender",
            "x": "y"
        },
        "itemId": "AL0043",
        "type": "branch",
        "geolocation": "35208"
    },
    {
        "lat": "33.50758",
        "lng": "-86.798828",
        "title": "Southside Birmingham Remote Drive Thru",
        "address": "2101 Sixth Avenue S.<br />Birmingham, AL 35233",
        "markerNumber": "13",
        "distance": "4.6",
        "openState": "OPEN",
        "hours": "",
        "services": {
            "label": "Drive-up ATM, Mortgage Lender",
            "x": "y"
        },
        "itemId": "AL0661",
        "type": "branch",
        "geolocation": "35208"
    },
    {
        "lat": "33.479775",
        "lng": "-86.923305",
        "title": "Fairfield Valley Rd",
        "address": "5701 Valley Road<br />Fairfield, AL 35064",
        "markerNumber": "14",
        "distance": "5.1",
        "openState": "CLOSED",
        "hours": "",
        "services": {
            "label": "Drive-up ATM, Walk-up ATM, Mortgage Lender",
            "x": "y"
        },
        "itemId": "AL0020",
        "type": "branch",
        "geolocation": "35208"
    },
    {
        "lat": "33.470383",
        "lng": "-86.824812",
        "title": "Greensprings Valley Avenue",
        "address": "100 Green Springs Highway<br />Birmingham, AL 35209",
        "markerNumber": "15",
        "distance": "5.5",
        "openState": "CLOSED",
        "hours": "",
        "services": {
            "label": "Drive-up ATM, Walk-up ATM, Mortgage Lender",
            "x": "y"
        },
        "itemId": "AL0026",
        "type": "branch",
        "geolocation": "35208"
    },
    {
        "lat": "33.519869",
        "lng": "-86.804993",
        "title": "Birmingham Main Remote Drive Thru",
        "address": "2200 Fifth Avenue N. <br />Birmingham, AL 35203",
        "markerNumber": "16",
        "distance": "5.6",
        "openState": "OPEN",
        "hours": "",
        "services": {
            "label": "Drive-up ATM, Mortgage Lender",
            "x": "y"
        },
        "itemId": "AL0660",
        "type": "branch",
        "geolocation": "35208"
    },
    {
        "lat": "33.526953",
        "lng": "-86.808483",
        "title": "Uptown ATM",
        "address": "2301 Richard Arrington BLVD<br />Birmingham, AL 35203",
        "markerNumber": "17",
        "distance": "5.8",
        "openState": "OPEN",
        "hours": "",
        "services": {
            "label": "Walk-up ATM",
            "x": "y"
        },
        "itemId": "UPTOWN",
        "type": "atm",
        "geolocation": "35208"
    },
    {
        "lat": "33.561606",
        "lng": "-86.891698",
        "title": "Forestdale Tomahawk Rd",
        "address": "1304 Tomahawk Road<br />Birmingham, AL 35214",
        "markerNumber": "18",
        "distance": "6.1",
        "openState": "CLOSED",
        "hours": "",
        "services": {
            "label": "Drive-up ATM, Mortgage Lender",
            "x": "y"
        },
        "itemId": "AL0165",
        "type": "branch",
        "geolocation": "35208"
    },
    {
        "lat": "33.438654",
        "lng": "-86.843886",
        "title": "Oxmoor Valley",
        "address": "601 Lakeshore Parkway<br />Birmingham, AL 35209",
        "markerNumber": "19",
        "distance": "6.5",
        "openState": "CLOSED",
        "hours": "",
        "services": {
            "label": "Drive-up ATM, Mortgage Lender",
            "x": "y"
        },
        "itemId": "AL0143",
        "type": "branch",
        "geolocation": "35208"
    },
    {
        "lat": "33.5696525",
        "lng": "-86.899671",
        "title": "Forestdale Drive Up",
        "address": "1619 Forestdale Blvd<br />Birmingham, AL 35214",
        "markerNumber": "20",
        "distance": "6.7",
        "openState": "OPEN",
        "hours": "",
        "services": {
            "label": "Drive-up ATM",
            "x": "y"
        },
        "itemId": "FDALE",
        "type": "atm",
        "geolocation": "35208"
    },
    {
        "lat": "33.508398",
        "lng": "-86.786699",
        "title": "St. Vincent Bruno Cancer Center",
        "address": "2728 10th Avenue South<br />Birmingham, AL 35205",
        "markerNumber": "21",
        "distance": "6.8",
        "openState": "OPEN",
        "hours": "",
        "services": {
            "label": "Walk-up ATM",
            "x": "y"
        },
        "itemId": "SVBCC",
        "type": "atm",
        "geolocation": "35208"
    },
    {
        "lat": "33.517499",
        "lng": "-86.786323",
        "title": "Thirty Second St",
        "address": "3121 Third Avenue S. <br />Birmingham, AL 35233",
        "markerNumber": "22",
        "distance": "6.8",
        "openState": "CLOSED",
        "hours": "",
        "services": {
            "label": "Drive-up ATM, Mortgage Lender",
            "x": "y"
        },
        "itemId": "AL8106",
        "type": "branch",
        "geolocation": "35208"
    },
    {
        "lat": "33.502806",
        "lng": "-86.797685",
        "title": "St Vincents Hospital",
        "address": "2001 9th Court S<br />Birmingham, AL 35205",
        "markerNumber": "23",
        "distance": "7.0",
        "openState": "OPEN",
        "hours": "",
        "services": {
            "label": "Walk-up Video Banking Machine",
            "x": "y"
        },
        "itemId": "A25804",
        "type": "atm",
        "geolocation": "35208"
    },
    {
        "lat": "33.502268",
        "lng": "-86.797081",
        "title": "Five Points South",
        "address": "941 20th Street S.<br />Birmingham, AL 35205",
        "markerNumber": "24",
        "distance": "7.0",
        "openState": "CLOSED",
        "hours": "",
        "services": {
            "label": "Drive-up ATM, Mortgage Lender",
            "x": "y"
        },
        "itemId": "AL8109",
        "type": "branch",
        "geolocation": "35208"
    },
    {
        "lat": "33.47991",
        "lng": "-86.787773",
        "title": "Homewood Independence Plaza",
        "address": "1 Independence Plaza<br />Homewood, AL 35209",
        "markerNumber": "25",
        "distance": "8.4",
        "openState": "CLOSED",
        "hours": "",
        "services": {
            "label": "Walk-up ATM, Mortgage Lender",
            "x": "y"
        },
        "itemId": "AL0008",
        "type": "branch",
        "geolocation": "35208"
    },
    {}
]