"locator_domain","page_url","location_name","street_address","city","state","zip","country_code","store_number","phone","location_type","latitude","longitude","hours_of_operation"
"https://www.pizzapizza.ca/","https://www.pizzapizza.ca/restaurant-locator/Ontario/Toronto/297-wellesley-street-east/1","297 Wellesley Street East","297 Wellesley Street East","Toronto","ON","M4X1G9","CA","1","4169671111","<MISSING>","43.66809","-79.369719","Monday 11:00 AM : 02:00 AM Tuesday 11:00 AM : 02:00 AM Wednesday 11:00 AM : 02:00 AM Thursday 11:00 AM : 03:00 AM Friday 11:00 AM : 03:00 AM Saturday 11:00 AM : 03:00 AM Sunday 11:00 AM : 02:00 AM "
"https://www.pizzapizza.ca/","https://www.pizzapizza.ca/restaurant-locator/Ontario/Toronto/2295-yonge-street/3","2295 Yonge Street","2295 Yonge Street","Toronto","ON","M4P2C6","CA","3","4169671111","<MISSING>","43.707636","-79.398427","Monday 11:00 AM : 02:00 AM Tuesday 11:00 AM : 02:00 AM Wednesday 11:00 AM : 02:00 AM Thursday 11:00 AM : 03:00 AM Friday 11:00 AM : 03:00 AM Saturday 11:00 AM : 03:00 AM Sunday 11:00 AM : 02:00 AM "
"https://www.pizzapizza.ca/","https://www.pizzapizza.ca/restaurant-locator/Ontario/Toronto/655-queen-street-west/4","655 Queen Street West","655 Queen Street West","Toronto","ON","M6J1E8","CA","4","4169671111","<MISSING>","43.647034","-79.404081","Monday 11:00 AM : 02:00 AM Tuesday 11:00 AM : 02:00 AM Wednesday 11:00 AM : 02:00 AM Thursday 11:00 AM : 03:00 AM Friday 11:00 AM : 03:00 AM Saturday 11:00 AM : 03:00 AM Sunday 11:00 AM : 02:00 AM "
"https://www.pizzapizza.ca/","https://www.pizzapizza.ca/restaurant-locator/Ontario/Toronto/2795-danforth-avenue/5","2795 Danforth Avenue","2795 Danforth Avenue","Toronto","ON","M4C1M2","CA","5","4169671111","<MISSING>","43.689508","-79.295943","Monday 11:00 AM : 02:00 AM Tuesday 11:00 AM : 02:00 AM Wednesday 11:00 AM : 02:00 AM Thursday 11:00 AM : 03:00 AM Friday 11:00 AM : 03:00 AM Saturday 11:00 AM : 03:00 AM Sunday 11:00 AM : 02:00 AM "
"https://www.pizzapizza.ca/","https://www.pizzapizza.ca/restaurant-locator/Ontario/Toronto/68-wellesley-street-east/6","68 Wellesley Street East","68 Wellesley Street East","Toronto","ON","M4Y1H2","CA","6","4169671111","<MISSING>","43.66572","-79.380888","Monday 11:00 AM : 02:00 AM Tuesday 11:00 AM : 02:00 AM Wednesday 11:00 AM : 02:00 AM Thursday 11:00 AM : 03:00 AM Friday 11:00 AM : 03:00 AM Saturday 11:00 AM : 03:00 AM Sunday 11:00 AM : 02:00 AM "
"https://www.pizzapizza.ca/","https://www.pizzapizza.ca/restaurant-locator/Ontario/Toronto/328-bloor-street-west/7","328 Bloor Street West","328 Bloor Street West","Toronto","ON","M5S1W5","CA","7","4169671111","<MISSING>","43.666746","-79.403403","Monday 11:00 AM : 02:00 AM Tuesday 11:00 AM : 02:00 AM Wednesday 11:00 AM : 02:00 AM Thursday 11:00 AM : 03:00 AM Friday 11:00 AM : 03:00 AM Saturday 11:00 AM : 03:00 AM Sunday 11:00 AM : 02:00 AM "
"https://www.pizzapizza.ca/","https://www.pizzapizza.ca/restaurant-locator/Ontario/Toronto/1063-gerrard-street-east/9","1063 Gerrard Street East","1063 Gerrard Street East","Toronto","ON","M4M1Z9","CA","9","4169671111","<MISSING>","43.669277","-79.335444","Monday 11:00 AM : 02:00 AM Tuesday 11:00 AM : 02:00 AM Wednesday 11:00 AM : 02:00 AM Thursday 11:00 AM : 03:00 AM Friday 11:00 AM : 03:00 AM Saturday 11:00 AM : 03:00 AM Sunday 11:00 AM : 02:00 AM "
"https://www.pizzapizza.ca/","https://www.pizzapizza.ca/restaurant-locator/Ontario/Toronto/1432-queen-street-west/11","1432 Queen Street West","1432 Queen Street West","Toronto","ON","M6K1L9","CA","11","4169671111","<MISSING>","43.64088","-79.435275","Monday 11:00 AM : 02:00 AM Tuesday 11:00 AM : 02:00 AM Wednesday 11:00 AM : 02:00 AM Thursday 11:00 AM : 03:00 AM Friday 11:00 AM : 03:00 AM Saturday 11:00 AM : 03:00 AM Sunday 11:00 AM : 02:00 AM "
"https://www.pizzapizza.ca/","https://www.pizzapizza.ca/restaurant-locator/Ontario/Toronto/2077-danforth-avenue/14","2077 Danforth Avenue","2077 Danforth Avenue","Toronto","ON","M4C1K2","CA","14","4169671111","<MISSING>","43.685454","-79.313939","Monday 11:00 AM : 02:00 AM Tuesday 11:00 AM : 02:00 AM Wednesday 11:00 AM : 02:00 AM Thursday 11:00 AM : 03:00 AM Friday 11:00 AM : 03:00 AM Saturday 11:00 AM : 03:00 AM Sunday 11:00 AM : 02:00 AM "
"https://www.pizzapizza.ca/","https://www.pizzapizza.ca/restaurant-locator/Ontario/Toronto/109-front-street-east/15","109 Front Street East","109 Front Street East","Toronto","ON","M5E1C7","CA","15","4169671111","<MISSING>","43.64948","-79.370997","Monday 11:00 AM : 11:59 PM Tuesday 11:00 AM : 11:59 PM Wednesday 11:00 AM : 11:59 PM Thursday 11:00 AM : 11:59 PM Friday 11:00 AM : 01:00 AM Saturday 11:00 AM : 01:00 AM Sunday 11:00 AM : 11:59 PM "
"https://www.pizzapizza.ca/","https://www.pizzapizza.ca/restaurant-locator/Ontario/Mississauga/3960-grand-park-drive/22","3960 Grand Park Drive","3960 Grand Park Drive","Mississauga","ON","L5B4M6","CA","22","4169671111","<MISSING>","43.580477","-79.647491","Monday 11:00 AM : 02:00 AM Tuesday 11:00 AM : 02:00 AM Wednesday 11:00 AM : 02:00 AM Thursday 11:00 AM : 03:00 AM Friday 11:00 AM : 03:00 AM Saturday 11:00 AM : 03:00 AM Sunday 11:00 AM : 02:00 AM "
"https://www.pizzapizza.ca/","https://www.pizzapizza.ca/restaurant-locator/Ontario/Mississauga/4120-dixie-rd./35","4120 Dixie Rd.","4120 Dixie Rd.","Mississauga","ON","L4W4V8","CA","35","4169671111","<MISSING>","43.62481","-79.60578","Monday 11:00 AM : 02:00 AM Tuesday 11:00 AM : 02:00 AM Wednesday 11:00 AM : 02:00 AM Thursday 11:00 AM : 02:00 AM Friday 11:00 AM : 03:00 AM Saturday 11:00 AM : 03:00 AM Sunday 11:00 AM : 02:00 AM "
"https://www.pizzapizza.ca/","https://www.pizzapizza.ca/restaurant-locator/Ontario/Mississauga/6277-mississauga-road/59","6277 Mississauga Road","6277 Mississauga Road","Mississauga","ON","L5N1A5","CA","59","4169671111","<MISSING>","43.593836","-79.730017","Monday 11:00 AM : 02:00 AM Tuesday 11:00 AM : 02:00 AM Wednesday 11:00 AM : 02:00 AM Thursday 11:00 AM : 02:00 AM Friday 11:00 AM : 03:00 AM Saturday 11:00 AM : 03:00 AM Sunday 11:00 AM : 02:00 AM "
"https://www.pizzapizza.ca/","https://www.pizzapizza.ca/restaurant-locator/Ontario/Mississauga/114-lakeshore-road-east/61","114 Lakeshore Road East","114 Lakeshore Road East","Mississauga","ON","L5G1E4","CA","61","4169671111","<MISSING>","43.555004","-79.582335","Monday 11:00 AM : 02:00 AM Tuesday 11:00 AM : 02:00 AM Wednesday 11:00 AM : 02:00 AM Thursday 11:00 AM : 02:00 AM Friday 11:00 AM : 02:00 AM Saturday 11:00 AM : 02:00 AM Sunday 11:00 AM : 02:00 AM "
"https://www.pizzapizza.ca/","https://www.pizzapizza.ca/restaurant-locator/Ontario/Mississauga/710-burnhamthorpe-road-east/62","710 Burnhamthorpe Road East","710 Burnhamthorpe Road East","Mississauga","ON","L4Y2X3","CA","62","4169671111","<MISSING>","43.608157","-79.618168","Monday 11:00 AM : 02:00 AM Tuesday 11:00 AM : 02:00 AM Wednesday 11:00 AM : 02:00 AM Thursday 11:00 AM : 02:00 AM Friday 11:00 AM : 03:00 AM Saturday 11:00 AM : 03:00 AM Sunday 11:00 AM : 02:00 AM "
"https://www.pizzapizza.ca/","https://www.pizzapizza.ca/restaurant-locator/Ontario/Mississauga/2273-dundas-street-west/67","2273 Dundas Street West","2273 Dundas Street West","Mississauga","ON","L5K2L8","CA","67","4169671111","<MISSING>","43.531909","-79.671873","Monday 11:00 AM : 02:00 AM Tuesday 11:00 AM : 02:00 AM Wednesday 11:00 AM : 02:00 AM Thursday 11:00 AM : 03:00 AM Friday 11:00 AM : 03:00 AM Saturday 11:00 AM : 03:00 AM Sunday 11:00 AM : 02:00 AM "
"https://www.pizzapizza.ca/","https://www.pizzapizza.ca/restaurant-locator/Ontario/Mississauga/19-1375-southdown-road/68","1375 Southdown Road","19 1375 Southdown Road","Mississauga","ON","L5J2Z1","CA","68","4169671111","<MISSING>","43.518288","-79.639511","Monday 11:00 AM : 02:00 AM Tuesday 11:00 AM : 02:00 AM Wednesday 11:00 AM : 02:00 AM Thursday 11:00 AM : 02:00 AM Friday 11:00 AM : 03:00 AM Saturday 11:00 AM : 03:00 AM Sunday 11:00 AM : 02:00 AM "
"https://www.pizzapizza.ca/","https://www.pizzapizza.ca/restaurant-locator/Ontario/Mississauga/1093-dundas-street-west/71","1093 Dundas Street West","1093 Dundas Street West","Mississauga","ON","L5C1C4","CA","71","4169671111","<MISSING>","43.557315","-79.642845","Monday 11:00 AM : 02:00 AM Tuesday 11:00 AM : 02:00 AM Wednesday 11:00 AM : 02:00 AM Thursday 11:00 AM : 02:00 AM Friday 11:00 AM : 03:00 AM Saturday 11:00 AM : 03:00 AM Sunday 11:00 AM : 02:00 AM "
"https://www.pizzapizza.ca/","https://www.pizzapizza.ca/restaurant-locator/Ontario/Mississauga/2500-hurontario-street/72","2500 Hurontario Street","2500 Hurontario Street","Mississauga","ON","L5B1N4","CA","72","4169671111","<MISSING>","43.57831","-79.613892","Monday 11:00 AM : 02:00 AM Tuesday 11:00 AM : 02:00 AM Wednesday 11:00 AM : 02:00 AM Thursday 11:00 AM : 02:00 AM Friday 11:00 AM : 03:00 AM Saturday 11:00 AM : 03:00 AM Sunday 11:00 AM : 02:00 AM "
"https://www.pizzapizza.ca/","https://www.pizzapizza.ca/restaurant-locator/Ontario/Mississauga/2760-derry-road-west/82","2760 Derry Road West","2760 Derry Road West","Mississauga","ON","L5N2R4","CA","82","4169671111","<MISSING>","43.59322","-79.765433","Monday 11:00 AM : 02:00 AM Tuesday 11:00 AM : 02:00 AM Wednesday 11:00 AM : 02:00 AM Thursday 11:00 AM : 03:00 AM Friday 11:00 AM : 03:00 AM Saturday 11:00 AM : 03:00 AM Sunday 11:00 AM : 02:00 AM "
"https://www.pizzapizza.ca/","https://www.pizzapizza.ca/restaurant-locator/Ontario/Toronto_-_Scarborough/3850-sheppard-avenue-east/10","3850 Sheppard Avenue East","3850 Sheppard Avenue East","Toronto - Scarborough","ON","M1T3L4","CA","10","4169671111","<MISSING>","43.782307","-79.293195","Monday 11:00 AM : 02:00 AM Tuesday 11:00 AM : 02:00 AM Wednesday 11:00 AM : 02:00 AM Thursday 11:00 AM : 03:00 AM Friday 11:00 AM : 03:00 AM Saturday 11:00 AM : 03:00 AM Sunday 11:00 AM : 02:00 AM "
"https://www.pizzapizza.ca/","https://www.pizzapizza.ca/restaurant-locator/Ontario/Toronto_-_Scarborough/1950-lawrence-avenue-east/12","1950 Lawrence Avenue East","1950 Lawrence Avenue East","Toronto - Scarborough","ON","M1R2Y7","CA","12","4169671111","<MISSING>","43.74454","-79.298761","Monday 11:00 AM : 02:00 AM Tuesday 11:00 AM : 02:00 AM Wednesday 11:00 AM : 02:00 AM Thursday 11:00 AM : 03:00 AM Friday 11:00 AM : 03:00 AM Saturday 11:00 AM : 03:00 AM Sunday 11:00 AM : 02:00 AM "
"https://www.pizzapizza.ca/","https://www.pizzapizza.ca/restaurant-locator/Ontario/Toronto_-_Scarborough/41-lapsley-road/18","41 Lapsley Road","41 Lapsley Road","Toronto - Scarborough","ON","M1B1K1","CA","18","4169671111","<MISSING>","43.795517","-79.22706","Monday 11:00 AM : 02:00 AM Tuesday 11:00 AM : 02:00 AM Wednesday 11:00 AM : 02:00 AM Thursday 11:00 AM : 03:00 AM Friday 11:00 AM : 03:00 AM Saturday 11:00 AM : 03:00 AM Sunday 11:00 AM : 02:00 AM "
"https://www.pizzapizza.ca/","https://www.pizzapizza.ca/restaurant-locator/Ontario/Toronto_-_Scarborough/579-markham-road/19","579 Markham Road","579 Markham Road","Toronto - Scarborough","ON","M1H1A9","CA","19","4169671111","<MISSING>","43.760587","-79.225561","Monday 11:00 AM : 02:00 AM Tuesday 11:00 AM : 02:00 AM Wednesday 11:00 AM : 02:00 AM Thursday 11:00 AM : 03:00 AM Friday 11:00 AM : 03:00 AM Saturday 11:00 AM : 03:00 AM Sunday 11:00 AM : 02:00 AM "
"https://www.pizzapizza.ca/","https://www.pizzapizza.ca/restaurant-locator/Ontario/Toronto_-_Scarborough/2893-kingston-road/23","2893 Kingston Road","2893 Kingston Road","Toronto - Scarborough","ON","M1M1N3","CA","23","4169671111","<MISSING>","43.723082","-79.234197","Monday 11:00 AM : 02:00 AM Tuesday 11:00 AM : 02:00 AM Wednesday 11:00 AM : 02:00 AM Thursday 11:00 AM : 02:00 AM Friday 11:00 AM : 03:00 AM Saturday 11:00 AM : 03:00 AM Sunday 11:00 AM : 02:00 AM "
"https://www.pizzapizza.ca/","https://www.pizzapizza.ca/restaurant-locator/Ontario/Toronto_-_Scarborough/474-danforth-road/24","474 Danforth Road","474 Danforth Road","Toronto - Scarborough","ON","M1K1C6","CA","24","4169671111","<MISSING>","43.707941","-79.267719","Monday 11:00 AM : 02:00 AM Tuesday 11:00 AM : 02:00 AM Wednesday 11:00 AM : 02:00 AM Thursday 11:00 AM : 03:00 AM Friday 11:00 AM : 03:00 AM Saturday 11:00 AM : 03:00 AM Sunday 11:00 AM : 02:00 AM "
"https://www.pizzapizza.ca/","https://www.pizzapizza.ca/restaurant-locator/Ontario/Toronto_-_Scarborough/6b-2650-lawrence-avenue-east/25","2650 Lawrence Avenue East","6B 2650 Lawrence Avenue East","Toronto - Scarborough","ON","M1P2S1","CA","25","4169671111","<MISSING>","43.751912","-79.26377","Monday 11:00 AM : 02:00 AM Tuesday 11:00 AM : 02:00 AM Wednesday 11:00 AM : 02:00 AM Thursday 11:00 AM : 03:00 AM Friday 11:00 AM : 03:00 AM Saturday 11:00 AM : 03:00 AM Sunday 11:00 AM : 02:00 AM "
"https://www.pizzapizza.ca/","https://www.pizzapizza.ca/restaurant-locator/Ontario/Toronto_-_Scarborough/205-207-2900-warden-ave./32","2900 Warden Ave.","205-207 2900 Warden Ave.","Toronto - Scarborough","ON","M1W2S8","CA","32","4169671111","<MISSING>","43.801324","-79.318635","Monday 11:00 AM : 11:00 PM Tuesday 11:00 AM : 11:00 PM Wednesday 11:00 AM : 11:00 PM Thursday 11:00 AM : 11:00 PM Friday 11:00 AM : 11:59 PM Saturday 11:00 AM : 11:59 PM Sunday 11:00 AM : 11:00 PM "
"https://www.pizzapizza.ca/","https://www.pizzapizza.ca/restaurant-locator/Ontario/Toronto_-_Scarborough/7-8-4447-kingston-road/53","4447 Kingston Road","7-8 4447 Kingston Road","Toronto - Scarborough","ON","M1E2N7","CA","53","4169671111","<MISSING>","43.768933","-79.188203","Monday 11:00 AM : 02:00 AM Tuesday 11:00 AM : 02:00 AM Wednesday 11:00 AM : 02:00 AM Thursday 11:00 AM : 03:00 AM Friday 11:00 AM : 03:00 AM Saturday 11:00 AM : 03:00 AM Sunday 11:00 AM : 02:00 AM "
"https://www.pizzapizza.ca/","https://www.pizzapizza.ca/restaurant-locator/Ontario/Toronto_-_Scarborough/2351-brimley-road/65","2351 Brimley Road","2351 Brimley Road","Toronto - Scarborough","ON","M1S3L6","CA","65","4169671111","<MISSING>","43.798006","-79.273048","Monday 11:00 AM : 02:00 AM Tuesday 11:00 AM : 02:00 AM Wednesday 11:00 AM : 02:00 AM Thursday 11:00 AM : 03:00 AM Friday 11:00 AM : 03:00 AM Saturday 11:00 AM : 03:00 AM Sunday 11:00 AM : 02:00 AM "
"https://www.pizzapizza.ca/","https://www.pizzapizza.ca/restaurant-locator/Ontario/Brampton/34-avondale-boulevard/37","34 Avondale Boulevard","34 Avondale Boulevard","Brampton","ON","L6T1H3","CA","37","4169671111","<MISSING>","43.707362","-79.698575","Monday 11:00 AM : 02:00 AM Tuesday 11:00 AM : 02:00 AM Wednesday 11:00 AM : 02:00 AM Thursday 11:00 AM : 03:00 AM Friday 11:00 AM : 03:00 AM Saturday 11:00 AM : 03:00 AM Sunday 11:00 AM : 02:00 AM "
"https://www.pizzapizza.ca/","https://www.pizzapizza.ca/restaurant-locator/Ontario/Brampton/267b-queen-street-east/42","267B Queen Street East","267B Queen Street East","Brampton","ON","L6W2E1","CA","42","4169671111","<MISSING>","43.701668","-79.742476","Monday 11:00 AM : 02:00 AM Tuesday 11:00 AM : 02:00 AM Wednesday 11:00 AM : 02:00 AM Thursday 11:00 AM : 03:00 AM Friday 11:00 AM : 03:00 AM Saturday 11:00 AM : 03:00 AM Sunday 11:00 AM : 02:00 AM "
"https://www.pizzapizza.ca/","https://www.pizzapizza.ca/restaurant-locator/Ontario/Brampton/194-main-street-south/43","194 Main Street South","194 Main Street South","Brampton","ON","L6W2E2","CA","43","4169671111","<MISSING>","43.675454","-79.745914","Monday 11:00 AM : 02:00 AM Tuesday 11:00 AM : 02:00 AM Wednesday 11:00 AM : 02:00 AM Thursday 11:00 AM : 03:00 AM Friday 11:00 AM : 03:00 AM Saturday 11:00 AM : 03:00 AM Sunday 11:00 AM : 02:00 AM "
"https://www.pizzapizza.ca/","https://www.pizzapizza.ca/restaurant-locator/Ontario/Brampton/136-150-great-lakes-drive/50","150 Great Lakes Drive","136 150 Great Lakes Drive","Brampton","ON","L6R2K7","CA","50","4169671111","<MISSING>","43.732429","-79.76381","Monday 11:00 AM : 02:00 AM Tuesday 11:00 AM : 02:00 AM Wednesday 11:00 AM : 02:00 AM Thursday 11:00 AM : 03:00 AM Friday 11:00 AM : 03:00 AM Saturday 11:00 AM : 03:00 AM Sunday 11:00 AM : 02:00 AM "
"https://www.pizzapizza.ca/","https://www.pizzapizza.ca/restaurant-locator/Ontario/Brampton/2-320-main-street-north/64","320 Main Street North","2 320 Main Street North","Brampton","ON","L6V4A3","CA","64","4169671111","<MISSING>","43.692968","-79.769277","Monday 11:00 AM : 02:00 AM Tuesday 11:00 AM : 02:00 AM Wednesday 11:00 AM : 02:00 AM Thursday 11:00 AM : 03:00 AM Friday 11:00 AM : 03:00 AM Saturday 11:00 AM : 03:00 AM Sunday 11:00 AM : 02:00 AM "
"https://www.pizzapizza.ca/","https://www.pizzapizza.ca/restaurant-locator/Ontario/Brampton/15-55-mountain-ash-road/91","55 Mountain Ash Road","15 55 Mountain Ash Road","Brampton","ON","L6R1H7","CA","91","4169671111","<MISSING>","43.759581","-79.731403","Monday 11:00 AM : 02:00 AM Tuesday 11:00 AM : 02:00 AM Wednesday 11:00 AM : 02:00 AM Thursday 11:00 AM : 03:00 AM Friday 11:00 AM : 03:00 AM Saturday 11:00 AM : 03:00 AM Sunday 11:00 AM : 02:00 AM "
"https://www.pizzapizza.ca/","https://www.pizzapizza.ca/restaurant-locator/Ontario/Brampton/164-sandalwood-parkway-east/105","164 Sandalwood Parkway East","164 Sandalwood Parkway East","Brampton","ON","L6Z3S4","CA","105","4169671111","<MISSING>","43.727026","-79.795756","Monday 11:00 AM : 02:00 AM Tuesday 11:00 AM : 02:00 AM Wednesday 11:00 AM : 02:00 AM Thursday 11:00 AM : 03:00 AM Friday 11:00 AM : 03:00 AM Saturday 11:00 AM : 03:00 AM Sunday 11:00 AM : 02:00 AM "
"https://www.pizzapizza.ca/","https://www.pizzapizza.ca/restaurant-locator/Ontario/Brampton/545-steeles-avenue-west/125","545 Steeles Avenue West","545 Steeles Avenue West","Brampton","ON","L6Y3E7","CA","125","4169671111","<MISSING>","43.655626","-79.744513","Monday 11:00 AM : 02:00 AM Tuesday 11:00 AM : 02:00 AM Wednesday 11:00 AM : 02:00 AM Thursday 11:00 AM : 03:00 AM Friday 11:00 AM : 03:00 AM Saturday 11:00 AM : 03:00 AM Sunday 11:00 AM : 02:00 AM "
"https://www.pizzapizza.ca/","https://www.pizzapizza.ca/restaurant-locator/Ontario/Brampton/74-quarry-edge-drive/146","74 Quarry Edge Drive","74 Quarry Edge Drive","Brampton","ON","L6V4K2","CA","146","4169671111","<MISSING>","43.706114","-79.782175","Monday 11:00 AM : 02:00 AM Tuesday 11:00 AM : 02:00 AM Wednesday 11:00 AM : 02:00 AM Thursday 11:00 AM : 03:00 AM Friday 11:00 AM : 03:00 AM Saturday 11:00 AM : 03:00 AM Sunday 11:00 AM : 02:00 AM "
"https://www.pizzapizza.ca/","https://www.pizzapizza.ca/restaurant-locator/Ontario/Brampton/11795-bramalea-road/247","11795 Bramalea Road","11795 Bramalea Road","Brampton","ON","L6R3S9","CA","247","4169671111","<MISSING>","43.770758","-79.779874","Monday 11:00 AM : 11:59 PM Tuesday 11:00 AM : 11:59 PM Wednesday 11:00 AM : 11:59 PM Thursday 11:00 AM : 11:59 PM Friday 11:00 AM : 03:00 AM Saturday 11:00 AM : 03:00 AM Sunday 11:00 AM : 11:59 PM "
"https://www.pizzapizza.ca/","https://www.pizzapizza.ca/restaurant-locator/Ontario/Toronto_-_North_York/9-1277-york-mills-road/13","1277 York Mills Road","9 1277 York Mills Road","Toronto - North York","ON","M3A1Z5","CA","13","4169671111","<MISSING>","43.760758","-79.326644","Monday 11:00 AM : 02:00 AM Tuesday 11:00 AM : 02:00 AM Wednesday 11:00 AM : 02:00 AM Thursday 11:00 AM : 03:00 AM Friday 11:00 AM : 03:00 AM Saturday 11:00 AM : 03:00 AM Sunday 11:00 AM : 02:00 AM "
"https://www.pizzapizza.ca/","https://www.pizzapizza.ca/restaurant-locator/Ontario/Toronto_-_North_York/4844-yonge-street/16","4844 Yonge Street","4844 Yonge Street","Toronto - North York","ON","M2N5N2","CA","16","4169671111","<MISSING>","43.762539","-79.41125","Monday 11:00 AM : 02:00 AM Tuesday 11:00 AM : 02:00 AM Wednesday 11:00 AM : 02:00 AM Thursday 11:00 AM : 02:00 AM Friday 11:00 AM : 03:00 AM Saturday 11:00 AM : 03:00 AM Sunday 11:00 AM : 02:00 AM "
"https://www.pizzapizza.ca/","https://www.pizzapizza.ca/restaurant-locator/Ontario/Toronto_-_North_York/6114-yonge-street/17","6114 Yonge Street","6114 Yonge Street","Toronto - North York","ON","M2M3W7","CA","17","4169671111","<MISSING>","43.791305","-79.418371","Monday 11:00 AM : 01:00 AM Tuesday 11:00 AM : 01:00 AM Wednesday 11:00 AM : 01:00 AM Thursday 11:00 AM : 02:00 AM Friday 11:00 AM : 03:00 AM Saturday 11:00 AM : 03:00 AM Sunday 11:00 AM : 01:00 AM "
"https://www.pizzapizza.ca/","https://www.pizzapizza.ca/restaurant-locator/Ontario/Toronto_-_North_York/2731-jane-street/39","2731 Jane Street","2731 Jane Street","Toronto - North York","ON","M3L1S3","CA","39","4169671111","<MISSING>","43.73862","-79.512922","Monday 11:00 AM : 02:00 AM Tuesday 11:00 AM : 02:00 AM Wednesday 11:00 AM : 02:00 AM Thursday 11:00 AM : 03:00 AM Friday 11:00 AM : 03:00 AM Saturday 11:00 AM : 03:00 AM Sunday 11:00 AM : 02:00 AM "
"https://www.pizzapizza.ca/","https://www.pizzapizza.ca/restaurant-locator/Ontario/Toronto_-_North_York/t-3-1837-finch-avenue-west/49","1837 Finch Avenue West","T-3 1837 Finch Avenue West","Toronto - North York","ON","M3N2H1","CA","49","4169671111","<MISSING>","43.757818","-79.513804","Monday 11:00 AM : 05:00 AM Tuesday 11:00 AM : 05:00 AM Wednesday 11:00 AM : 05:00 AM Thursday 11:00 AM : 05:00 AM Friday 11:00 AM : 05:00 AM Saturday 11:00 AM : 05:00 AM Sunday 11:00 AM : 05:00 AM "
"https://www.pizzapizza.ca/","https://www.pizzapizza.ca/restaurant-locator/Ontario/Toronto_-_North_York/5921-leslie-street/52","5921 Leslie Street","5921 Leslie Street","Toronto - North York","ON","M2H1J8","CA","52","4169671111","<MISSING>","43.799273","-79.3701","Monday 11:00 AM : 02:00 AM Tuesday 11:00 AM : 02:00 AM Wednesday 11:00 AM : 02:00 AM Thursday 11:00 AM : 02:00 AM Friday 11:00 AM : 03:00 AM Saturday 11:00 AM : 03:00 AM Sunday 11:00 AM : 02:00 AM "
"https://www.pizzapizza.ca/","https://www.pizzapizza.ca/restaurant-locator/Ontario/Toronto_-_North_York/19-marie-labatte-road/69","19 Marie Labatte Road","19 Marie Labatte Road","Toronto - North York","ON","M3C0J1","CA","69","4169671111","<MISSING>","43.7259","-79.340923","Monday 11:00 AM : 02:00 AM Tuesday 11:00 AM : 02:00 AM Wednesday 11:00 AM : 02:00 AM Thursday 11:00 AM : 03:00 AM Friday 11:00 AM : 03:00 AM Saturday 11:00 AM : 03:00 AM Sunday 11:00 AM : 02:00 AM "
"https://www.pizzapizza.ca/","https://www.pizzapizza.ca/restaurant-locator/Ontario/Toronto_-_North_York/330-wilson-avenue/77","330 Wilson Avenue","330 Wilson Avenue","Toronto - North York","ON","M3H1S9","CA","77","4169671111","<MISSING>","43.736878","-79.436991","Monday 11:00 AM : 02:00 AM Tuesday 11:00 AM : 02:00 AM Wednesday 11:00 AM : 02:00 AM Thursday 11:00 AM : 03:00 AM Friday 11:00 AM : 03:00 AM Saturday 11:00 AM : 03:00 AM Sunday 11:00 AM : 02:00 AM "
"https://www.pizzapizza.ca/","https://www.pizzapizza.ca/restaurant-locator/Ontario/Toronto_-_North_York/2499-sheppard-avenue-east/100","2499 Sheppard Avenue East","2499 Sheppard Avenue East","Toronto - North York","ON","M2J1X2","CA","100","4169671111","<MISSING>","43.774783","-79.328292","Monday 11:00 AM : 02:00 AM Tuesday 11:00 AM : 02:00 AM Wednesday 11:00 AM : 02:00 AM Thursday 11:00 AM : 02:00 AM Friday 11:00 AM : 03:00 AM Saturday 11:00 AM : 03:00 AM Sunday 11:00 AM : 02:00 AM "
"https://www.pizzapizza.ca/","https://www.pizzapizza.ca/restaurant-locator/Ontario/Toronto_-_North_York/3358-keele-street/108","3358 Keele Street","3358 Keele Street","Toronto - North York","ON","M3J1L5","CA","108","4169671111","<MISSING>","43.745922","-79.486834","Monday 11:00 AM : 02:00 AM Tuesday 11:00 AM : 02:00 AM Wednesday 11:00 AM : 02:00 AM Thursday 11:00 AM : 03:00 AM Friday 11:00 AM : 03:00 AM Saturday 11:00 AM : 03:00 AM Sunday 11:00 AM : 02:00 AM "
"https://www.pizzapizza.ca/","https://www.pizzapizza.ca/restaurant-locator/Ontario/Ottawa/336-rideau-street/201","336 Rideau Street","336 Rideau Street","Ottawa","ON","K1N5Y5","CA","201","6137371111","<MISSING>","45.429199","-75.684425","Monday 11:00 AM : 02:00 AM Tuesday 11:00 AM : 02:00 AM Wednesday 11:00 AM : 02:00 AM Thursday 11:00 AM : 02:00 AM Friday 11:00 AM : 02:00 AM Saturday 11:00 AM : 02:00 AM Sunday 11:00 AM : 02:00 AM "
"https://www.pizzapizza.ca/","https://www.pizzapizza.ca/restaurant-locator/Ontario/Ottawa/1779-carling-avenue/202","1779 Carling Avenue","1779 Carling Avenue","Ottawa","ON","K2A1C9","CA","202","6137371111","<MISSING>","45.377693","-75.753994","Monday 11:00 AM : 11:59 PM Tuesday 11:00 AM : 11:59 PM Wednesday 11:00 AM : 11:59 PM Thursday 11:00 AM : 11:59 PM Friday 11:00 AM : 02:00 AM Saturday 11:00 AM : 02:00 AM Sunday 11:00 AM : 11:59 PM "
"https://www.pizzapizza.ca/","https://www.pizzapizza.ca/restaurant-locator/Ontario/Ottawa/1191-st-laurent-boulevard/203","1191 St Laurent Boulevard","1191 St Laurent Boulevard","Ottawa","ON","K1K3B7","CA","203","6137371111","<MISSING>","45.423333","-75.636669","Monday 11:00 AM : 11:59 PM Tuesday 11:00 AM : 11:59 PM Wednesday 11:00 AM : 11:59 PM Thursday 11:00 AM : 11:59 PM Friday 11:00 AM : 02:00 AM Saturday 11:00 AM : 02:00 AM Sunday 11:00 AM : 11:59 PM "
"https://www.pizzapizza.ca/","https://www.pizzapizza.ca/restaurant-locator/Ontario/Ottawa/e-320-mcarthur-avenue/204","320 McArthur Avenue","E 320 McArthur Avenue","Ottawa","ON","K1L5G2","CA","204","6137371111","<MISSING>","45.431595","-75.654439","Monday 11:00 AM : 01:00 AM Tuesday 11:00 AM : 01:00 AM Wednesday 11:00 AM : 01:00 AM Thursday 11:00 AM : 01:00 AM Friday 11:00 AM : 02:00 AM Saturday 11:00 AM : 02:00 AM Sunday 11:00 AM : 01:00 AM "
"https://www.pizzapizza.ca/","https://www.pizzapizza.ca/restaurant-locator/Ontario/Ottawa/1197-wellington-street/205","1197 Wellington Street","1197 Wellington Street","Ottawa","ON","K1Y2Z8","CA","205","6137371111","<MISSING>","45.400491","-75.7303","Monday 11:00 AM : 11:59 PM Tuesday 11:00 AM : 11:59 PM Wednesday 11:00 AM : 11:59 PM Thursday 11:00 AM : 11:59 PM Friday 11:00 AM : 02:00 AM Saturday 11:00 AM : 02:00 AM Sunday 11:00 AM : 11:59 PM "
"https://www.pizzapizza.ca/","https://www.pizzapizza.ca/restaurant-locator/Ontario/Ottawa/230-elgin-street/206","230 Elgin Street","230 Elgin Street","Ottawa","ON","K2P1L7","CA","206","6137371111","<MISSING>","45.418658","-75.691019","Monday 11:00 AM : 01:00 AM Tuesday 11:00 AM : 01:00 AM Wednesday 11:00 AM : 01:00 AM Thursday 11:00 AM : 01:00 AM Friday 11:00 AM : 02:00 AM Saturday 11:00 AM : 02:00 AM Sunday 11:00 AM : 01:00 AM "
"https://www.pizzapizza.ca/","https://www.pizzapizza.ca/restaurant-locator/Ontario/Ottawa/1338-richmond-road/207","1338 Richmond Road","1338 Richmond Road","Ottawa","ON","K2B8L4","CA","207","6137371111","<MISSING>","45.366713","-75.787036","Monday 11:00 AM : 01:00 AM Tuesday 11:00 AM : 01:00 AM Wednesday 11:00 AM : 01:00 AM Thursday 11:00 AM : 01:00 AM Friday 11:00 AM : 02:00 AM Saturday 11:00 AM : 02:00 AM Sunday 11:00 AM : 01:00 AM "
"https://www.pizzapizza.ca/","https://www.pizzapizza.ca/restaurant-locator/Ontario/Ottawa/933-bank-street/208","933 Bank Street","933 Bank Street","Ottawa","ON","K1S3W5","CA","208","6137371111","<MISSING>","45.399936","-75.686573","Monday 11:00 AM : 11:59 PM Tuesday 11:00 AM : 11:59 PM Wednesday 11:00 AM : 11:59 PM Thursday 11:00 AM : 11:59 PM Friday 11:00 AM : 01:00 AM Saturday 11:00 AM : 01:00 AM Sunday 11:00 AM : 11:59 PM "
"https://www.pizzapizza.ca/","https://www.pizzapizza.ca/restaurant-locator/Ontario/Ottawa/1717-bank-street/210","1717 Bank Street","1717 Bank Street","Ottawa","ON","K1S3Y2","CA","210","6137371111","<MISSING>","45.374694","-75.665503","Monday 11:00 AM : 01:00 AM Tuesday 11:00 AM : 01:00 AM Wednesday 11:00 AM : 01:00 AM Thursday 11:00 AM : 01:00 AM Friday 11:00 AM : 02:00 AM Saturday 11:00 AM : 02:00 AM Sunday 11:00 AM : 01:00 AM "
"https://www.pizzapizza.ca/","https://www.pizzapizza.ca/restaurant-locator/Ontario/Ottawa/2515-bank-street/211","2515 Bank Street","2515 Bank Street","Ottawa","ON","K1V8R9","CA","211","6137371111","<MISSING>","45.353977","-75.644085","Monday 11:00 AM : 02:00 AM Tuesday 11:00 AM : 02:00 AM Wednesday 11:00 AM : 02:00 AM Thursday 11:00 AM : 02:00 AM Friday 11:00 AM : 02:00 AM Saturday 11:00 AM : 02:00 AM Sunday 11:00 AM : 02:00 AM "
"https://www.pizzapizza.ca/","https://www.pizzapizza.ca/restaurant-locator/Ontario/Toronto_-_Etobicoke/3359-bloor-street-west/21","3359 Bloor Street West","3359 Bloor Street West","Toronto - Etobicoke","ON","M8X1G2","CA","21","4169671111","<MISSING>","43.644915","-79.522414","Monday 11:00 AM : 02:00 AM Tuesday 11:00 AM : 02:00 AM Wednesday 11:00 AM : 02:00 AM Thursday 11:00 AM : 02:00 AM Friday 11:00 AM : 03:00 AM Saturday 11:00 AM : 03:00 AM Sunday 11:00 AM : 02:00 AM "
"https://www.pizzapizza.ca/","https://www.pizzapizza.ca/restaurant-locator/Ontario/Toronto_-_Etobicoke/120-eringate-drive/30","120 Eringate Drive","120 Eringate Drive","Toronto - Etobicoke","ON","M9C3Z8","CA","30","4169671111","<MISSING>","43.660573","-79.581466","Monday 11:00 AM : 02:00 AM Tuesday 11:00 AM : 02:00 AM Wednesday 11:00 AM : 02:00 AM Thursday 11:00 AM : 03:00 AM Friday 11:00 AM : 03:00 AM Saturday 11:00 AM : 03:00 AM Sunday 11:00 AM : 02:00 AM "
"https://www.pizzapizza.ca/","https://www.pizzapizza.ca/restaurant-locator/Ontario/Toronto_-_Etobicoke/t25-1530-albion-road/47","1530 Albion Road","T25 1530 Albion Road","Toronto - Etobicoke","ON","M9V1B4","CA","47","4169671111","<MISSING>","43.740116","-79.582027","Monday 11:00 AM : 02:00 AM Tuesday 11:00 AM : 02:00 AM Wednesday 11:00 AM : 02:00 AM Thursday 11:00 AM : 03:00 AM Friday 11:00 AM : 03:00 AM Saturday 11:00 AM : 03:00 AM Sunday 11:00 AM : 02:00 AM "
"https://www.pizzapizza.ca/","https://www.pizzapizza.ca/restaurant-locator/Ontario/Toronto_-_Etobicoke/8-250-wincott-drive/48","250 Wincott Drive","8 250 Wincott Drive","Toronto - Etobicoke","ON","M9R2R5","CA","48","4169671111","<MISSING>","43.679614","-79.545483","Monday 11:00 AM : 11:59 PM Tuesday 11:00 AM : 11:59 PM Wednesday 11:00 AM : 11:59 PM Thursday 11:00 AM : 11:59 PM Friday 11:00 AM : 02:00 AM Saturday 11:00 AM : 02:00 AM Sunday 11:00 AM : 11:59 PM "
"https://www.pizzapizza.ca/","https://www.pizzapizza.ca/restaurant-locator/Ontario/Toronto_-_Etobicoke/1045-albion-road/57","1045 Albion Road","1045 Albion Road","Toronto - Etobicoke","ON","M9V1A6","CA","57","4169671111","<MISSING>","43.73721","-79.565166","Monday 11:00 AM : 02:00 AM Tuesday 11:00 AM : 02:00 AM Wednesday 11:00 AM : 02:00 AM Thursday 11:00 AM : 03:00 AM Friday 11:00 AM : 03:00 AM Saturday 11:00 AM : 03:00 AM Sunday 11:00 AM : 02:00 AM "
"https://www.pizzapizza.ca/","https://www.pizzapizza.ca/restaurant-locator/Ontario/Toronto_-_Etobicoke/742-the-queensway/74","742 The Queensway","742 The Queensway","Toronto - Etobicoke","ON","M8Y2V2","CA","74","4169671111","<MISSING>","43.626352","-79.50259","Monday 11:00 AM : 02:00 AM Tuesday 11:00 AM : 02:00 AM Wednesday 11:00 AM : 02:00 AM Thursday 11:00 AM : 02:00 AM Friday 11:00 AM : 03:00 AM Saturday 11:00 AM : 03:00 AM Sunday 11:00 AM : 02:00 AM "
"https://www.pizzapizza.ca/","https://www.pizzapizza.ca/restaurant-locator/Ontario/Toronto_-_Etobicoke/606-browns-line/75","606 Browns Line","606 Browns Line","Toronto - Etobicoke","ON","M8W3T5","CA","75","4169671111","<MISSING>","43.605179","-79.546885","Monday 11:00 AM : 02:00 AM Tuesday 11:00 AM : 02:00 AM Wednesday 11:00 AM : 02:00 AM Thursday 11:00 AM : 02:00 AM Friday 11:00 AM : 03:00 AM Saturday 11:00 AM : 03:00 AM Sunday 11:00 AM : 02:00 AM "
"https://www.pizzapizza.ca/","https://www.pizzapizza.ca/restaurant-locator/Ontario/Toronto_-_Etobicoke/1735-kipling-avenue/79","1735 Kipling Avenue","1735 Kipling Avenue","Toronto - Etobicoke","ON","M9R2Y8","CA","79","4169671111","<MISSING>","43.694071","-79.558401","Monday 11:00 AM : 02:00 AM Tuesday 11:00 AM : 02:00 AM Wednesday 11:00 AM : 02:00 AM Thursday 11:00 AM : 03:00 AM Friday 11:00 AM : 03:00 AM Saturday 11:00 AM : 03:00 AM Sunday 11:00 AM : 02:00 AM "
"https://www.pizzapizza.ca/","https://www.pizzapizza.ca/restaurant-locator/Ontario/Toronto_-_Etobicoke/140-la-rose-avenue/94","140 La Rose Avenue","140 La Rose Avenue","Toronto - Etobicoke","ON","M9P1B2","CA","94","4169671111","<MISSING>","43.685194","-79.523281","Monday 11:00 AM : 02:00 AM Tuesday 11:00 AM : 02:00 AM Wednesday 11:00 AM : 02:00 AM Thursday 11:00 AM : 03:00 AM Friday 11:00 AM : 03:00 AM Saturday 11:00 AM : 03:00 AM Sunday 11:00 AM : 02:00 AM "
"https://www.pizzapizza.ca/","https://www.pizzapizza.ca/restaurant-locator/Ontario/Toronto_-_Etobicoke/130-rexdale-boulevard/106","130 Rexdale Boulevard","130 Rexdale Boulevard","Toronto - Etobicoke","ON","M9W1P6","CA","106","4169671111","<MISSING>","43.711525","-79.569751","Monday 11:00 AM : 02:00 AM Tuesday 11:00 AM : 02:00 AM Wednesday 11:00 AM : 02:00 AM Thursday 11:00 AM : 03:00 AM Friday 11:00 AM : 03:00 AM Saturday 11:00 AM : 03:00 AM Sunday 11:00 AM : 02:00 AM "
"https://www.pizzapizza.ca/","https://www.pizzapizza.ca/restaurant-locator/Ontario/London/150-dundas-street/401","150 Dundas Street","150 Dundas Street","London","ON","N6A1G3","CA","401","5196671111","<MISSING>","42.983825","-81.249773","Monday 11:00 AM : 11:59 PM Tuesday 11:00 AM : 11:59 PM Wednesday 11:00 AM : 11:59 PM Thursday 11:00 AM : 11:59 PM Friday 11:00 AM : 11:59 PM Saturday 11:00 AM : 11:59 PM Sunday 11:00 AM : 11:59 PM "
"https://www.pizzapizza.ca/","https://www.pizzapizza.ca/restaurant-locator/Ontario/London/543-dundas-street-east/402","543 Dundas Street East","543 Dundas Street East","London","ON","N6B1X1","CA","402","5196671111","<MISSING>","42.988128","-81.234054","Monday 11:00 AM : 02:00 AM Tuesday 11:00 AM : 02:00 AM Wednesday 11:00 AM : 02:00 AM Thursday 11:00 AM : 03:00 AM Friday 11:00 AM : 03:00 AM Saturday 11:00 AM : 03:00 AM Sunday 11:00 AM : 02:00 AM "
"https://www.pizzapizza.ca/","https://www.pizzapizza.ca/restaurant-locator/Ontario/London/1080-adelaide-street-north/403","1080 Adelaide Street North","1080 Adelaide Street North","London","ON","N5Y2N1","CA","403","5196671111","<MISSING>","43.01017","-81.241974","Monday 11:00 AM : 02:00 AM Tuesday 11:00 AM : 02:00 AM Wednesday 11:00 AM : 02:00 AM Thursday 11:00 AM : 03:00 AM Friday 11:00 AM : 03:00 AM Saturday 11:00 AM : 03:00 AM Sunday 11:00 AM : 02:00 AM "
"https://www.pizzapizza.ca/","https://www.pizzapizza.ca/restaurant-locator/Ontario/London/395-wellington-road-south/404","395 Wellington Road South","395 Wellington Road South","London","ON","N6C4P9","CA","404","5196671111","<MISSING>","42.960425","-81.230866","Monday 11:00 AM : 02:00 AM Tuesday 11:00 AM : 02:00 AM Wednesday 11:00 AM : 02:00 AM Thursday 11:00 AM : 03:00 AM Friday 11:00 AM : 03:00 AM Saturday 11:00 AM : 03:00 AM Sunday 11:00 AM : 02:00 AM "
"https://www.pizzapizza.ca/","https://www.pizzapizza.ca/restaurant-locator/Ontario/London/760-hyde-park-road/405","760 Hyde Park Road","760 Hyde Park Road","London","ON","N6H1V9","CA","405","5196671111","<MISSING>","42.978055","-81.321576","Monday 11:00 AM : 11:00 PM Tuesday 11:00 AM : 11:00 PM Wednesday 11:00 AM : 11:00 PM Thursday 11:00 AM : 01:00 AM Friday 11:00 AM : 01:00 AM Saturday 11:00 AM : 01:00 AM Sunday 11:00 AM : 11:00 PM "
"https://www.pizzapizza.ca/","https://www.pizzapizza.ca/restaurant-locator/Ontario/London/1020-wonderland-road-south/406","1020 Wonderland Road South","1020 Wonderland Road South","London","ON","N6K3S4","CA","406","5196671111","<MISSING>","42.939396","-81.281284","Monday 11:00 AM : 02:00 AM Tuesday 11:00 AM : 02:00 AM Wednesday 11:00 AM : 02:00 AM Thursday 11:00 AM : 03:00 AM Friday 11:00 AM : 03:00 AM Saturday 11:00 AM : 03:00 AM Sunday 11:00 AM : 02:00 AM "
"https://www.pizzapizza.ca/","https://www.pizzapizza.ca/restaurant-locator/Ontario/London/1225-wonderland-road-north/407","1225 Wonderland Road North","1225 Wonderland Road North","London","ON","N6G2V9","CA","407","5196671111","<MISSING>","43.004995","-81.303468","Monday 11:00 AM : 02:00 AM Tuesday 11:00 AM : 02:00 AM Wednesday 11:00 AM : 02:00 AM Thursday 11:00 AM : 03:00 AM Friday 11:00 AM : 03:00 AM Saturday 11:00 AM : 03:00 AM Sunday 11:00 AM : 02:00 AM "
"https://www.pizzapizza.ca/","https://www.pizzapizza.ca/restaurant-locator/Ontario/London/1836-dundas-street-east/408","1836 Dundas Street East","1836 Dundas Street East","London","ON","N5W3E8","CA","408","5196671111","<MISSING>","43.003697","-81.179779","Monday 11:00 AM : 02:00 AM Tuesday 11:00 AM : 02:00 AM Wednesday 11:00 AM : 02:00 AM Thursday 11:00 AM : 03:00 AM Friday 11:00 AM : 03:00 AM Saturday 11:00 AM : 03:00 AM Sunday 11:00 AM : 02:00 AM "
"https://www.pizzapizza.ca/","https://www.pizzapizza.ca/restaurant-locator/Ontario/London/1275-highbury-avenue-north/409","1275 Highbury Avenue North","1275 Highbury Avenue North","London","ON","N5Y1A8","CA","409","5196671111","<MISSING>","43.019765","-81.215501","Monday 11:00 AM : 02:00 AM Tuesday 11:00 AM : 02:00 AM Wednesday 11:00 AM : 02:00 AM Thursday 11:00 AM : 03:00 AM Friday 11:00 AM : 03:00 AM Saturday 11:00 AM : 03:00 AM Sunday 11:00 AM : 02:00 AM "
"https://www.pizzapizza.ca/","https://www.pizzapizza.ca/restaurant-locator/Ontario/London/50-north-centre-road/413","50 North Centre Road","50 North Centre Road","London","ON","N5X3W1","CA","413","5196671111","<MISSING>","43.026823","-81.275787","Monday 11:00 AM : 02:00 AM Tuesday 11:00 AM : 02:00 AM Wednesday 11:00 AM : 02:00 AM Thursday 11:00 AM : 03:00 AM Friday 11:00 AM : 03:00 AM Saturday 11:00 AM : 03:00 AM Sunday 11:00 AM : 02:00 AM "
"https://www.pizzapizza.ca/","https://www.pizzapizza.ca/restaurant-locator/Ontario/Hamilton/1294-king-street-east/152","1294 King Street East","1294 King Street East","Hamilton","ON","L8M1N5","CA","152","9055271111","<MISSING>","43.243605","-79.824055","Monday 11:00 AM : 02:00 AM Tuesday 11:00 AM : 02:00 AM Wednesday 11:00 AM : 02:00 AM Thursday 11:00 AM : 03:00 AM Friday 11:00 AM : 03:00 AM Saturday 11:00 AM : 03:00 AM Sunday 11:00 AM : 02:00 AM "
"https://www.pizzapizza.ca/","https://www.pizzapizza.ca/restaurant-locator/Ontario/Hamilton/1281-main-street-east/156","1281 Main Street East","1281 Main Street East","Hamilton","ON","L8K1B1","CA","156","9055271111","<MISSING>","43.241588","-79.815027","Monday 11:00 AM : 02:00 AM Tuesday 11:00 AM : 02:00 AM Wednesday 11:00 AM : 02:00 AM Thursday 11:00 AM : 03:00 AM Friday 11:00 AM : 03:00 AM Saturday 11:00 AM : 03:00 AM Sunday 11:00 AM : 02:00 AM "
"https://www.pizzapizza.ca/","https://www.pizzapizza.ca/restaurant-locator/Ontario/Hamilton/815-main-street-west/157","815 Main Street West","815 Main Street West","Hamilton","ON","L8S1A2","CA","157","9055271111","<MISSING>","43.259535","-79.900044","Monday 11:00 AM : 02:00 AM Tuesday 11:00 AM : 02:00 AM Wednesday 11:00 AM : 02:00 AM Thursday 11:00 AM : 03:00 AM Friday 11:00 AM : 03:00 AM Saturday 11:00 AM : 03:00 AM Sunday 11:00 AM : 02:00 AM "
"https://www.pizzapizza.ca/","https://www.pizzapizza.ca/restaurant-locator/Ontario/Hamilton/129-queenston-road/158","129 Queenston Road","129 Queenston Road","Hamilton","ON","L8K1G5","CA","158","9055271111","<MISSING>","43.23567","-79.797714","Monday 11:00 AM : 02:00 AM Tuesday 11:00 AM : 02:00 AM Wednesday 11:00 AM : 02:00 AM Thursday 11:00 AM : 03:00 AM Friday 11:00 AM : 03:00 AM Saturday 11:00 AM : 03:00 AM Sunday 11:00 AM : 02:00 AM "
"https://www.pizzapizza.ca/","https://www.pizzapizza.ca/restaurant-locator/Ontario/Hamilton/4-50-dundurn-street-south/159","50 Dundurn Street South","4 50 Dundurn Street South","Hamilton","ON","L8P4Y8","CA","159","9055271111","<MISSING>","43.260893","-79.888628","Monday 11:00 AM : 02:00 AM Tuesday 11:00 AM : 02:00 AM Wednesday 11:00 AM : 02:00 AM Thursday 11:00 AM : 03:00 AM Friday 11:00 AM : 03:00 AM Saturday 11:00 AM : 03:00 AM Sunday 11:00 AM : 02:00 AM "
"https://www.pizzapizza.ca/","https://www.pizzapizza.ca/restaurant-locator/Ontario/Hamilton/833-upper-james-street/161","833 Upper James Street","833 Upper James Street","Hamilton","ON","L9C3A3","CA","161","9055271111","<MISSING>","43.229461","-79.881186","Monday 11:00 AM : 02:00 AM Tuesday 11:00 AM : 02:00 AM Wednesday 11:00 AM : 02:00 AM Thursday 11:00 AM : 03:00 AM Friday 11:00 AM : 03:00 AM Saturday 11:00 AM : 03:00 AM Sunday 11:00 AM : 02:00 AM "
"https://www.pizzapizza.ca/","https://www.pizzapizza.ca/restaurant-locator/Ontario/Hamilton/374-mohawk-road-east/163","374 Mohawk Road East","374 Mohawk Road East","Hamilton","ON","L8V2H7","CA","163","9055271111","<MISSING>","43.223779","-79.861703","Monday 11:00 AM : 02:00 AM Tuesday 11:00 AM : 02:00 AM Wednesday 11:00 AM : 02:00 AM Thursday 11:00 AM : 03:00 AM Friday 11:00 AM : 03:00 AM Saturday 11:00 AM : 03:00 AM Sunday 11:00 AM : 02:00 AM "
"https://www.pizzapizza.ca/","https://www.pizzapizza.ca/restaurant-locator/Ontario/Hamilton/1001-fennell-avenue-east/164","1001 Fennell Avenue East","1001 Fennell Avenue East","Hamilton","ON","L8T1R1","CA","164","9055271111","<MISSING>","43.227427","-79.836513","Monday 11:00 AM : 02:00 AM Tuesday 11:00 AM : 02:00 AM Wednesday 11:00 AM : 02:00 AM Thursday 11:00 AM : 03:00 AM Friday 11:00 AM : 03:00 AM Saturday 11:00 AM : 03:00 AM Sunday 11:00 AM : 02:00 AM "
"https://www.pizzapizza.ca/","https://www.pizzapizza.ca/restaurant-locator/Ontario/Hamilton/85-king-street-east/165","85 King Street East","85 King Street East","Hamilton","ON","L8N1A9","CA","165","9055271111","<MISSING>","43.255782","-79.866762","Monday 11:00 AM : 02:00 AM Tuesday 11:00 AM : 02:00 AM Wednesday 11:00 AM : 02:00 AM Thursday 11:00 AM : 03:00 AM Friday 11:00 AM : 03:00 AM Saturday 11:00 AM : 03:00 AM Sunday 11:00 AM : 02:00 AM "
"https://www.pizzapizza.ca/","https://www.pizzapizza.ca/restaurant-locator/Ontario/Hamilton/958-garth-street/166","958 Garth Street","958 Garth Street","Hamilton","ON","L9C4L4","CA","166","9055271111","<MISSING>","43.230759","-79.901924","Monday 11:00 AM : 02:00 AM Tuesday 11:00 AM : 02:00 AM Wednesday 11:00 AM : 02:00 AM Thursday 11:00 AM : 02:00 AM Friday 11:00 AM : 03:00 AM Saturday 11:00 AM : 03:00 AM Sunday 11:00 AM : 02:00 AM "
"https://www.pizzapizza.ca/","https://www.pizzapizza.ca/restaurant-locator/Ontario/Oshawa/129-king-street-east/85","129 King Street East","129 King Street East","Oshawa","ON","L1H1C2","CA","85","9054271111","<MISSING>","43.898552","-78.858761","Monday 11:00 AM : 02:00 AM Tuesday 11:00 AM : 02:00 AM Wednesday 11:00 AM : 02:00 AM Thursday 11:00 AM : 03:00 AM Friday 11:00 AM : 03:00 AM Saturday 11:00 AM : 03:00 AM Sunday 11:00 AM : 02:00 AM "
"https://www.pizzapizza.ca/","https://www.pizzapizza.ca/restaurant-locator/Ontario/Oshawa/300-taunton-road-east/86","300 Taunton Road East","300 Taunton Road East","Oshawa","ON","L1G7T4","CA","86","9054271111","<MISSING>","43.935675","-78.867265","Monday 11:00 AM : 02:00 AM Tuesday 11:00 AM : 02:00 AM Wednesday 11:00 AM : 02:00 AM Thursday 11:00 AM : 03:00 AM Friday 11:00 AM : 03:00 AM Saturday 11:00 AM : 03:00 AM Sunday 11:00 AM : 02:00 AM "
"https://www.pizzapizza.ca/","https://www.pizzapizza.ca/restaurant-locator/Ontario/Oshawa/621-king-street-east/88","621 King Street East","621 King Street East","Oshawa","ON","L1H1G3","CA","88","9054271111","<MISSING>","43.90261","-78.841215","Monday 11:00 AM : 02:00 AM Tuesday 11:00 AM : 02:00 AM Wednesday 11:00 AM : 02:00 AM Thursday 11:00 AM : 03:00 AM Friday 11:00 AM : 03:00 AM Saturday 11:00 AM : 03:00 AM Sunday 11:00 AM : 02:00 AM "
"https://www.pizzapizza.ca/","https://www.pizzapizza.ca/restaurant-locator/Ontario/Oshawa/14-199-wentworth-street-west/265","199 Wentworth Street West","14 199 Wentworth Street West","Oshawa","ON","L1J6P4","CA","265","9054271111","<MISSING>","43.869915","-78.851174","Monday 11:00 AM : 02:00 AM Tuesday 11:00 AM : 02:00 AM Wednesday 11:00 AM : 02:00 AM Thursday 11:00 AM : 03:00 AM Friday 11:00 AM : 03:00 AM Saturday 11:00 AM : 03:00 AM Sunday 11:00 AM : 02:00 AM "
"https://www.pizzapizza.ca/","https://www.pizzapizza.ca/restaurant-locator/Ontario/Oshawa/1335-king-street-east/272","1335 King Street East","1335 King Street East","Oshawa","ON","L1H1J3","CA","272","9054271111","<MISSING>","43.906273","-78.814866","Monday 11:00 AM : 02:00 AM Tuesday 11:00 AM : 02:00 AM Wednesday 11:00 AM : 02:00 AM Thursday 11:00 AM : 03:00 AM Friday 11:00 AM : 03:00 AM Saturday 11:00 AM : 03:00 AM Sunday 11:00 AM : 02:00 AM "
"https://www.pizzapizza.ca/","https://www.pizzapizza.ca/restaurant-locator/Ontario/Oshawa/500-rossland-road-west/282","500 Rossland Road West","500 Rossland Road West","Oshawa","ON","L1J3H2","CA","282","9054271111","<MISSING>","43.911057","-78.889902","Monday 11:00 AM : 02:00 AM Tuesday 11:00 AM : 02:00 AM Wednesday 11:00 AM : 02:00 AM Thursday 11:00 AM : 03:00 AM Friday 11:00 AM : 03:00 AM Saturday 11:00 AM : 03:00 AM Sunday 11:00 AM : 02:00 AM "
"https://www.pizzapizza.ca/","https://www.pizzapizza.ca/restaurant-locator/Ontario/Oshawa/766-tauton-rd.-east/298","766 Tauton Rd. East","766 Tauton Rd. East","Oshawa","ON","L1H7K5","CA","298","9054271111","<MISSING>","43.938499","-78.854234","Monday 11:00 AM : 02:00 AM Tuesday 11:00 AM : 02:00 AM Wednesday 11:00 AM : 02:00 AM Thursday 11:00 AM : 03:00 AM Friday 11:00 AM : 03:00 AM Saturday 11:00 AM : 03:00 AM Sunday 11:00 AM : 02:00 AM "
"https://www.pizzapizza.ca/","https://www.pizzapizza.ca/restaurant-locator/Ontario/Burlington/595-plains-road-east/150","595 Plains Road East","595 Plains Road East","Burlington","ON","L7T2E6","CA","150","9055271111","<MISSING>","43.32115","-79.83363","Monday 11:00 AM : 01:00 AM Tuesday 11:00 AM : 01:00 AM Wednesday 11:00 AM : 01:00 AM Thursday 11:00 AM : 01:00 AM Friday 11:00 AM : 03:00 AM Saturday 11:00 AM : 03:00 AM Sunday 11:00 AM : 01:00 AM "
"https://www.pizzapizza.ca/","https://www.pizzapizza.ca/restaurant-locator/Ontario/Burlington/3537-fairview-street/162","3537 Fairview Street","3537 Fairview Street","Burlington","ON","L7N2R4","CA","162","9055271111","<MISSING>","43.358969","-79.780691","Monday 11:00 AM : 02:00 AM Tuesday 11:00 AM : 02:00 AM Wednesday 11:00 AM : 02:00 AM Thursday 11:00 AM : 03:00 AM Friday 11:00 AM : 03:00 AM Saturday 11:00 AM : 03:00 AM Sunday 11:00 AM : 02:00 AM "
"https://www.pizzapizza.ca/","https://www.pizzapizza.ca/restaurant-locator/Ontario/Burlington/735-guelph-line/167","735 Guelph Line","735 Guelph Line","Burlington","ON","L7R3N2","CA","167","9055271111","<MISSING>","43.346479","-79.796239","Monday 11:00 AM : 01:00 AM Tuesday 11:00 AM : 01:00 AM Wednesday 11:00 AM : 01:00 AM Thursday 11:00 AM : 01:00 AM Friday 11:00 AM : 03:00 AM Saturday 11:00 AM : 03:00 AM Sunday 11:00 AM : 01:00 AM "
"https://www.pizzapizza.ca/","https://www.pizzapizza.ca/restaurant-locator/Ontario/Burlington/9-2201-brant-road/171","2201 Brant Road","9 2201 Brant Road","Burlington","ON","L7P3N8","CA","171","9055271111","<MISSING>","43.35547","-79.841367","Monday 11:00 AM : 11:59 PM Tuesday 11:00 AM : 11:59 PM Wednesday 11:00 AM : 11:59 PM Thursday 11:00 AM : 11:59 PM Friday 11:00 AM : 03:00 AM Saturday 11:00 AM : 03:00 AM Sunday 11:00 AM : 11:59 PM "
"https://www.pizzapizza.ca/","https://www.pizzapizza.ca/restaurant-locator/Ontario/Burlington/1900-walkers-line/173","1900 Walkers Line","1900 Walkers Line","Burlington","ON","L7R3X5","CA","173","9055271111","<MISSING>","43.378951","-79.80578","Monday 11:00 AM : 02:00 AM Tuesday 11:00 AM : 02:00 AM Wednesday 11:00 AM : 02:00 AM Thursday 11:00 AM : 03:00 AM Friday 11:00 AM : 03:00 AM Saturday 11:00 AM : 03:00 AM Sunday 11:00 AM : 02:00 AM "
"https://www.pizzapizza.ca/","https://www.pizzapizza.ca/restaurant-locator/Ontario/Burlington/#-2485-appleby-line-building-g/175","2485 Appleby Line Building G","# 2485 Appleby Line Building G","Burlington","ON","L7R3X4","CA","175","9055271111","<MISSING>","43.398856","-79.797267","Monday 11:00 AM : 11:59 PM Tuesday 11:00 AM : 11:59 PM Wednesday 11:00 AM : 11:59 PM Thursday 11:00 AM : 11:59 PM Friday 11:00 AM : 03:00 AM Saturday 11:00 AM : 03:00 AM Sunday 11:00 AM : 11:59 PM "
"https://www.pizzapizza.ca/","https://www.pizzapizza.ca/restaurant-locator/Ontario/Oakville/2297-lakeshore-road-west/73","2297 Lakeshore Road West","2297 Lakeshore Road West","Oakville","ON","L6L1H2","CA","73","4169671111","<MISSING>","43.398393","-79.707613","Monday 11:00 AM : 11:59 PM Tuesday 11:00 AM : 11:59 PM Wednesday 11:00 AM : 11:59 PM Thursday 11:00 AM : 01:00 AM Friday 11:00 AM : 03:00 AM Saturday 11:00 AM : 03:00 AM Sunday 11:00 AM : 11:59 PM "
"https://www.pizzapizza.ca/","https://www.pizzapizza.ca/restaurant-locator/Ontario/Oakville/482-dundas-street-west/104","482 Dundas Street West","482 Dundas Street West","Oakville","ON","L6J5A8","CA","104","4169671111","<MISSING>","43.46885","-79.740643","Monday 11:00 AM : 02:00 AM Tuesday 11:00 AM : 02:00 AM Wednesday 11:00 AM : 02:00 AM Thursday 11:00 AM : 03:00 AM Friday 11:00 AM : 03:00 AM Saturday 11:00 AM : 03:00 AM Sunday 11:00 AM : 02:00 AM "
"https://www.pizzapizza.ca/","https://www.pizzapizza.ca/restaurant-locator/Ontario/Oakville/1152-winston-churchill-blvd./128","1152 Winston Churchill blvd.","1152 Winston Churchill blvd.","Oakville","ON","L6J0A3","CA","128","4169671111","<MISSING>","43.499275","-79.649564","Monday 11:00 AM : 11:59 PM Tuesday 11:00 AM : 11:59 PM Wednesday 11:00 AM : 11:59 PM Thursday 11:00 AM : 11:59 PM Friday 11:00 AM : 02:00 AM Saturday 11:00 AM : 02:00 AM Sunday 11:00 AM : 11:59 PM "
"https://www.pizzapizza.ca/","https://www.pizzapizza.ca/restaurant-locator/Ontario/Oakville/1500-upper-middle-road-west/134","1500 Upper Middle Road West","1500 Upper Middle Road West","Oakville","ON","L6M3G3","CA","134","4169671111","<MISSING>","43.440471","-79.739766","Monday 11:00 AM : 11:59 PM Tuesday 11:00 AM : 11:59 PM Wednesday 11:00 AM : 11:59 PM Thursday 11:00 AM : 11:59 PM Friday 11:00 AM : 03:00 AM Saturday 11:00 AM : 03:00 AM Sunday 11:00 AM : 11:59 PM "
"https://www.pizzapizza.ca/","https://www.pizzapizza.ca/restaurant-locator/Ontario/Oakville/c-1011-upper-middle-road-east/252","1011 Upper Middle Road East","C 1011 Upper Middle Road East","Oakville","ON","L6H4L2","CA","252","4169671111","<MISSING>","43.481039","-79.695354","Monday 11:00 AM : 02:00 AM Tuesday 11:00 AM : 02:00 AM Wednesday 11:00 AM : 02:00 AM Thursday 11:00 AM : 03:00 AM Friday 11:00 AM : 03:00 AM Saturday 11:00 AM : 03:00 AM Sunday 11:00 AM : 02:00 AM "
"https://www.pizzapizza.ca/","https://www.pizzapizza.ca/restaurant-locator/Ontario/Richmond_Hill/10077-yonge-street/51","10077 Yonge Street","10077 Yonge Street","Richmond Hill","ON","L4C1T7","CA","51","4169671111","<MISSING>","43.872827","-79.437484","Monday 11:00 AM : 11:59 PM Tuesday 11:00 AM : 11:59 PM Wednesday 11:00 AM : 11:59 PM Thursday 11:00 AM : 11:59 PM Friday 11:00 AM : 03:00 AM Saturday 11:00 AM : 03:00 AM Sunday 11:00 AM : 11:59 PM "
"https://www.pizzapizza.ca/","https://www.pizzapizza.ca/restaurant-locator/Ontario/Richmond_Hill/3-9555-yonge-street/127","9555 Yonge Street","3 9555 Yonge Street","Richmond Hill","ON","L4C9M5","CA","127","4169671111","<MISSING>","43.860015","-79.434614","Monday 11:00 AM : 11:59 PM Tuesday 11:00 AM : 11:59 PM Wednesday 11:00 AM : 11:59 PM Thursday 11:00 AM : 11:59 PM Friday 11:00 AM : 02:00 AM Saturday 11:00 AM : 02:00 AM Sunday 11:00 AM : 11:59 PM "
"https://www.pizzapizza.ca/","https://www.pizzapizza.ca/restaurant-locator/Ontario/Richmond_Hill/18-19-8750-bayview-avenue/136","8750 Bayview Avenue","18-19 8750 Bayview Avenue","Richmond Hill","ON","L4B4V9","CA","136","4169671111","<MISSING>","43.844813","-79.407936","Monday 11:00 AM : 02:00 AM Tuesday 11:00 AM : 02:00 AM Wednesday 11:00 AM : 02:00 AM Thursday 11:00 AM : 02:00 AM Friday 11:00 AM : 03:00 AM Saturday 11:00 AM : 03:00 AM Sunday 11:00 AM : 02:00 AM "
"https://www.pizzapizza.ca/","https://www.pizzapizza.ca/restaurant-locator/Ontario/Richmond_Hill/1070-major-mackenzie-drive-east,-un/260","1070 Major Mackenzie Drive East, Un","1070 Major Mackenzie Drive East, Un","Richmond Hill","ON","L4S1P3","CA","260","4169671111","<MISSING>","43.877027","-79.406786","Monday 11:00 AM : 11:59 PM Tuesday 11:00 AM : 11:59 PM Wednesday 11:00 AM : 11:59 PM Thursday 11:00 AM : 11:59 PM Friday 11:00 AM : 02:00 AM Saturday 11:00 AM : 02:00 AM Sunday 11:00 AM : 11:59 PM "
"https://www.pizzapizza.ca/","https://www.pizzapizza.ca/restaurant-locator/Ontario/Richmond_Hill/#9-and-#10-10737-yonge-street/269","10737 Yonge Street","#9 and #10 10737 Yonge Street","Richmond Hill","ON","L4C9M9","CA","269","4169671111","<MISSING>","43.889729","-79.441403","Monday 11:00 AM : 11:59 PM Tuesday 11:00 AM : 11:59 PM Wednesday 11:00 AM : 11:59 PM Thursday 11:00 AM : 11:59 PM Friday 11:00 AM : 02:00 AM Saturday 11:00 AM : 02:00 AM Sunday 11:00 AM : 11:59 PM "
"https://www.pizzapizza.ca/","https://www.pizzapizza.ca/restaurant-locator/Ontario/Richmond_Hill/13237-yonge-street/281","13237 Yonge Street","13237 Yonge Street","Richmond Hill","ON","L4E1B6","CA","281","4169671111","<MISSING>","43.950321","-79.455942","Monday 11:00 AM : 01:00 AM Tuesday 11:00 AM : 01:00 AM Wednesday 11:00 AM : 01:00 AM Thursday 11:00 AM : 01:00 AM Friday 11:00 AM : 01:00 AM Saturday 11:00 AM : 01:00 AM Sunday 11:00 AM : 01:00 AM "
"https://www.pizzapizza.ca/","https://www.pizzapizza.ca/restaurant-locator/Ontario/Markham/4-main-street-north/54","4 Main Street North","4 Main Street North","Markham","ON","L3P1X2","CA","54","4169671111","<MISSING>","43.874116","-79.259879","Monday 11:00 AM : 11:59 PM Tuesday 11:00 AM : 11:59 PM Wednesday 11:00 AM : 11:59 PM Thursday 11:00 AM : 11:59 PM Friday 11:00 AM : 02:00 AM Saturday 11:00 AM : 02:00 AM Sunday 11:00 AM : 11:59 PM "
"https://www.pizzapizza.ca/","https://www.pizzapizza.ca/restaurant-locator/Ontario/Markham/1b-8601-warden-avenue/129","8601 Warden Avenue","1B 8601 Warden Avenue","Markham","ON","L3R0B5","CA","129","4169671111","<MISSING>","43.85817","-79.334477","Monday 11:00 AM : 02:00 AM Tuesday 11:00 AM : 02:00 AM Wednesday 11:00 AM : 02:00 AM Thursday 11:00 AM : 03:00 AM Friday 11:00 AM : 03:00 AM Saturday 11:00 AM : 03:00 AM Sunday 11:00 AM : 02:00 AM "
"https://www.pizzapizza.ca/","https://www.pizzapizza.ca/restaurant-locator/Ontario/Markham/9275-highway-48/141","9275 Highway 48","9275 Highway 48","Markham","ON","L6E1A1","CA","141","4169671111","<MISSING>","43.892674","-79.264089","Monday 11:00 AM : 01:00 AM Tuesday 11:00 AM : 01:00 AM Wednesday 11:00 AM : 01:00 AM Thursday 11:00 AM : 02:00 AM Friday 11:00 AM : 03:00 AM Saturday 11:00 AM : 03:00 AM Sunday 11:00 AM : 01:00 AM "
"https://www.pizzapizza.ca/","https://www.pizzapizza.ca/restaurant-locator/Ontario/Markham/9255-woodbine-avenue/250","9255 Woodbine Avenue","9255 Woodbine Avenue","Markham","ON","L6C1Y9","CA","250","4169671111","<MISSING>","43.868214","-79.362747","Monday 11:00 AM : 11:59 PM Tuesday 11:00 AM : 11:59 PM Wednesday 11:00 AM : 11:59 PM Thursday 11:00 AM : 11:59 PM Friday 11:00 AM : 01:00 AM Saturday 11:00 AM : 01:00 AM Sunday 11:00 AM : 11:59 PM "
"https://www.pizzapizza.ca/","https://www.pizzapizza.ca/restaurant-locator/Ontario/Markham/7665-kennedy-road/256","7665 Kennedy Road","7665 Kennedy Road","Markham","ON","L3R0L7","CA","256","4169671111","<MISSING>","43.841211","-79.304213","Monday 11:00 AM : 11:59 PM Tuesday 11:00 AM : 11:59 PM Wednesday 11:00 AM : 11:59 PM Thursday 11:00 AM : 11:59 PM Friday 11:00 AM : 01:00 AM Saturday 11:00 AM : 01:00 AM Sunday 11:00 AM : 11:59 PM "
"https://www.pizzapizza.ca/","https://www.pizzapizza.ca/restaurant-locator/Ontario/Markham/5-9570-mccowan-road/284","9570 McCowan Road","5 9570 McCowan Road","Markham","ON","L3P8M1","CA","284","4169671111","<MISSING>","43.892434","-79.290734","Monday 11:00 AM : 01:00 AM Tuesday 11:00 AM : 01:00 AM Wednesday 11:00 AM : 01:00 AM Thursday 11:00 AM : 01:00 AM Friday 11:00 AM : 02:00 AM Saturday 11:00 AM : 02:00 AM Sunday 11:00 AM : 01:00 AM "
"https://www.pizzapizza.ca/","https://www.pizzapizza.ca/restaurant-locator/Ontario/Ajax/300-harwood-avenue-south/60","300 Harwood Avenue South","300 Harwood Avenue South","Ajax","ON","L1S2J1","CA","60","4169671111","<MISSING>","43.845489","-79.019221","Monday 11:00 AM : 02:00 AM Tuesday 11:00 AM : 02:00 AM Wednesday 11:00 AM : 02:00 AM Thursday 11:00 AM : 03:00 AM Friday 11:00 AM : 03:00 AM Saturday 11:00 AM : 03:00 AM Sunday 11:00 AM : 02:00 AM "
"https://www.pizzapizza.ca/","https://www.pizzapizza.ca/restaurant-locator/Ontario/Ajax/15-westney-road-north/98","15 Westney Road North","15 Westney Road North","Ajax","ON","L1T1P5","CA","98","4169671111","<MISSING>","43.858173","-79.041052","Monday 11:00 AM : 02:00 AM Tuesday 11:00 AM : 02:00 AM Wednesday 11:00 AM : 02:00 AM Thursday 11:00 AM : 03:00 AM Friday 11:00 AM : 03:00 AM Saturday 11:00 AM : 03:00 AM Sunday 11:00 AM : 02:00 AM "
"https://www.pizzapizza.ca/","https://www.pizzapizza.ca/restaurant-locator/Ontario/Ajax/955-westney-road-south/261","955 Westney Road South","955 Westney Road South","Ajax","ON","L1S3K7","CA","261","4169671111","<MISSING>","43.830805","-79.017622","Monday 11:00 AM : 02:00 AM Tuesday 11:00 AM : 02:00 AM Wednesday 11:00 AM : 02:00 AM Thursday 11:00 AM : 03:00 AM Friday 11:00 AM : 03:00 AM Saturday 11:00 AM : 03:00 AM Sunday 11:00 AM : 02:00 AM "
"https://www.pizzapizza.ca/","https://www.pizzapizza.ca/restaurant-locator/Ontario/Ajax/65-kingston-road-east/275","65 Kingston Road East","65 Kingston Road East","Ajax","ON","L1S7J4","CA","275","4169671111","<MISSING>","43.861816","-79.022469","Monday 11:00 AM : 11:59 PM Tuesday 11:00 AM : 11:59 PM Wednesday 11:00 AM : 11:59 PM Thursday 11:00 AM : 11:59 PM Friday 11:00 AM : 01:00 AM Saturday 11:00 AM : 01:00 AM Sunday 11:00 AM : 11:59 PM "
"https://www.pizzapizza.ca/","https://www.pizzapizza.ca/restaurant-locator/Ontario/Ajax/300-rossland-road-east/299","300 Rossland Road East","300 Rossland Road East","Ajax","ON","L1Z0K4","CA","299","4169671111","<MISSING>","43.88198","-79.01938","Monday 11:00 AM : 02:00 AM Tuesday 11:00 AM : 02:00 AM Wednesday 11:00 AM : 02:00 AM Thursday 11:00 AM : 03:00 AM Friday 11:00 AM : 03:00 AM Saturday 11:00 AM : 03:00 AM Sunday 11:00 AM : 02:00 AM "
"https://www.pizzapizza.ca/","https://www.pizzapizza.ca/restaurant-locator/Ontario/Windsor/12219-riverside-drive-east/415","12219 Riverside Drive East","12219 Riverside Drive East","Windsor","ON","N8N1A1","CA","415","5197355191","<MISSING>","42.3322627","-82.8943897","Monday 11:00 AM : 10:00 PM Tuesday 11:00 AM : 10:00 PM Wednesday 11:00 AM : 10:00 PM Thursday 11:00 AM : 10:00 PM Friday 11:00 AM : 10:00 PM Saturday 11:00 AM : 10:00 PM Sunday 11:00 AM : 10:00 PM "
"https://www.pizzapizza.ca/","https://www.pizzapizza.ca/restaurant-locator/Ontario/Windsor/2203-wyandotte-street-west/687","2203 Wyandotte Street West","2203 Wyandotte Street West","Windsor","ON","N9B1K3","CA","687","5199771111","<MISSING>","42.305493","-83.061122","Monday 11:00 AM : 02:00 AM Tuesday 11:00 AM : 02:00 AM Wednesday 11:00 AM : 02:00 AM Thursday 11:00 AM : 03:00 AM Friday 11:00 AM : 03:00 AM Saturday 11:00 AM : 03:00 AM Sunday 11:00 AM : 02:00 AM "
"https://www.pizzapizza.ca/","https://www.pizzapizza.ca/restaurant-locator/Ontario/Windsor/472-tecumseh-road-east/690","472 Tecumseh Road East","472 Tecumseh Road East","Windsor","ON","N8X4W5","CA","690","5199771111","<MISSING>","42.297713","-83.017538","Monday 11:00 AM : 02:00 AM Tuesday 11:00 AM : 02:00 AM Wednesday 11:00 AM : 02:00 AM Thursday 11:00 AM : 03:00 AM Friday 11:00 AM : 03:00 AM Saturday 11:00 AM : 03:00 AM Sunday 11:00 AM : 02:00 AM "
"https://www.pizzapizza.ca/","https://www.pizzapizza.ca/restaurant-locator/Ontario/Windsor/5400-tecumseh-road-east/692","5400 Tecumseh Road East","5400 Tecumseh Road East","Windsor","ON","N8T1C5","CA","692","5199771111","<MISSING>","42.309044","-82.959457","Monday 11:00 AM : 02:00 AM Tuesday 11:00 AM : 02:00 AM Wednesday 11:00 AM : 02:00 AM Thursday 11:00 AM : 03:00 AM Friday 11:00 AM : 03:00 AM Saturday 11:00 AM : 03:00 AM Sunday 11:00 AM : 02:00 AM "
"https://www.pizzapizza.ca/","https://www.pizzapizza.ca/restaurant-locator/Ontario/Windsor/294-ouellette-avenue/693","294 Ouellette Avenue","294 Ouellette Avenue","Windsor","ON","N9A1A5","CA","693","5199771111","<MISSING>","42.317725","-83.039","Monday 11:00 AM : 02:00 AM Tuesday 11:00 AM : 02:00 AM Wednesday 11:00 AM : 02:00 AM Thursday 11:00 AM : 03:00 AM Friday 11:00 AM : 03:00 AM Saturday 11:00 AM : 03:00 AM Sunday 11:00 AM : 02:00 AM "
"https://www.pizzapizza.ca/","https://www.pizzapizza.ca/restaurant-locator/Ontario/Guelph/4-380-eramosa-road/610","380 Eramosa Road","4 380 Eramosa Road","Guelph","ON","N1E6R2","CA","610","5198371111","<MISSING>","43.561282","-80.248954","Monday 11:00 AM : 02:00 AM Tuesday 11:00 AM : 02:00 AM Wednesday 11:00 AM : 02:00 AM Thursday 11:00 AM : 03:00 AM Friday 11:00 AM : 03:00 AM Saturday 11:00 AM : 03:00 AM Sunday 11:00 AM : 02:00 AM "
"https://www.pizzapizza.ca/","https://www.pizzapizza.ca/restaurant-locator/Ontario/Guelph/500-york-road/611","500 York Road","500 York Road","Guelph","ON","N1E3J4","CA","611","5198371111","<MISSING>","43.552416","-80.223351","Monday 11:00 AM : 02:00 AM Tuesday 11:00 AM : 02:00 AM Wednesday 11:00 AM : 02:00 AM Thursday 11:00 AM : 02:00 AM Friday 11:00 AM : 03:00 AM Saturday 11:00 AM : 03:00 AM Sunday 11:00 AM : 02:00 AM "
"https://www.pizzapizza.ca/","https://www.pizzapizza.ca/restaurant-locator/Ontario/Guelph/71-willow-road/612","71 Willow Road","71 Willow Road","Guelph","ON","N1H1W3","CA","612","5198371111","<MISSING>","43.544057","-80.273426","Monday 11:00 AM : 01:00 AM Tuesday 11:00 AM : 01:00 AM Wednesday 11:00 AM : 01:00 AM Thursday 11:00 AM : 01:00 AM Friday 11:00 AM : 03:00 AM Saturday 11:00 AM : 03:00 AM Sunday 11:00 AM : 01:00 AM "
"https://www.pizzapizza.ca/","https://www.pizzapizza.ca/restaurant-locator/Ontario/Guelph/435-stone-rd./620","435 Stone Rd.","435 Stone Rd.","Guelph","ON","N1G2X6","CA","620","5198371111","<MISSING>","43.517057","-80.237821","Monday 11:00 AM : 02:00 AM Tuesday 11:00 AM : 02:00 AM Wednesday 11:00 AM : 02:00 AM Thursday 11:00 AM : 03:00 AM Friday 11:00 AM : 03:00 AM Saturday 11:00 AM : 03:00 AM Sunday 11:00 AM : 02:00 AM "
"https://www.pizzapizza.ca/","https://www.pizzapizza.ca/restaurant-locator/Ontario/Kitchener/875-highland-road-west/504","875 Highland Road West","875 Highland Road West","Kitchener","ON","N2N2Y2","CA","504","5197471111","<MISSING>","43.429607","-80.531283","Monday 11:00 AM : 02:00 AM Tuesday 11:00 AM : 02:00 AM Wednesday 11:00 AM : 02:00 AM Thursday 11:00 AM : 02:00 AM Friday 11:00 AM : 03:00 AM Saturday 11:00 AM : 03:00 AM Sunday 11:00 AM : 02:00 AM "
"https://www.pizzapizza.ca/","https://www.pizzapizza.ca/restaurant-locator/Ontario/Kitchener/185-king-street-west/505","185 King Street West","185 King Street West","Kitchener","ON","N2G1A7","CA","505","5197471111","<MISSING>","43.45092","-80.492506","Monday 11:00 AM : 11:59 PM Tuesday 11:00 AM : 11:59 PM Wednesday 11:00 AM : 11:59 PM Thursday 11:00 AM : 11:59 PM Friday 11:00 AM : 03:00 AM Saturday 11:00 AM : 03:00 AM Sunday 11:00 AM : 11:59 PM "
"https://www.pizzapizza.ca/","https://www.pizzapizza.ca/restaurant-locator/Ontario/Kitchener/1020-ottawa-street-north/506","1020 Ottawa Street North","1020 Ottawa Street North","Kitchener","ON","N2A3Z3","CA","506","5197471111","<MISSING>","43.451091","-80.44409","Monday 11:00 AM : 11:59 PM Tuesday 11:00 AM : 11:59 PM Wednesday 11:00 AM : 11:59 PM Thursday 11:00 AM : 11:59 PM Friday 11:00 AM : 02:00 AM Saturday 11:00 AM : 02:00 AM Sunday 11:00 AM : 11:59 PM "
"https://www.pizzapizza.ca/","https://www.pizzapizza.ca/restaurant-locator/Ontario/Kitchener/6a-123-pioneer-drive/511","123 Pioneer Drive","6A 123 Pioneer Drive","Kitchener","ON","N2P2A3","CA","511","5197471111","<MISSING>","43.394151","-80.433455","Monday 11:00 AM : 02:00 AM Tuesday 11:00 AM : 02:00 AM Wednesday 11:00 AM : 02:00 AM Thursday 11:00 AM : 03:00 AM Friday 11:00 AM : 03:00 AM Saturday 11:00 AM : 03:00 AM Sunday 11:00 AM : 02:00 AM "
"https://www.pizzapizza.ca/","https://www.pizzapizza.ca/restaurant-locator/Ontario/Newmarket/17906-yonge-street/97","17906 Yonge Street","17906 Yonge Street","Newmarket","ON","L3Y8S1","CA","97","9058301111","<MISSING>","44.063599","-79.482662","Monday 11:00 AM : 02:00 AM Tuesday 11:00 AM : 02:00 AM Wednesday 11:00 AM : 02:00 AM Thursday 11:00 AM : 02:00 AM Friday 11:00 AM : 03:00 AM Saturday 11:00 AM : 03:00 AM Sunday 11:00 AM : 02:00 AM "
"https://www.pizzapizza.ca/","https://www.pizzapizza.ca/restaurant-locator/Ontario/Newmarket/13-14-869-mulock-drive/253","869 Mulock Drive","13-14 869 Mulock Drive","Newmarket","ON","L3Y8S3","CA","253","9058301111","<MISSING>","44.045354","-79.436834","Monday 11:00 AM : 11:59 PM Tuesday 11:00 AM : 11:59 PM Wednesday 11:00 AM : 11:59 PM Thursday 11:00 AM : 01:00 AM Friday 11:00 AM : 03:00 AM Saturday 11:00 AM : 03:00 AM Sunday 11:00 AM : 11:59 PM "
"https://www.pizzapizza.ca/","https://www.pizzapizza.ca/restaurant-locator/Ontario/Newmarket/5-16640-yonge-street/262","16640 Yonge Street","5 16640 Yonge Street","Newmarket","ON","L3X1V6","CA","262","9058301111","<MISSING>","44.033562","-79.475608","Monday 11:00 AM : 11:59 PM Tuesday 11:00 AM : 11:59 PM Wednesday 11:00 AM : 11:59 PM Thursday 11:00 AM : 11:59 PM Friday 11:00 AM : 03:00 AM Saturday 11:00 AM : 03:00 AM Sunday 11:00 AM : 11:59 PM "
"https://www.pizzapizza.ca/","https://www.pizzapizza.ca/restaurant-locator/Ontario/Barrie/410-essa-road/619","410 Essa Road","410 Essa Road","Barrie","ON","L4N9J7","CA","619","7057371111","<MISSING>","44.348131","-79.703312","Monday 11:00 AM : 11:59 PM Tuesday 11:00 AM : 11:59 PM Wednesday 11:00 AM : 11:59 PM Thursday 11:00 AM : 11:59 PM Friday 11:00 AM : 01:00 AM Saturday 11:00 AM : 01:00 AM Sunday 11:00 AM : 11:59 PM "
"https://www.pizzapizza.ca/","https://www.pizzapizza.ca/restaurant-locator/Ontario/Barrie/49-high-street/657","49 High Street","49 High Street","Barrie","ON","L4N1W5","CA","657","7057371111","<MISSING>","44.388081","-79.695064","Monday 11:00 AM : 02:00 AM Tuesday 11:00 AM : 02:00 AM Wednesday 11:00 AM : 02:00 AM Thursday 11:00 AM : 03:00 AM Friday 11:00 AM : 03:00 AM Saturday 11:00 AM : 03:00 AM Sunday 11:00 AM : 02:00 AM "
"https://www.pizzapizza.ca/","https://www.pizzapizza.ca/restaurant-locator/Ontario/Barrie/279-yonge-street/658","279 Yonge Street","279 Yonge Street","Barrie","ON","L4N7T9","CA","658","7057371111","<MISSING>","44.370578","-79.670793","Monday 11:00 AM : 11:00 PM Tuesday 11:00 AM : 11:00 PM Wednesday 11:00 AM : 11:00 PM Thursday 11:00 AM : 11:00 PM Friday 11:00 AM : 01:00 AM Saturday 11:00 AM : 01:00 AM Sunday 11:00 AM : 11:00 PM "
"https://www.pizzapizza.ca/","https://www.pizzapizza.ca/restaurant-locator/Ontario/Barrie/5-360-bayfield-street-north/699","360 Bayfield Street North","5 360 Bayfield Street North","Barrie","ON","L4M3C4","CA","699","7057371111","<MISSING>","44.404176","-79.70299","Monday 11:00 AM : 02:00 AM Tuesday 11:00 AM : 02:00 AM Wednesday 11:00 AM : 02:00 AM Thursday 11:00 AM : 03:00 AM Friday 11:00 AM : 03:00 AM Saturday 11:00 AM : 03:00 AM Sunday 11:00 AM : 02:00 AM "
"https://www.pizzapizza.ca/","https://www.pizzapizza.ca/restaurant-locator/Ontario/Whitby/315-dundas-street-east/90","315 Dundas Street East","315 Dundas Street East","Whitby","ON","L1N2J2","CA","90","9054271111","<MISSING>","43.880582","-78.938539","Monday 11:00 AM : 02:00 AM Tuesday 11:00 AM : 02:00 AM Wednesday 11:00 AM : 02:00 AM Thursday 11:00 AM : 02:00 AM Friday 11:00 AM : 03:00 AM Saturday 11:00 AM : 03:00 AM Sunday 11:00 AM : 02:00 AM "
"https://www.pizzapizza.ca/","https://www.pizzapizza.ca/restaurant-locator/Ontario/Whitby/80-thickson-road-south/144","80 Thickson Road South","80 Thickson Road South","Whitby","ON","L1N7T2","CA","144","9054271111","<MISSING>","43.882938","-78.911466","Monday 11:00 AM : 11:59 PM Tuesday 11:00 AM : 11:59 PM Wednesday 11:00 AM : 11:59 PM Thursday 11:00 AM : 11:59 PM Friday 11:00 AM : 02:00 AM Saturday 11:00 AM : 02:00 AM Sunday 11:00 AM : 11:59 PM "
"https://www.pizzapizza.ca/","https://www.pizzapizza.ca/restaurant-locator/Ontario/Whitby/1200-rossland-road-east/148","1200 Rossland Road East","1200 Rossland Road East","Whitby","ON","L1N8H3","CA","148","9054271111","<MISSING>","43.902108","-78.930145","Monday 11:00 AM : 11:59 PM Tuesday 11:00 AM : 11:59 PM Wednesday 11:00 AM : 11:59 PM Thursday 11:00 AM : 02:00 AM Friday 11:00 AM : 02:00 AM Saturday 11:00 AM : 02:00 AM Sunday 11:00 AM : 11:59 PM "
"https://www.pizzapizza.ca/","https://www.pizzapizza.ca/restaurant-locator/Ontario/Whitby/3570-brock-street-north/283","3570 Brock Street North","3570 Brock Street North","Whitby","ON","L1N5R5","CA","283","9054271111","<MISSING>","43.908014","-78.954723","Monday 11:00 AM : 02:00 AM Tuesday 11:00 AM : 02:00 AM Wednesday 11:00 AM : 02:00 AM Thursday 11:00 AM : 02:00 AM Friday 11:00 AM : 03:00 AM Saturday 11:00 AM : 03:00 AM Sunday 11:00 AM : 02:00 AM "
"https://www.pizzapizza.ca/","https://www.pizzapizza.ca/restaurant-locator/Ontario/Kingston/760-highway-15/703","760 highway 15","760 highway 15","Kingston","ON","K6V6B2","CA","703","6135421111","<MISSING>","44.25256","-76.461305","Monday 11:00 AM : 11:00 PM Tuesday 11:00 AM : 11:00 PM Wednesday 11:00 AM : 11:00 PM Thursday 11:00 AM : 11:00 PM Friday 11:00 AM : 11:59 PM Saturday 11:00 AM : 11:59 PM Sunday 11:00 AM : 11:00 PM "
"https://www.pizzapizza.ca/","https://www.pizzapizza.ca/restaurant-locator/Ontario/Kingston/277-bath-road/705","277 Bath Road","277 Bath Road","Kingston","ON","K7M2X6","CA","705","6135421111","<MISSING>","44.237655","-76.545937","Monday 11:00 AM : 02:00 AM Tuesday 11:00 AM : 02:00 AM Wednesday 11:00 AM : 02:00 AM Thursday 11:00 AM : 02:00 AM Friday 11:00 AM : 02:00 AM Saturday 11:00 AM : 02:00 AM Sunday 11:00 AM : 02:00 AM "
"https://www.pizzapizza.ca/","https://www.pizzapizza.ca/restaurant-locator/Ontario/Kingston/414-princess-street/706","414 Princess Street","414 Princess Street","Kingston","ON","K7L1B8","CA","706","6135421111","<MISSING>","44.233325","-76.49262","Monday 11:00 AM : 01:00 AM Tuesday 11:00 AM : 01:00 AM Wednesday 11:00 AM : 01:00 AM Thursday 11:00 AM : 01:00 AM Friday 11:00 AM : 02:00 AM Saturday 11:00 AM : 02:00 AM Sunday 11:00 AM : 01:00 AM "
"https://www.pizzapizza.ca/","https://www.pizzapizza.ca/restaurant-locator/Ontario/Peterborough/1080-lansdowne-street-west/648","1080 Lansdowne Street West","1080 Lansdowne Street West","Peterborough","ON","K9J1Z9","CA","648","7057491111","<MISSING>","44.282209","-78.347315","Monday 11:00 AM : 02:00 AM Tuesday 11:00 AM : 02:00 AM Wednesday 11:00 AM : 02:00 AM Thursday 11:00 AM : 03:00 AM Friday 11:00 AM : 03:00 AM Saturday 11:00 AM : 03:00 AM Sunday 11:00 AM : 02:00 AM "
"https://www.pizzapizza.ca/","https://www.pizzapizza.ca/restaurant-locator/Ontario/Peterborough/8-91-george-street-north/655","91 George Street North","8 91 George Street North","Peterborough","ON","K9J3G3","CA","655","7057491111","<MISSING>","44.296199","-78.31951","Monday 11:00 AM : 02:00 AM Tuesday 11:00 AM : 02:00 AM Wednesday 11:00 AM : 02:00 AM Thursday 11:00 AM : 03:00 AM Friday 11:00 AM : 03:00 AM Saturday 11:00 AM : 03:00 AM Sunday 11:00 AM : 02:00 AM "
"https://www.pizzapizza.ca/","https://www.pizzapizza.ca/restaurant-locator/Ontario/Peterborough/871-chemong-road/656","871 Chemong Road","871 Chemong Road","Peterborough","ON","K9H5Z5","CA","656","7057491111","<MISSING>","44.319235","-78.332072","Monday 11:00 AM : 02:00 AM Tuesday 11:00 AM : 02:00 AM Wednesday 11:00 AM : 02:00 AM Thursday 11:00 AM : 03:00 AM Friday 11:00 AM : 03:00 AM Saturday 11:00 AM : 03:00 AM Sunday 11:00 AM : 02:00 AM "
"https://www.pizzapizza.ca/","https://www.pizzapizza.ca/restaurant-locator/Ontario/Peterborough/949-hwy-7-east/1214","949 Hwy 7 East","949 Hwy 7 East","Peterborough","ON","K9J6X9","CA","1214","7057490102","<MISSING>","44.298566","-78.2619","Monday 11:00 AM : 08:00 PM Tuesday 11:00 AM : 08:00 PM Wednesday 11:00 AM : 08:00 PM Thursday 11:00 AM : 09:00 PM Friday 11:00 AM : 10:00 PM Saturday 11:00 AM : 09:00 PM Sunday 11:00 AM : 08:00 PM "
"https://www.pizzapizza.ca/","https://www.pizzapizza.ca/restaurant-locator/Ontario/St_Catharines/2-367-lake-street/181","367 Lake Street","2 367 Lake Street","St Catharines","ON","L2N4H5","CA","181","9056871111","<MISSING>","43.183791","-79.251793","Monday 11:00 AM : 02:00 AM Tuesday 11:00 AM : 02:00 AM Wednesday 11:00 AM : 02:00 AM Thursday 11:00 AM : 03:00 AM Friday 11:00 AM : 03:00 AM Saturday 11:00 AM : 03:00 AM Sunday 11:00 AM : 02:00 AM "
"https://www.pizzapizza.ca/","https://www.pizzapizza.ca/restaurant-locator/Ontario/St_Catharines/137-139-st.-paul-street/183","137-139 St. Paul Street","137-139 St. Paul Street","St Catharines","ON","L2R3M5","CA","183","9056871111","<MISSING>","43.14705","-79.254564","Monday 11:00 AM : 02:00 AM Tuesday 11:00 AM : 02:00 AM Wednesday 11:00 AM : 02:00 AM Thursday 11:00 AM : 03:00 AM Friday 11:00 AM : 03:00 AM Saturday 11:00 AM : 03:00 AM Sunday 11:00 AM : 02:00 AM "
"https://www.pizzapizza.ca/","https://www.pizzapizza.ca/restaurant-locator/Ontario/St_Catharines/210-glendale-avenue/184","210 Glendale Avenue","210 Glendale Avenue","St Catharines","ON","L2T3Y6","CA","184","9056871111","<MISSING>","43.132395","-79.226103","Monday 11:00 AM : 02:00 AM Tuesday 11:00 AM : 02:00 AM Wednesday 11:00 AM : 02:00 AM Thursday 11:00 AM : 03:00 AM Friday 11:00 AM : 03:00 AM Saturday 11:00 AM : 03:00 AM Sunday 11:00 AM : 02:00 AM "
"https://www.pizzapizza.ca/","https://www.pizzapizza.ca/restaurant-locator/Ontario/St_Catharines/d-11-400-scott-street/190","400 Scott Street","D-11 400 Scott Street","St Catharines","ON","L2M3W4","CA","190","9056871111","<MISSING>","43.189994","-79.225709","Monday 11:00 AM : 02:00 AM Tuesday 11:00 AM : 02:00 AM Wednesday 11:00 AM : 02:00 AM Thursday 11:00 AM : 03:00 AM Friday 11:00 AM : 03:00 AM Saturday 11:00 AM : 03:00 AM Sunday 11:00 AM : 02:00 AM "
"https://www.pizzapizza.ca/","https://www.pizzapizza.ca/restaurant-locator/Ontario/Stoney_Creek/7-141-highway-#8/153","141 Highway #8","7 141 Highway #8","Stoney Creek","ON","L8K5C1","CA","153","9055271111","<MISSING>","43.223582","-79.744859","Monday 11:00 AM : 11:59 PM Tuesday 11:00 AM : 11:59 PM Wednesday 11:00 AM : 11:59 PM Thursday 11:00 AM : 11:59 PM Friday 11:00 AM : 01:00 AM Saturday 11:00 AM : 01:00 AM Sunday 11:00 AM : 11:59 PM "
"https://www.pizzapizza.ca/","https://www.pizzapizza.ca/restaurant-locator/Ontario/Stoney_Creek/19-800-queenston-road/154","800 Queenston Road","19 800 Queenston Road","Stoney Creek","ON","L8G1A7","CA","154","9055271111","<MISSING>","43.227974","-79.764429","Monday 11:00 AM : 11:59 PM Tuesday 11:00 AM : 11:59 PM Wednesday 11:00 AM : 11:59 PM Thursday 11:00 AM : 11:59 PM Friday 11:00 AM : 01:00 AM Saturday 11:00 AM : 01:00 AM Sunday 11:00 AM : 11:59 PM "
"https://www.pizzapizza.ca/","https://www.pizzapizza.ca/restaurant-locator/Ontario/Stoney_Creek/75-centennial-parkway-north,-unit/172","75 Centennial Parkway North, Unit","75 Centennial Parkway North, Unit","Stoney Creek","ON","L8E2P2","CA","172","9055271111","<MISSING>","43.216182","-79.766382","Monday 11:00 AM : 07:00 PM Tuesday 11:00 AM : 07:00 PM Wednesday 11:00 AM : 07:00 PM Thursday 11:00 AM : 07:00 PM Friday 11:00 AM : 07:00 PM Saturday 11:00 AM : 06:00 PM Sunday 11:00 AM : 05:00 PM "
"https://www.pizzapizza.ca/","https://www.pizzapizza.ca/restaurant-locator/Ontario/Woodbridge/7694-islington-avenue/81","7694 Islington Avenue","7694 Islington Avenue","Woodbridge","ON","L4L1W3","CA","81","4169671111","<MISSING>","43.779565","-79.587754","Monday 11:00 AM : 02:00 AM Tuesday 11:00 AM : 02:00 AM Wednesday 11:00 AM : 02:00 AM Thursday 11:00 AM : 03:00 AM Friday 11:00 AM : 03:00 AM Saturday 11:00 AM : 03:00 AM Sunday 11:00 AM : 02:00 AM "
"https://www.pizzapizza.ca/","https://www.pizzapizza.ca/restaurant-locator/Ontario/Woodbridge/7600-weston-road/126","7600 Weston Road","7600 Weston Road","Woodbridge","ON","L4L8B7","CA","126","4169671111","<MISSING>","43.787721","-79.547259","Monday 11:00 AM : 02:00 AM Tuesday 11:00 AM : 02:00 AM Wednesday 11:00 AM : 02:00 AM Thursday 11:00 AM : 03:00 AM Friday 11:00 AM : 03:00 AM Saturday 11:00 AM : 03:00 AM Sunday 11:00 AM : 02:00 AM "
"https://www.pizzapizza.ca/","https://www.pizzapizza.ca/restaurant-locator/Ontario/Woodbridge/9600-islington-avenue/255","9600 Islington Avenue","9600 Islington Avenue","Woodbridge","ON","L4L1A7","CA","255","4169671111","<MISSING>","43.824857","-79.608744","Monday 11:00 AM : 11:00 PM Tuesday 11:00 AM : 11:00 PM Wednesday 11:00 AM : 11:00 PM Thursday 11:00 AM : 11:00 PM Friday 11:00 AM : 02:00 AM Saturday 11:00 AM : 02:00 AM Sunday 11:00 AM : 11:00 PM "
"https://www.pizzapizza.ca/","https://www.pizzapizza.ca/restaurant-locator/Ontario/Waterloo/496-albert-street/503","496 Albert Street","496 Albert Street","Waterloo","ON","N2L3V4","CA","503","5197471111","<MISSING>","43.486738","-80.541305","Monday 11:00 AM : 02:00 AM Tuesday 11:00 AM : 02:00 AM Wednesday 11:00 AM : 02:00 AM Thursday 11:00 AM : 02:00 AM Friday 11:00 AM : 03:00 AM Saturday 11:00 AM : 03:00 AM Sunday 11:00 AM : 02:00 AM "
"https://www.pizzapizza.ca/","https://www.pizzapizza.ca/restaurant-locator/Ontario/Waterloo/450-erb-st.-west/512","450 Erb St. West","450 Erb St. West","Waterloo","ON","N2T1H4","CA","512","5197471111","<MISSING>","43.451907","-80.555393","Monday 11:00 AM : 02:00 AM Tuesday 11:00 AM : 02:00 AM Wednesday 11:00 AM : 02:00 AM Thursday 11:00 AM : 03:00 AM Friday 11:00 AM : 03:00 AM Saturday 11:00 AM : 03:00 AM Sunday 11:00 AM : 02:00 AM "
"https://www.pizzapizza.ca/","https://www.pizzapizza.ca/restaurant-locator/Ontario/Pickering/1450-kingston-road/46","1450 Kingston Road","1450 Kingston Road","Pickering","ON","L1V1C1","CA","46","4169671111","<MISSING>","43.841423","-79.083495","Monday 11:00 AM : 02:00 AM Tuesday 11:00 AM : 02:00 AM Wednesday 11:00 AM : 02:00 AM Thursday 11:00 AM : 02:00 AM Friday 11:00 AM : 03:00 AM Saturday 11:00 AM : 03:00 AM Sunday 11:00 AM : 02:00 AM "
"https://www.pizzapizza.ca/","https://www.pizzapizza.ca/restaurant-locator/Ontario/Pickering/6-7-705-kingston-road/121","705 Kingston Road","6-7 705 Kingston Road","Pickering","ON","L1V6V3","CA","121","4169671111","<MISSING>","43.819414","-79.114856","Monday 11:00 AM : 02:00 AM Tuesday 11:00 AM : 02:00 AM Wednesday 11:00 AM : 02:00 AM Thursday 11:00 AM : 03:00 AM Friday 11:00 AM : 03:00 AM Saturday 11:00 AM : 03:00 AM Sunday 11:00 AM : 02:00 AM "
"https://www.pizzapizza.ca/","https://www.pizzapizza.ca/restaurant-locator/Ontario/Pickering/4-1822-whites-road/263","1822 Whites Road","4 1822 Whites Road","Pickering","ON","L1V4M1","CA","263","4169671111","<MISSING>","43.830536","-79.120821","Monday 11:00 AM : 02:00 AM Tuesday 11:00 AM : 02:00 AM Wednesday 11:00 AM : 02:00 AM Thursday 11:00 AM : 03:00 AM Friday 11:00 AM : 03:00 AM Saturday 11:00 AM : 03:00 AM Sunday 11:00 AM : 02:00 AM "
"https://www.pizzapizza.ca/","https://www.pizzapizza.ca/restaurant-locator/Ontario/Toronto_-_East_York/45-overlea-boulevard/2","45 Overlea Boulevard","45 Overlea Boulevard","Toronto - East York","ON","M4H1C3","CA","2","4169671111","<MISSING>","43.705006","-79.349514","Monday 11:00 AM : 02:00 AM Tuesday 11:00 AM : 02:00 AM Wednesday 11:00 AM : 02:00 AM Thursday 11:00 AM : 03:00 AM Friday 11:00 AM : 03:00 AM Saturday 11:00 AM : 03:00 AM Sunday 11:00 AM : 02:00 AM "
"https://www.pizzapizza.ca/","https://www.pizzapizza.ca/restaurant-locator/Ontario/Toronto_-_East_York/1641-bayview-avenue/31","1641 Bayview Avenue","1641 Bayview Avenue","Toronto - East York","ON","M4G3C1","CA","31","4169671111","<MISSING>","43.707068","-79.375554","Monday 11:00 AM : 11:59 PM Tuesday 11:00 AM : 11:59 PM Wednesday 11:00 AM : 11:59 PM Thursday 11:00 AM : 01:00 AM Friday 11:00 AM : 01:00 AM Saturday 11:00 AM : 01:00 AM Sunday 11:00 AM : 11:59 PM "
"https://www.pizzapizza.ca/","https://www.pizzapizza.ca/restaurant-locator/Ontario/Toronto_-_East_York/796-o'connor-drive/99","796 O'Connor Drive","796 O'Connor Drive","Toronto - East York","ON","M4B2S6","CA","99","4169671111","<MISSING>","43.705203","-79.312925","Monday 11:00 AM : 02:00 AM Tuesday 11:00 AM : 02:00 AM Wednesday 11:00 AM : 02:00 AM Thursday 11:00 AM : 03:00 AM Friday 11:00 AM : 03:00 AM Saturday 11:00 AM : 03:00 AM Sunday 11:00 AM : 02:00 AM "
"https://www.pizzapizza.ca/","https://www.pizzapizza.ca/restaurant-locator/Ontario/Toronto_-_Thornhill/8053-yonge-street/58","8053 Yonge Street","8053 Yonge Street","Toronto - Thornhill","ON","L3T2C3","CA","58","4169671111","<MISSING>","43.823898","-79.426167","Monday 11:00 AM : 02:00 AM Tuesday 11:00 AM : 02:00 AM Wednesday 11:00 AM : 02:00 AM Thursday 11:00 AM : 02:00 AM Friday 11:00 AM : 03:00 AM Saturday 11:00 AM : 03:00 AM Sunday 11:00 AM : 02:00 AM "
"https://www.pizzapizza.ca/","https://www.pizzapizza.ca/restaurant-locator/Ontario/Toronto_-_Thornhill/800-unit-c-01-steeles-avenue-west/66","800 Unit C-01 Steeles Avenue West","800 Unit C-01 Steeles Avenue West","Toronto - Thornhill","ON","L4J7L2","CA","66","4169671111","<MISSING>","43.792265","-79.447258","Monday 11:00 AM : 02:00 AM Tuesday 11:00 AM : 02:00 AM Wednesday 11:00 AM : 02:00 AM Thursday 11:00 AM : 03:00 AM Friday 11:00 AM : 03:00 AM Saturday 11:00 AM : 03:00 AM Sunday 11:00 AM : 02:00 AM "
"https://www.pizzapizza.ca/","https://www.pizzapizza.ca/restaurant-locator/Ontario/Toronto_-_Thornhill/20-1450-clark-avenue-west/254","1450 Clark Avenue West","20 1450 Clark Avenue West","Toronto - Thornhill","ON","L4J7R5","CA","254","4169671111","<MISSING>","43.79774","-79.4708","Monday 11:00 AM : 02:00 AM Tuesday 11:00 AM : 02:00 AM Wednesday 11:00 AM : 02:00 AM Thursday 11:00 AM : 02:00 AM Friday 11:00 AM : 03:00 AM Saturday 11:00 AM : 03:00 AM Sunday 11:00 AM : 02:00 AM "
"https://www.pizzapizza.ca/","https://www.pizzapizza.ca/restaurant-locator/Ontario/Brantford/110-603-colborne-street-east/682","603 Colborne Street East","110 603 Colborne Street East","Brantford","ON","N3S7S8","CA","682","5197591111","<MISSING>","43.140313","-80.241209","Monday 11:00 AM : 02:00 AM Tuesday 11:00 AM : 02:00 AM Wednesday 11:00 AM : 02:00 AM Thursday 11:00 AM : 03:00 AM Friday 11:00 AM : 03:00 AM Saturday 11:00 AM : 03:00 AM Sunday 11:00 AM : 02:00 AM "
"https://www.pizzapizza.ca/","https://www.pizzapizza.ca/restaurant-locator/Ontario/Brantford/225-fairview-drive-(north-park-pla/683","225 Fairview Drive (North Park Pla","225 Fairview Drive (North Park Pla","Brantford","ON","N3R7E3","CA","683","5197591111","<MISSING>","43.170123","-80.263551","Monday 11:00 AM : 02:00 AM Tuesday 11:00 AM : 02:00 AM Wednesday 11:00 AM : 02:00 AM Thursday 11:00 AM : 03:00 AM Friday 11:00 AM : 03:00 AM Saturday 11:00 AM : 03:00 AM Sunday 11:00 AM : 02:00 AM "
"https://www.pizzapizza.ca/","https://www.pizzapizza.ca/restaurant-locator/Ontario/Orleans/2369-st-joseph-boulevard/215","2369 St Joseph Boulevard","2369 St Joseph Boulevard","Orleans","ON","K1C2E3","CA","215","6137371111","<MISSING>","45.469052","-75.529673","Monday 11:00 AM : 11:00 PM Tuesday 11:00 AM : 11:00 PM Wednesday 11:00 AM : 11:00 PM Thursday 11:00 AM : 11:00 PM Friday 11:00 AM : 01:00 AM Saturday 11:00 AM : 01:00 AM Sunday 11:00 AM : 11:00 PM "
"https://www.pizzapizza.ca/","https://www.pizzapizza.ca/restaurant-locator/Ontario/Orleans/1958-portobello-boulevard/226","1958 Portobello Boulevard","1958 Portobello Boulevard","Orleans","ON","K4A4E7","CA","226","6137371111","<MISSING>","45.463524","-75.464177","Monday 11:00 AM : 11:00 PM Tuesday 11:00 AM : 11:00 PM Wednesday 11:00 AM : 11:00 PM Thursday 11:00 AM : 11:00 PM Friday 11:00 AM : 01:00 AM Saturday 11:00 AM : 01:00 AM Sunday 11:00 AM : 11:00 PM "
"https://www.pizzapizza.ca/","https://www.pizzapizza.ca/restaurant-locator/Ontario/Tillsonburg/394-simcoe-street/1206","394 Simcoe Street","394 Simcoe Street","Tillsonburg","ON","N4G2J9","CA","1206","5196884040","<MISSING>","42.854332","-80.693063","Monday 11:00 AM : 10:00 PM Tuesday 11:00 AM : 10:00 PM Wednesday 11:00 AM : 10:00 PM Thursday 11:00 AM : 10:00 PM Friday 11:00 AM : 10:00 PM Saturday 11:00 AM : 10:00 PM Sunday 11:00 AM : 10:00 PM "
"https://www.pizzapizza.ca/","https://www.pizzapizza.ca/restaurant-locator/Ontario/Woodstock/609-dundas-east-street/665","609 Dundas East Street","609 Dundas East Street","Woodstock","ON","N4S1C9","CA","665","5194211111","<MISSING>","43.130994","-80.751583","Monday 11:00 AM : 02:00 AM Tuesday 11:00 AM : 02:00 AM Wednesday 11:00 AM : 02:00 AM Thursday 11:00 AM : 03:00 AM Friday 11:00 AM : 03:00 AM Saturday 11:00 AM : 03:00 AM Sunday 11:00 AM : 02:00 AM "
"https://www.pizzapizza.ca/","https://www.pizzapizza.ca/restaurant-locator/Ontario/Woodstock/595771-highway-59/1217","595771 Highway 59","595771 Highway 59","Woodstock","ON","N4S7W1","CA","1217","5194622003","<MISSING>","43.10736","-80.734265","Monday 11:00 AM : 10:00 PM Tuesday 11:00 AM : 10:00 PM Wednesday 11:00 AM : 10:00 PM Thursday 11:00 AM : 10:00 PM Friday 11:00 AM : 10:00 PM Saturday 11:00 AM : 10:00 PM Sunday 11:00 AM : 10:00 PM "
"https://www.pizzapizza.ca/","https://www.pizzapizza.ca/restaurant-locator/Ontario/Aurora/446-hollandview-trail/291","446 Hollandview Trail","446 Hollandview Trail","Aurora","ON","L4G7Z9","CA","291","4169671111","<MISSING>","44.015358","-79.447567","Monday 11:00 AM : 02:00 AM Tuesday 11:00 AM : 02:00 AM Wednesday 11:00 AM : 02:00 AM Thursday 11:00 AM : 02:00 AM Friday 11:00 AM : 03:00 AM Saturday 11:00 AM : 03:00 AM Sunday 11:00 AM : 02:00 AM "
"https://www.pizzapizza.ca/","https://www.pizzapizza.ca/restaurant-locator/Ontario/Welland/800-niagara-street/187","800 Niagara Street","800 Niagara Street","Welland","ON","L3C5Z4","CA","187","9056871111","<MISSING>","43.014883","-79.249741","Monday 11:00 AM : 01:00 AM Tuesday 11:00 AM : 01:00 AM Wednesday 11:00 AM : 01:00 AM Thursday 11:00 AM : 01:00 AM Friday 11:00 AM : 02:00 AM Saturday 11:00 AM : 02:00 AM Sunday 11:00 AM : 01:00 AM "
"https://www.pizzapizza.ca/","https://www.pizzapizza.ca/restaurant-locator/Ontario/Welland/937-east-main-street/1203","937 East Main Street","937 East Main Street","Welland","ON","L3B3Z1","CA","1203","9057147777","<MISSING>","42.993212","-79.229031","Monday 11:00 AM : 10:00 PM Tuesday 11:00 AM : 10:00 PM Wednesday 11:00 AM : 10:00 PM Thursday 11:00 AM : 10:00 PM Friday 11:00 AM : 10:00 PM Saturday 11:00 AM : 10:00 PM Sunday 11:00 AM : 10:00 PM "
"https://www.pizzapizza.ca/","https://www.pizzapizza.ca/restaurant-locator/Ontario/Niagara_Falls/6225-lundy's-lane/180","6225 Lundy's Lane","6225 Lundy's Lane","Niagara Falls","ON","L2G1T5","CA","180","9056871111","<MISSING>","43.089557","-79.098278","Monday 11:00 AM : 02:00 AM Tuesday 11:00 AM : 02:00 AM Wednesday 11:00 AM : 02:00 AM Thursday 11:00 AM : 03:00 AM Friday 11:00 AM : 03:00 AM Saturday 11:00 AM : 03:00 AM Sunday 11:00 AM : 02:00 AM "
"https://www.pizzapizza.ca/","https://www.pizzapizza.ca/restaurant-locator/Ontario/Niagara_Falls/30-3642-portage-road/182","3642 Portage Road","30 3642 Portage Road","Niagara Falls","ON","L2J2K8","CA","182","9056871111","<MISSING>","43.120267","-79.099424","Monday 11:00 AM : 02:00 AM Tuesday 11:00 AM : 02:00 AM Wednesday 11:00 AM : 02:00 AM Thursday 11:00 AM : 03:00 AM Friday 11:00 AM : 03:00 AM Saturday 11:00 AM : 03:00 AM Sunday 11:00 AM : 02:00 AM "
"https://www.pizzapizza.ca/","https://www.pizzapizza.ca/restaurant-locator/Ontario/Thunder_Bay/820-red-river-road/696","820 Red River Road","820 Red River Road","Thunder Bay","ON","P7B1K2","CA","696","8077671111","<MISSING>","48.445202","-89.247733","Monday 11:00 AM : 11:59 PM Tuesday 11:00 AM : 11:59 PM Wednesday 11:00 AM : 11:59 PM Thursday 11:00 AM : 11:59 PM Friday 11:00 AM : 02:00 AM Saturday 11:00 AM : 02:00 AM Sunday 11:00 AM : 11:59 PM "
"https://www.pizzapizza.ca/","https://www.pizzapizza.ca/restaurant-locator/Ontario/Thunder_Bay/425-edward-street-north/697","425 Edward Street North","425 Edward Street North","Thunder Bay","ON","P7C4P7","CA","697","8077671111","<MISSING>","48.393678","-89.277956","Monday 11:00 AM : 11:59 PM Tuesday 11:00 AM : 11:59 PM Wednesday 11:00 AM : 11:59 PM Thursday 11:00 AM : 11:59 PM Friday 11:00 AM : 02:00 AM Saturday 11:00 AM : 02:00 AM Sunday 11:00 AM : 11:59 PM "
"https://www.pizzapizza.ca/","https://www.pizzapizza.ca/restaurant-locator/Ontario/York/500-rogers-road/107","500 Rogers Road","500 Rogers Road","York","ON","M6M1B3","CA","107","4169671111","<MISSING>","43.682001","-79.467991","Monday 11:00 AM : 02:00 AM Tuesday 11:00 AM : 02:00 AM Wednesday 11:00 AM : 02:00 AM Thursday 11:00 AM : 03:00 AM Friday 11:00 AM : 03:00 AM Saturday 11:00 AM : 03:00 AM Sunday 11:00 AM : 02:00 AM "
"https://www.pizzapizza.ca/","https://www.pizzapizza.ca/restaurant-locator/Ontario/York/1601-eglinton-ave-west./120","1601 Eglinton Ave West.","1601 Eglinton Ave West.","York","ON","M6E2H1","CA","120","4169671111","<MISSING>","43.697263","-79.44288","Monday 11:00 AM : 02:00 AM Tuesday 11:00 AM : 02:00 AM Wednesday 11:00 AM : 02:00 AM Thursday 11:00 AM : 03:00 AM Friday 11:00 AM : 03:00 AM Saturday 11:00 AM : 03:00 AM Sunday 11:00 AM : 02:00 AM "
"https://www.pizzapizza.ca/","https://www.pizzapizza.ca/restaurant-locator/Ontario/Gloucester/1950-montreal-road/209","1950 Montreal Road","1950 Montreal Road","Gloucester","ON","K1J6N2","CA","209","6137371111","<MISSING>","45.447086","-75.600211","Monday 11:00 AM : 11:59 PM Tuesday 11:00 AM : 11:59 PM Wednesday 11:00 AM : 11:59 PM Thursday 11:00 AM : 11:59 PM Friday 11:00 AM : 01:00 AM Saturday 11:00 AM : 01:00 AM Sunday 11:00 AM : 11:59 PM "
"https://www.pizzapizza.ca/","https://www.pizzapizza.ca/restaurant-locator/Ontario/Gloucester/1615-orleans-boulevard/216","1615 Orleans Boulevard","1615 Orleans Boulevard","Gloucester","ON","K1C7E2","CA","216","6137371111","<MISSING>","45.462046","-75.526355","Monday 11:00 AM : 11:00 PM Tuesday 11:00 AM : 11:00 PM Wednesday 11:00 AM : 11:00 PM Thursday 11:00 AM : 11:00 PM Friday 11:00 AM : 01:00 AM Saturday 11:00 AM : 01:00 AM Sunday 11:00 AM : 11:00 PM "
"https://www.pizzapizza.ca/","https://www.pizzapizza.ca/restaurant-locator/Ontario/Cambridge/#-35-200-franklin-blvd./508","200 Franklin Blvd.","# 35 200 Franklin Blvd.","Cambridge","ON","N1R8N8","CA","508","5196581111","<MISSING>","43.353702","-80.289233","Monday 11:00 AM : 11:59 PM Tuesday 11:00 AM : 11:59 PM Wednesday 11:00 AM : 11:59 PM Thursday 11:00 AM : 11:59 PM Friday 11:00 AM : 03:00 AM Saturday 11:00 AM : 03:00 AM Sunday 11:00 AM : 11:59 PM "
"https://www.pizzapizza.ca/","https://www.pizzapizza.ca/restaurant-locator/Ontario/Cambridge/561-hespeler-road/509","561 Hespeler Road","561 Hespeler Road","Cambridge","ON","N1R6J4","CA","509","5196581111","<MISSING>","43.40321","-80.325568","Monday 11:00 AM : 11:59 PM Tuesday 11:00 AM : 11:59 PM Wednesday 11:00 AM : 11:59 PM Thursday 11:00 AM : 11:59 PM Friday 11:00 AM : 03:00 AM Saturday 11:00 AM : 03:00 AM Sunday 11:00 AM : 11:59 PM "
"https://www.pizzapizza.ca/","https://www.pizzapizza.ca/restaurant-locator/Ontario/Vaughan/3737-major-mackenzie-drive---buildi/277","3737 Major Mackenzie Drive - Buildi","3737 Major Mackenzie Drive - Buildi","Vaughan","ON","L6Z4N8","CA","277","4169671111","<MISSING>","43.844786","-79.560098","Monday 11:00 AM : 11:59 PM Tuesday 11:00 AM : 11:59 PM Wednesday 11:00 AM : 11:59 PM Thursday 11:00 AM : 11:59 PM Friday 11:00 AM : 02:00 AM Saturday 11:00 AM : 02:00 AM Sunday 11:00 AM : 11:59 PM "
"https://www.pizzapizza.ca/","https://www.pizzapizza.ca/restaurant-locator/Ontario/Vaughan/1430-major-mackenzie-drive-west/292","1430 Major MacKenzie Drive West","1430 Major MacKenzie Drive West","Vaughan","ON","L6A1S2","CA","292","4169671111","<MISSING>","43.861434","-79.486493","Monday 11:00 AM : 11:59 PM Tuesday 11:00 AM : 11:59 PM Wednesday 11:00 AM : 11:59 PM Thursday 11:00 AM : 11:59 PM Friday 11:00 AM : 02:00 AM Saturday 11:00 AM : 02:00 AM Sunday 11:00 AM : 11:59 PM "
"https://www.pizzapizza.ca/","https://www.pizzapizza.ca/restaurant-locator/Ontario/Nepean/560b-1642-merivale-road/212","1642 Merivale Road","560B 1642 Merivale Road","Nepean","ON","K2G4A1","CA","212","6137371111","<MISSING>","45.345808","-75.730527","Monday 11:00 AM : 11:59 PM Tuesday 11:00 AM : 11:59 PM Wednesday 11:00 AM : 11:59 PM Thursday 11:00 AM : 01:00 AM Friday 11:00 AM : 01:00 AM Saturday 11:00 AM : 01:00 AM Sunday 11:00 AM : 11:59 PM "
"https://www.pizzapizza.ca/","https://www.pizzapizza.ca/restaurant-locator/Ontario/Nepean/1826-robertson-road/220","1826 ROBERTSON ROAD","1826 ROBERTSON ROAD","Nepean","ON","K2H5Z6","CA","220","6137371111","<MISSING>","45.3279","-75.818922","Monday 11:00 AM : 11:59 PM Tuesday 11:00 AM : 11:59 PM Wednesday 11:00 AM : 11:59 PM Thursday 11:00 AM : 11:59 PM Friday 11:00 AM : 01:00 AM Saturday 11:00 AM : 01:00 AM Sunday 11:00 AM : 11:59 PM "
"https://www.pizzapizza.ca/","https://www.pizzapizza.ca/restaurant-locator/Ontario/Barrhaven/3171-strandherd-drive/229","3171 Strandherd Drive","3171 Strandherd Drive","Barrhaven","ON","K2J5N1","CA","229","6137371111","<MISSING>","45.275057","-75.721177","Monday 11:00 AM : 11:59 PM Tuesday 11:00 AM : 11:59 PM Wednesday 11:00 AM : 11:59 PM Thursday 11:00 AM : 11:59 PM Friday 11:00 AM : 01:00 AM Saturday 11:00 AM : 01:00 AM Sunday 11:00 AM : 11:59 PM "
"https://www.pizzapizza.ca/","https://www.pizzapizza.ca/restaurant-locator/Ontario/Barrhaven/50-market-place-avenue/233","50 Market Place Avenue","50 Market Place Avenue","Barrhaven","ON","K2J5G3","CA","233","6137371111","<MISSING>","45.27028","-75.74192","Monday 11:00 AM : 11:59 PM Tuesday 11:00 AM : 11:59 PM Wednesday 11:00 AM : 11:59 PM Thursday 11:00 AM : 11:59 PM Friday 11:00 AM : 01:00 AM Saturday 11:00 AM : 01:00 AM Sunday 11:00 AM : 11:59 PM "
"https://www.pizzapizza.ca/","https://www.pizzapizza.ca/restaurant-locator/Ontario/Milton/3-500-laurier-avenue/653","500 Laurier Avenue","3 500 Laurier Avenue","Milton","ON","L9T4R3","CA","653","4169671111","<MISSING>","43.50796","-79.863251","Monday 11:00 AM : 01:00 AM Tuesday 11:00 AM : 01:00 AM Wednesday 11:00 AM : 01:00 AM Thursday 11:00 AM : 01:00 AM Friday 11:00 AM : 03:00 AM Saturday 11:00 AM : 03:00 AM Sunday 11:00 AM : 01:00 AM "
"https://www.pizzapizza.ca/","https://www.pizzapizza.ca/restaurant-locator/Ontario/Milton/6521-derry-road-west/659","6521 Derry Road West","6521 Derry Road West","Milton","ON","L9T7W1","CA","659","4169671111","<MISSING>","43.491916","-79.878321","Monday 11:00 AM : 01:00 AM Tuesday 11:00 AM : 01:00 AM Wednesday 11:00 AM : 01:00 AM Thursday 11:00 AM : 01:00 AM Friday 11:00 AM : 03:00 AM Saturday 11:00 AM : 03:00 AM Sunday 11:00 AM : 01:00 AM "
"https://www.pizzapizza.ca/","https://www.pizzapizza.ca/restaurant-locator/Ontario/Sudbury/52-elm-street/678","52 Elm Street","52 Elm Street","Sudbury","ON","P3C1S7","CA","678","7056731111","<MISSING>","46.493152","-80.994665","Monday 11:00 AM : 02:00 AM Tuesday 11:00 AM : 02:00 AM Wednesday 11:00 AM : 02:00 AM Thursday 11:00 AM : 03:00 AM Friday 11:00 AM : 03:00 AM Saturday 11:00 AM : 03:00 AM Sunday 11:00 AM : 02:00 AM "
"https://www.pizzapizza.ca/","https://www.pizzapizza.ca/restaurant-locator/Ontario/Grimsby/63-main-street-west/168","63 Main Street West","63 Main Street West","Grimsby","ON","L3M4H1","CA","168","9055271111","<MISSING>","43.194304","-79.562973","Monday 11:00 AM : 11:00 PM Tuesday 11:00 AM : 11:00 PM Wednesday 11:00 AM : 11:00 PM Thursday 11:00 AM : 11:00 PM Friday 11:00 AM : 01:00 AM Saturday 11:00 AM : 01:00 AM Sunday 11:00 AM : 11:00 PM "
"https://www.pizzapizza.ca/","https://www.pizzapizza.ca/restaurant-locator/Ontario/Bowmanville/570-longworth-ave./667","570 Longworth Ave.","570 Longworth Ave.","Bowmanville","ON","L1C0E8","CA","667","9056971111","<MISSING>","43.92751","-78.6937","Monday 11:00 AM : 02:00 AM Tuesday 11:00 AM : 02:00 AM Wednesday 11:00 AM : 02:00 AM Thursday 11:00 AM : 03:00 AM Friday 11:00 AM : 03:00 AM Saturday 11:00 AM : 03:00 AM Sunday 11:00 AM : 02:00 AM "
"https://www.pizzapizza.ca/","https://www.pizzapizza.ca/restaurant-locator/Ontario/Bowmanville/200-king-st.-e./668","200 King St. E.","200 King St. E.","Bowmanville","ON","L1C1P3","CA","668","9056971111","<MISSING>","43.911004","-78.678847","Monday 11:00 AM : 02:00 AM Tuesday 11:00 AM : 02:00 AM Wednesday 11:00 AM : 02:00 AM Thursday 11:00 AM : 03:00 AM Friday 11:00 AM : 03:00 AM Saturday 11:00 AM : 03:00 AM Sunday 11:00 AM : 02:00 AM "
"https://www.pizzapizza.ca/","https://www.pizzapizza.ca/restaurant-locator/Ontario/Lindsay/145-kent-street-west/663","145 Kent Street West","145 Kent Street West","Lindsay","ON","K9V2Y5","CA","663","7053281111","<MISSING>","44.354485","-78.738573","Monday 11:00 AM : 11:59 PM Tuesday 11:00 AM : 11:59 PM Wednesday 11:00 AM : 11:59 PM Thursday 11:00 AM : 11:59 PM Friday 11:00 AM : 03:00 AM Saturday 11:00 AM : 03:00 AM Sunday 11:00 AM : 11:59 PM "
"https://www.pizzapizza.ca/","https://www.pizzapizza.ca/restaurant-locator/Ontario/Lindsay/306-hwy-36/954","306 Hwy 36","306 Hwy 36","Lindsay","ON","K9V4R4","CA","954","7053247786","<MISSING>","44.359549","-78.718002","Monday 11:00 AM : 10:00 PM Tuesday 11:00 AM : 10:00 PM Wednesday 11:00 AM : 10:00 PM Thursday 11:00 AM : 10:00 PM Friday 11:00 AM : 10:00 PM Saturday 11:00 AM : 10:00 PM Sunday 11:00 AM : 10:00 PM "
"https://www.pizzapizza.ca/","https://www.pizzapizza.ca/restaurant-locator/Ontario/Trenton/35-dundas-street-west/670","35 Dundas Street West","35 Dundas Street West","Trenton","ON","K8V3N9","CA","670","6139651111","<MISSING>","44.101384","-77.575765","Monday 11:00 AM : 01:00 AM Tuesday 11:00 AM : 01:00 AM Wednesday 11:00 AM : 01:00 AM Thursday 11:00 AM : 01:00 AM Friday 11:00 AM : 02:00 AM Saturday 11:00 AM : 02:00 AM Sunday 11:00 AM : 01:00 AM "
"https://www.pizzapizza.ca/","https://www.pizzapizza.ca/restaurant-locator/Ontario/Puslinch/311-brock-road-south/717","311 Brock Road South","311 Brock Road South","Puslinch","ON","N1H6H9","CA","717","5197660444","<MISSING>","43.456261","-80.129113","Monday 11:00 AM : 10:00 PM Tuesday 11:00 AM : 10:00 PM Wednesday 11:00 AM : 10:00 PM Thursday 11:00 AM : 10:00 PM Friday 11:00 AM : 10:00 PM Saturday 11:00 AM : 10:00 PM Sunday 11:00 AM : 10:00 PM "
"https://www.pizzapizza.ca/","https://www.pizzapizza.ca/restaurant-locator/Ontario/Bancroft/17-station-street/680","17 Station Street","17 Station Street","Bancroft","ON","K0L1C0","CA","680","6133321111","<MISSING>","45.05917","-77.856221","Monday 12:00 PM : 10:00 PM Tuesday 12:00 PM : 10:00 PM Wednesday 12:00 PM : 10:00 PM Thursday 12:00 PM : 10:00 PM Friday 11:00 AM : 11:00 PM Saturday 11:00 AM : 11:00 PM Sunday 12:00 PM : 10:00 PM "
"https://www.pizzapizza.ca/","https://www.pizzapizza.ca/restaurant-locator/Ontario/Bramalea/980-central-park-drive/36","980 Central Park Drive","980 Central Park Drive","Bramalea","ON","L6S3L7","CA","36","4169671111","<MISSING>","43.733333","-79.719572","Monday 11:00 AM : 02:00 AM Tuesday 11:00 AM : 02:00 AM Wednesday 11:00 AM : 02:00 AM Thursday 11:00 AM : 03:00 AM Friday 11:00 AM : 03:00 AM Saturday 11:00 AM : 03:00 AM Sunday 11:00 AM : 02:00 AM "
"https://www.pizzapizza.ca/","https://www.pizzapizza.ca/restaurant-locator/Ontario/Arnprior/375-daniel-street-south/709","375 Daniel Street South","375 Daniel Street South","Arnprior","ON","K7S3K6","CA","709","6136231111","<MISSING>","45.425517","-76.367759","Monday 11:00 AM : 10:00 PM Tuesday 11:00 AM : 10:00 PM Wednesday 11:00 AM : 10:00 PM Thursday 11:00 AM : 10:00 PM Friday 11:00 AM : 11:59 PM Saturday 11:00 AM : 11:59 PM Sunday 11:00 AM : 10:00 PM "
"https://www.pizzapizza.ca/","https://www.pizzapizza.ca/restaurant-locator/Ontario/Owen_Sound/908-2nd-avenue-east/672","908 2nd Avenue East","908 2nd Avenue East","Owen Sound","ON","N4K2H6","CA","672","5193761111","<MISSING>","44.566005","-80.943069","Monday 11:00 AM : 02:00 AM Tuesday 11:00 AM : 02:00 AM Wednesday 11:00 AM : 02:00 AM Thursday 11:00 AM : 03:00 AM Friday 11:00 AM : 03:00 AM Saturday 11:00 AM : 03:00 AM Sunday 11:00 AM : 02:00 AM "
"https://www.pizzapizza.ca/","https://www.pizzapizza.ca/restaurant-locator/Ontario/Cobourg/100-king-street-west/669","100 King Street West","100 King Street West","Cobourg","ON","K9A2M3","CA","669","9053721111","<MISSING>","43.959565","-78.169579","Monday 11:00 AM : 11:59 PM Tuesday 11:00 AM : 11:59 PM Wednesday 11:00 AM : 11:59 PM Thursday 11:00 AM : 11:59 PM Friday 11:00 AM : 03:00 AM Saturday 11:00 AM : 03:00 AM Sunday 11:00 AM : 11:59 PM "
"https://www.pizzapizza.ca/","https://www.pizzapizza.ca/restaurant-locator/Ontario/Orangeville/210-broadway-avenue/651","210 Broadway Avenue","210 Broadway Avenue","Orangeville","ON","L9W5G4","CA","651","5199411111","<MISSING>","43.919232","-80.097654","Monday 11:00 AM : 02:00 AM Tuesday 11:00 AM : 02:00 AM Wednesday 11:00 AM : 02:00 AM Thursday 11:00 AM : 03:00 AM Friday 11:00 AM : 03:00 AM Saturday 11:00 AM : 03:00 AM Sunday 11:00 AM : 02:00 AM "
