"locator_domain","page_url","location_name","street_address","city","state","zip","country_code","store_number","phone","location_type","latitude","longitude","hours_of_operation"
"https://www.oshkosh.com/","https://www.oshkosh.com/on/demandware.store/Sites-Carters-Site/default/Stores-ShowAll","OshKosh B'Gosh Tanger Outlet Center Foley","2601 South McKenzie StreetSpace 212","Foley","AL","36535","US","<MISSING>","(251) 943-3727","<MISSING>","30.375237","-87.6846637","<MISSING>"
"https://www.oshkosh.com/","https://www.oshkosh.com/on/demandware.store/Sites-Carters-Site/default/Stores-ShowAll","Carter's Foley","2601 South McKenzie StreetSpace 214","Foley","AL","36535","US","<MISSING>","(251) 943-3727","<MISSING>","30.375237","-87.6846637","<MISSING>"
"https://www.oshkosh.com/","https://www.oshkosh.com/on/demandware.store/Sites-Carters-Site/default/Stores-ShowAll","Carter's Hoover","2000 Riverchase GalleriaSuite 105","Hoover","AL","35244","US","<MISSING>","(205) 403-2933","<MISSING>","33.3790316","-86.810541","<MISSING>"
"https://www.oshkosh.com/","https://www.oshkosh.com/on/demandware.store/Sites-Carters-Site/default/Stores-ShowAll","OshKosh B'Gosh Riverchase Galleria","2000 Riverchase GalleriaSuite 105","Hoover","AL","35244","US","<MISSING>","(205) 403-2933","<MISSING>","33.3790316","-86.810541","<MISSING>"
"https://www.oshkosh.com/","https://www.oshkosh.com/on/demandware.store/Sites-Carters-Site/default/Stores-ShowAll","OshKosh B'Gosh Westside Centre","6275 University Drive NWSpace 34","Huntsville","AL","35806","US","<MISSING>","(256) 922-5589","<MISSING>","34.7429562","-86.6842093","<MISSING>"
"https://www.oshkosh.com/","https://www.oshkosh.com/on/demandware.store/Sites-Carters-Site/default/Stores-ShowAll","Carter's Huntsville","6275 University Drive NWSpace 34","Huntsville","AL","35806","US","<MISSING>","(256) 922-5589","<MISSING>","34.7429562","-86.6842093","<MISSING>"
"https://www.oshkosh.com/","https://www.oshkosh.com/on/demandware.store/Sites-Carters-Site/default/Stores-ShowAll","Carter's Leeds","6200 Grand River Boulevard EastSuites 334 & 338","Leeds","AL","35094","US","<MISSING>","(205) 699-1148","<MISSING>","33.5483197","-86.5982064","<MISSING>"
"https://www.oshkosh.com/","https://www.oshkosh.com/on/demandware.store/Sites-Carters-Site/default/Stores-ShowAll","OshKosh B'Gosh The Outlet Shops of Grand River","6200 Grand River Boulevard EastSuites 334 & 338","Leeds","AL","35094","US","<MISSING>","(205) 699-1161","<MISSING>","33.5483197","-86.5982064","<MISSING>"
"https://www.oshkosh.com/","https://www.oshkosh.com/on/demandware.store/Sites-Carters-Site/default/Stores-ShowAll","Carter's Mobile","1310 Tingle Circle EastSuite A110","Mobile","AL","36606","US","<MISSING>","(251) 479-3153","<MISSING>","30.6507778","-88.1168358","<MISSING>"
"https://www.oshkosh.com/","https://www.oshkosh.com/on/demandware.store/Sites-Carters-Site/default/Stores-ShowAll","OshKosh B'Gosh McGowin Park","1310 Tingle Circle EastSuite A112","Mobile","AL","36606","US","<MISSING>","<MISSING>","<MISSING>","30.6507778","-88.1168358","<MISSING>"
"https://www.oshkosh.com/","https://www.oshkosh.com/on/demandware.store/Sites-Carters-Site/default/Stores-ShowAll","Carter's Montgomery","2524 Berryhill Road","Montgomery","AL","36117","US","<MISSING>","(334) 279-5347","<MISSING>","32.3587665","-86.1628226","<MISSING>"
"https://www.oshkosh.com/","https://www.oshkosh.com/on/demandware.store/Sites-Carters-Site/default/Stores-ShowAll","OshKosh B'Gosh Spring Creek Center","3843 North Mall AvenueSpace #42","Fayetteville","AR","72703","US","<MISSING>","(479) 521-5896","<MISSING>","36.1209832","-94.1533535","<MISSING>"
"https://www.oshkosh.com/","https://www.oshkosh.com/on/demandware.store/Sites-Carters-Site/default/Stores-ShowAll","Carter's Fayetteville","3843 North Mall Avenue, Space #42","Fayetteville","AR","72703","US","<MISSING>","(479) 521-5896","<MISSING>","36.1209832","-94.1533535","<MISSING>"
"https://www.oshkosh.com/","https://www.oshkosh.com/on/demandware.store/Sites-Carters-Site/default/Stores-ShowAll","Carter's Fort Smith","3845 Phoenix Avenue","Smith","AR","72903","US","<MISSING>","(479) 646-7426","<MISSING>","35.3407874","-94.3925533","<MISSING>"
"https://www.oshkosh.com/","https://www.oshkosh.com/on/demandware.store/Sites-Carters-Site/default/Stores-ShowAll","OshKosh B'Gosh Fort Smith Pavilion","3845 Phoenix Avenue","Smith","AR","72903","US","<MISSING>","(479) 646-7426","<MISSING>","35.3407874","-94.3925533","<MISSING>"
"https://www.oshkosh.com/","https://www.oshkosh.com/on/demandware.store/Sites-Carters-Site/default/Stores-ShowAll","Carter's Jonesboro","3000 East Highland DriveSuite 100, Space 110","Jonesboro","AR","72401","US","<MISSING>","(870) 819-3098","<MISSING>","35.823099","-90.6667458","<MISSING>"
"https://www.oshkosh.com/","https://www.oshkosh.com/on/demandware.store/Sites-Carters-Site/default/Stores-ShowAll","OshKosh B'Gosh The Mall at Turtle Creek","3000 East Highland DriveSuite 100, Space 110","Jonesboro","AR","72401","US","<MISSING>","(870) 819-3098","<MISSING>","35.823099","-90.6667458","<MISSING>"
"https://www.oshkosh.com/","https://www.oshkosh.com/on/demandware.store/Sites-Carters-Site/default/Stores-ShowAll","Carter's Little Rock","11201 Bass Pro ParkwayM-135","Rock","AR","72209","US","<MISSING>","(501) 407-0755","<MISSING>","34.6610791","-92.4103603","<MISSING>"
"https://www.oshkosh.com/","https://www.oshkosh.com/on/demandware.store/Sites-Carters-Site/default/Stores-ShowAll","OshKosh B'Gosh Outlets of Little Rock","11201 Bass Pro ParkwayM-133","Rock","AR","72209","US","<MISSING>","(501) 407-0755","<MISSING>","34.6610791","-92.4103603","<MISSING>"
"https://www.oshkosh.com/","https://www.oshkosh.com/on/demandware.store/Sites-Carters-Site/default/Stores-ShowAll","Carter's North Little Rock","4124 East McCain BoulevardSuite B NLR","Rock","AR","72117","US","<MISSING>","(501) 955-2314","<MISSING>","34.7875551","-92.2232421","<MISSING>"
"https://www.oshkosh.com/","https://www.oshkosh.com/on/demandware.store/Sites-Carters-Site/default/Stores-ShowAll","Carter's Rogers","2203 Promenade BLVD","Rogers","AR","72758","US","<MISSING>","(479) 621-0381","<MISSING>","36.3058036","-94.1779601","<MISSING>"
"https://www.oshkosh.com/","https://www.oshkosh.com/on/demandware.store/Sites-Carters-Site/default/Stores-ShowAll","OshKosh B'Gosh Pinnacle Hills Promenade","2203 Promenade BLVD","Rogers","AR","72758","US","<MISSING>","(479) 621-0381","<MISSING>","36.3058036","-94.1779601","<MISSING>"
"https://www.oshkosh.com/","https://www.oshkosh.com/on/demandware.store/Sites-Carters-Site/default/Stores-ShowAll","Carter's Chandler","3401 West Frye Rd.Suite 11","Chandler","AZ","85226","US","<MISSING>","(480) 786-8866","<MISSING>","33.2971974","-111.9006874","<MISSING>"
"https://www.oshkosh.com/","https://www.oshkosh.com/on/demandware.store/Sites-Carters-Site/default/Stores-ShowAll","Carter's Gilbert","911 East Baseline RoadSuite 101","Gilbert","AZ","85233","US","<MISSING>","(480) 633-5543","<MISSING>","33.3771896","-111.8137003","<MISSING>"
"https://www.oshkosh.com/","https://www.oshkosh.com/on/demandware.store/Sites-Carters-Site/default/Stores-ShowAll","OshKosh B'Gosh Glendale Westgate OshKosh","6800 North 95th AvenueSuite #310","Glendale","AZ","85305","US","<MISSING>","(623) 877-8084","<MISSING>","33.5339643","-112.2679042","<MISSING>"
"https://www.oshkosh.com/","https://www.oshkosh.com/on/demandware.store/Sites-Carters-Site/default/Stores-ShowAll","OshKosh B'Gosh Arrowhead Towne Center","<MISSING>","Glendale","AZ","85312","US","<MISSING>","<MISSING>","<MISSING>","33.581862","-112.2054312","<MISSING>"
"https://www.oshkosh.com/","https://www.oshkosh.com/on/demandware.store/Sites-Carters-Site/default/Stores-ShowAll","Carter's Arrowhead","<MISSING>","Glendale","AZ","85312","US","<MISSING>","<MISSING>","<MISSING>","33.581862","-112.2054312","<MISSING>"
"https://www.oshkosh.com/","https://www.oshkosh.com/on/demandware.store/Sites-Carters-Site/default/Stores-ShowAll","Carter's Glendale Westgate Carters","6800 North 95th AvenueSuite #610","Glendale","AZ","85305","US","<MISSING>","(623) 772-5519","<MISSING>","33.5339643","-112.2679042","<MISSING>"
"https://www.oshkosh.com/","https://www.oshkosh.com/on/demandware.store/Sites-Carters-Site/default/Stores-ShowAll","Carter's Goodyear","1400 North Litchfield Road# G-6","Goodyear","AZ","85395","US","<MISSING>","(623) 536-8199","<MISSING>","33.4608972","-112.3630683","<MISSING>"
"https://www.oshkosh.com/","https://www.oshkosh.com/on/demandware.store/Sites-Carters-Site/default/Stores-ShowAll","Carter's Christown","1703 West Bethany Home RoadSuite C004","Phoenix","AZ","85015","US","<MISSING>","(602) 841-0081","<MISSING>","33.5224329","-112.0984851","<MISSING>"
"https://www.oshkosh.com/","https://www.oshkosh.com/on/demandware.store/Sites-Carters-Site/default/Stores-ShowAll","Carter's Anthem","4250 West Anthem WaySuite 660","Phoenix","AZ","85086","US","<MISSING>","(623) 465-9024","<MISSING>","33.8739885","-112.1527936","<MISSING>"
"https://www.oshkosh.com/","https://www.oshkosh.com/on/demandware.store/Sites-Carters-Site/default/Stores-ShowAll","Carter's Scottsdale","16451 North Scottsdale Rd.Suite 115","Scottsdale","AZ","85254","US","<MISSING>","(480) 596-2910","<MISSING>","33.6352471","-111.9251747","<MISSING>"
"https://www.oshkosh.com/","https://www.oshkosh.com/on/demandware.store/Sites-Carters-Site/default/Stores-ShowAll","Carter's Tempe","5000 Arizona Mills CircleSuite 602","Tempe","AZ","85282","US","<MISSING>","(480) 752-0760","<MISSING>","33.3832288","-111.9665712","<MISSING>"
"https://www.oshkosh.com/","https://www.oshkosh.com/on/demandware.store/Sites-Carters-Site/default/Stores-ShowAll","OshKosh B'Gosh Tucson Spectrum","5133 South Calle Santa Cruz","Tucson","AZ","85706","US","<MISSING>","(520) 573-2940","<MISSING>","32.158335","-110.9918717","<MISSING>"
"https://www.oshkosh.com/","https://www.oshkosh.com/on/demandware.store/Sites-Carters-Site/default/Stores-ShowAll","Carter's Irvington","5133 South Calle Santa Cruz","Tucson","AZ","85706","US","<MISSING>","(520) 573-2940","<MISSING>","32.158335","-110.9918717","<MISSING>"
"https://www.oshkosh.com/","https://www.oshkosh.com/on/demandware.store/Sites-Carters-Site/default/Stores-ShowAll","Carter's Park Place","5870 East Broadway BlvdSuite 151","Tucson","AZ","85711","US","<MISSING>","(520) 747-3268","<MISSING>","32.2201836","-110.867686","<MISSING>"
"https://www.oshkosh.com/","https://www.oshkosh.com/on/demandware.store/Sites-Carters-Site/default/Stores-ShowAll","OshKosh B'Gosh Tucson Premium Outlets","6401 West Marana Center BoulevardSuite 412","Tucson","AZ","85742","US","<MISSING>","(520) 918-5513","<MISSING>","32.3755783","-111.1037395","<MISSING>"
"https://www.oshkosh.com/","https://www.oshkosh.com/on/demandware.store/Sites-Carters-Site/default/Stores-ShowAll","OshKosh B'Gosh Park Place","5870 East Broadway BlvdSuite 151","Tucson","AZ","85711","US","<MISSING>","(520) 747-3268","<MISSING>","32.2201836","-110.867686","<MISSING>"
"https://www.oshkosh.com/","https://www.oshkosh.com/on/demandware.store/Sites-Carters-Site/default/Stores-ShowAll","Carter's Marana","6401 West Marana Center BoulevardSuite 420","Tucson","AZ","85742","US","<MISSING>","(520) 918-5513","<MISSING>","32.3755783","-111.1037395","<MISSING>"
"https://www.oshkosh.com/","https://www.oshkosh.com/on/demandware.store/Sites-Carters-Site/default/Stores-ShowAll","Carter's Yuma","1490 South Yuma Palms ParkwaySuite J","Yuma","AZ","85365","US","<MISSING>","(928) 782-3042","<MISSING>","32.700335","-114.6064932","<MISSING>"
"https://www.oshkosh.com/","https://www.oshkosh.com/on/demandware.store/Sites-Carters-Site/default/Stores-ShowAll","Carter's Alameda","2202 South Shore CenterSuite A","Alameda","CA","94501","US","<MISSING>","(510) 865-1320","<MISSING>","37.7575543","-122.2553133","<MISSING>"
"https://www.oshkosh.com/","https://www.oshkosh.com/on/demandware.store/Sites-Carters-Site/default/Stores-ShowAll","Carter's Alpine Carters","5003 Willows Rd.Suite 105","Alpine","CA","91901","US","<MISSING>","(619) 659-0635","<MISSING>","32.8407945","-116.7071873","<MISSING>"
"https://www.oshkosh.com/","https://www.oshkosh.com/on/demandware.store/Sites-Carters-Site/default/Stores-ShowAll","OshKosh B'Gosh Alpine OshKosh","5001 Willows Rd.Suite 111","Alpine","CA","91901","US","<MISSING>","(619) 659-5055","<MISSING>","32.8402323","-116.7104857","<MISSING>"
"https://www.oshkosh.com/","https://www.oshkosh.com/on/demandware.store/Sites-Carters-Site/default/Stores-ShowAll","Carter's Anaheim West","480 North Euclid Street","Anaheim","CA","92801","US","<MISSING>","(714) 991-3216","<MISSING>","33.8376422","-117.9436778","<MISSING>"
"https://www.oshkosh.com/","https://www.oshkosh.com/on/demandware.store/Sites-Carters-Site/default/Stores-ShowAll","Carter's Anaheim Hills","8108 East Santa Ana Canyon RoadSuite #164","Hills","CA","92808","US","<MISSING>","(714) 279-9538","<MISSING>","33.8658094","-117.751575","<MISSING>"
"https://www.oshkosh.com/","https://www.oshkosh.com/on/demandware.store/Sites-Carters-Site/default/Stores-ShowAll","Carter's Antioch","5759 Lone Tree Way","Antioch","CA","94531","US","<MISSING>","(925) 756-7122","<MISSING>","37.9632104","-121.7421279","<MISSING>"
"https://www.oshkosh.com/","https://www.oshkosh.com/on/demandware.store/Sites-Carters-Site/default/Stores-ShowAll","Carter's Apple Valley","19157 Bear Valley RoadSuite #1A","Valley","CA","92308","US","<MISSING>","(760) 240-1539","<MISSING>","34.4698826","-117.2477083","<MISSING>"
"https://www.oshkosh.com/","https://www.oshkosh.com/on/demandware.store/Sites-Carters-Site/default/Stores-ShowAll","OshKosh B'Gosh Jess Ranch Marketplace","19157 Bear Valley RoadSuite #1","Valley","CA","92308","US","<MISSING>","(760) 240-1539","<MISSING>","34.4698826","-117.2477083","<MISSING>"
"https://www.oshkosh.com/","https://www.oshkosh.com/on/demandware.store/Sites-Carters-Site/default/Stores-ShowAll","OshKosh B'Gosh Outlets at Tejon","5701 Outlets at Tejon ParkwaySpace #825","Arvin","CA","93243","US","<MISSING>","(661) 858-2789","<MISSING>","34.9852107","-118.9438546","<MISSING>"
"https://www.oshkosh.com/","https://www.oshkosh.com/on/demandware.store/Sites-Carters-Site/default/Stores-ShowAll","Carter's Arvin","5701 Outlets at Tejon ParkwaySpace #820","Arvin","CA","93203","US","<MISSING>","(661) 858-2789","<MISSING>","34.9852107","-118.9438546","<MISSING>"
"https://www.oshkosh.com/","https://www.oshkosh.com/on/demandware.store/Sites-Carters-Site/default/Stores-ShowAll","Carter's Bakersfield","3784 Ming Avenue","Bakersfield","CA","93309","US","<MISSING>","(661) 836-1736","<MISSING>","35.3406398","-119.0463097","<MISSING>"
"https://www.oshkosh.com/","https://www.oshkosh.com/on/demandware.store/Sites-Carters-Site/default/Stores-ShowAll","Carter's Brea","439 South Associated Road","Brea","CA","92821","US","<MISSING>","(714) 672-0485","<MISSING>","33.9125653","-117.8837413","<MISSING>"
"https://www.oshkosh.com/","https://www.oshkosh.com/on/demandware.store/Sites-Carters-Site/default/Stores-ShowAll","Carter's Burbank","201 East Magnolia BlvdSuite 222","Burbank","CA","91502","US","<MISSING>","(818) 558-4075","<MISSING>","34.1833774","-118.3145935","<MISSING>"
"https://www.oshkosh.com/","https://www.oshkosh.com/on/demandware.store/Sites-Carters-Site/default/Stores-ShowAll","OshKosh B'Gosh Burbank Towne Center","201 East Magnolia BlvdSuite 222","Burbank","CA","91502","US","<MISSING>","(818) 558-4075","<MISSING>","34.1833774","-118.3145935","<MISSING>"
"https://www.oshkosh.com/","https://www.oshkosh.com/on/demandware.store/Sites-Carters-Site/default/Stores-ShowAll","OshKosh B'Gosh Cabazon OshKosh","48400 Seminole Rd.Suite 610","Cabazon","CA","92230","US","<MISSING>","(951) 849-3883","<MISSING>","33.9294336","-116.8175092","<MISSING>"
"https://www.oshkosh.com/","https://www.oshkosh.com/on/demandware.store/Sites-Carters-Site/default/Stores-ShowAll","Carter's Cabazon Carters","48650 Seminole Dr.Suite 1136","Cabazon","CA","92230","US","<MISSING>","(951) 922-3748","<MISSING>","33.9279419","-116.8151315","<MISSING>"
"https://www.oshkosh.com/","https://www.oshkosh.com/on/demandware.store/Sites-Carters-Site/default/Stores-ShowAll","Carter's Calexico","888 West 2nd StreetSuite E180","Calexico","CA","92231","US","<MISSING>","(760) 357-0744","<MISSING>","32.6651379","-115.5097679","<MISSING>"
"https://www.oshkosh.com/","https://www.oshkosh.com/on/demandware.store/Sites-Carters-Site/default/Stores-ShowAll","OshKosh B'Gosh Gran Plaza Outlets","888 West 2nd Street,Suite E170","Calexico","CA","92231","US","<MISSING>","(760) 357-0744","<MISSING>","32.6651379","-115.5097679","<MISSING>"
"https://www.oshkosh.com/","https://www.oshkosh.com/on/demandware.store/Sites-Carters-Site/default/Stores-ShowAll","Carter's Camarillo Carters","990 Camarillo Center Dr.Suite 1006","Camarillo","CA","93010","US","<MISSING>","(805) 384-0027","<MISSING>","34.2147347","-119.059456","<MISSING>"
"https://www.oshkosh.com/","https://www.oshkosh.com/on/demandware.store/Sites-Carters-Site/default/Stores-ShowAll","OshKosh B'Gosh Camarillo OshKosh","740 Ventura Blvd.Suite 436","Camarillo","CA","93010","US","<MISSING>","(805) 445-1116","<MISSING>","34.2175067","-119.0637276","<MISSING>"
"https://www.oshkosh.com/","https://www.oshkosh.com/on/demandware.store/Sites-Carters-Site/default/Stores-ShowAll","Carter's Canoga Park","6520 Canoga Ave.Suite D-1","Park","CA","91303","US","<MISSING>","(818) 340-5483","<MISSING>","34.1890239","-118.5974094","<MISSING>"
"https://www.oshkosh.com/","https://www.oshkosh.com/on/demandware.store/Sites-Carters-Site/default/Stores-ShowAll","Carter's Carlsbad Carters","5630 Paseo Del NorteSuite 143","Carlsbad","CA","92008","US","<MISSING>","(760) 804-0254","<MISSING>","33.1262516","-117.3233766","<MISSING>"
"https://www.oshkosh.com/","https://www.oshkosh.com/on/demandware.store/Sites-Carters-Site/default/Stores-ShowAll","OshKosh B'Gosh Carlsbad OshKosh","5600 Paseo Del NorteSuite 107","Carlsbad","CA","92008","US","<MISSING>","(760) 804-1637","<MISSING>","33.1272074","-117.3234801","<MISSING>"
"https://www.oshkosh.com/","https://www.oshkosh.com/on/demandware.store/Sites-Carters-Site/default/Stores-ShowAll","Carter's Chino","3841 Grand Ave.Suite A","Chino","CA","91710","US","<MISSING>","(909) 628-6276","<MISSING>","33.9972033","-117.7229402","<MISSING>"
"https://www.oshkosh.com/","https://www.oshkosh.com/on/demandware.store/Sites-Carters-Site/default/Stores-ShowAll","Carter's Otay Ranch","2015 Birch RoadSuite 1705","Vista","CA","91915","US","<MISSING>","(619) 482-6984","<MISSING>","32.6244636","-116.9690338","<MISSING>"
"https://www.oshkosh.com/","https://www.oshkosh.com/on/demandware.store/Sites-Carters-Site/default/Stores-ShowAll","OshKosh B'Gosh Terra Nova Plaza","316 East H StreetSuite 704","Vista","CA","91910","US","<MISSING>","(619) 498-1480","<MISSING>","32.6395563","-117.0537983","<MISSING>"
"https://www.oshkosh.com/","https://www.oshkosh.com/on/demandware.store/Sites-Carters-Site/default/Stores-ShowAll","Carter's Terra Nova Plaza","316 East H StreetSuite 704","Vista","CA","91910","US","<MISSING>","(619) 498-1480","<MISSING>","32.6395563","-117.0537983","<MISSING>"
"https://www.oshkosh.com/","https://www.oshkosh.com/on/demandware.store/Sites-Carters-Site/default/Stores-ShowAll","Carter's Colma","4933 Junipero Serra Blvd.","Colma","CA","94014","US","<MISSING>","(650) 997-0284","<MISSING>","37.6743381","-122.4673561","<MISSING>"
"https://www.oshkosh.com/","https://www.oshkosh.com/on/demandware.store/Sites-Carters-Site/default/Stores-ShowAll","Carter's Commerce Carters","100 Citadel Dr.Suite 424","Commerce","CA","90040","US","<MISSING>","(323) 887-8640","<MISSING>","34.0063385","-118.1551424","<MISSING>"
"https://www.oshkosh.com/","https://www.oshkosh.com/on/demandware.store/Sites-Carters-Site/default/Stores-ShowAll","OshKosh B'Gosh Commerce OshKosh","100 Citadel Dr.Suite 422","Commerce","CA","90040","US","<MISSING>","(323) 727-6780","<MISSING>","34.0063385","-118.1551424","<MISSING>"
"https://www.oshkosh.com/","https://www.oshkosh.com/on/demandware.store/Sites-Carters-Site/default/Stores-ShowAll","Carter's Compton","208 Towne Center Drive","Compton","CA","90220","US","<MISSING>","(310) 635-0497","<MISSING>","33.8776269","-118.2227787","<MISSING>"
"https://www.oshkosh.com/","https://www.oshkosh.com/on/demandware.store/Sites-Carters-Site/default/Stores-ShowAll","OshKosh B'Gosh Gateway Towne Center","208 Towne Center Drive","Compton","CA","90220","US","<MISSING>","(310) 635-0497","<MISSING>","33.8776269","-118.2227787","<MISSING>"
"https://www.oshkosh.com/","https://www.oshkosh.com/on/demandware.store/Sites-Carters-Site/default/Stores-ShowAll","OshKosh B'Gosh Crossings at Corona","3383 Tuscany StreetSuite 104","Corona","CA","92881","US","<MISSING>","(951) 278-9083","<MISSING>","33.8271916","-117.5161469","<MISSING>"
"https://www.oshkosh.com/","https://www.oshkosh.com/on/demandware.store/Sites-Carters-Site/default/Stores-ShowAll","Carter's Corona","3383 Tuscany StreetSuite 104","Corona","CA","92881","US","<MISSING>","(951) 278-9083","<MISSING>","33.8271916","-117.5161469","<MISSING>"
"https://www.oshkosh.com/","https://www.oshkosh.com/on/demandware.store/Sites-Carters-Site/default/Stores-ShowAll","Carter's Costa Mesa","1835 Newport BoulevardSuite C-139","Mesa","CA","92627","US","<MISSING>","(949) 764-9158","<MISSING>","33.6422532","-117.9226311","<MISSING>"
"https://www.oshkosh.com/","https://www.oshkosh.com/on/demandware.store/Sites-Carters-Site/default/Stores-ShowAll","Carter's Culver City","11010 Jefferson Boulevard","City","CA","90230","US","<MISSING>","(310) 397-6768","<MISSING>","33.9974362","-118.3965454","<MISSING>"
"https://www.oshkosh.com/","https://www.oshkosh.com/on/demandware.store/Sites-Carters-Site/default/Stores-ShowAll","OshKosh B'Gosh The Promenade at Downey","8960 Apollo Way#A11 A & B","Downey","CA","90242","US","<MISSING>","<MISSING>","<MISSING>","33.9217403","-118.1320578","<MISSING>"
"https://www.oshkosh.com/","https://www.oshkosh.com/on/demandware.store/Sites-Carters-Site/default/Stores-ShowAll","Carter's Downey","8960 Apollo Way#A11 A & B","Downey","CA","90242","US","<MISSING>","(562) 401-0007","<MISSING>","33.9217403","-118.1320578","<MISSING>"
"https://www.oshkosh.com/","https://www.oshkosh.com/on/demandware.store/Sites-Carters-Site/default/Stores-ShowAll","Carter's Eastvale","12435 Limonite Avenue","Eastvale","CA","91752","US","<MISSING>","(951) 727-8298","<MISSING>","33.9764031","-117.5553379","<MISSING>"
"https://www.oshkosh.com/","https://www.oshkosh.com/on/demandware.store/Sites-Carters-Site/default/Stores-ShowAll","Carter's El Cajon","415 Parkway Plaza","Cajon","CA","92020","US","<MISSING>","(619) 593-0279","<MISSING>","32.8048081","-116.9698511","<MISSING>"
"https://www.oshkosh.com/","https://www.oshkosh.com/on/demandware.store/Sites-Carters-Site/default/Stores-ShowAll","OshKosh B'Gosh Parkway Plaza","415 Parkway Plaza","Cajon","CA","92020","US","<MISSING>","(619) 593-0279","<MISSING>","32.8048081","-116.9698511","<MISSING>"
"https://www.oshkosh.com/","https://www.oshkosh.com/on/demandware.store/Sites-Carters-Site/default/Stores-ShowAll","Carter's Elk Grove","7617 Laguna Boulevard","Grove","CA","95758","US","<MISSING>","(916) 691-1865","<MISSING>","38.4259036","-121.4161502","<MISSING>"
"https://www.oshkosh.com/","https://www.oshkosh.com/on/demandware.store/Sites-Carters-Site/default/Stores-ShowAll","Carter's Emeryville","5731 Christie Avenue","Emeryville","CA","94608","US","<MISSING>","(510) 596-3093","<MISSING>","37.8362955","-122.2971889","<MISSING>"
"https://www.oshkosh.com/","https://www.oshkosh.com/on/demandware.store/Sites-Carters-Site/default/Stores-ShowAll","Carter's Escondido","1266 Auto ParkwaySuite J","Escondido","CA","92029","US","<MISSING>","(760) 747-1519","<MISSING>","33.1119425","-117.1003687","<MISSING>"
"https://www.oshkosh.com/","https://www.oshkosh.com/on/demandware.store/Sites-Carters-Site/default/Stores-ShowAll","Carter's Folsom Carters","13000 Folsom Blvd.Space 803","Folsom","CA","95630","US","<MISSING>","(916) 985-2812","<MISSING>","38.6440882","-121.1898958","<MISSING>"
"https://www.oshkosh.com/","https://www.oshkosh.com/on/demandware.store/Sites-Carters-Site/default/Stores-ShowAll","OshKosh B'Gosh Folsom OshKosh","13000 Folsom Blvd.Suite 1530","Folsom","CA","95630","US","<MISSING>","(916) 985-4406","<MISSING>","38.6440882","-121.1898958","<MISSING>"
"https://www.oshkosh.com/","https://www.oshkosh.com/on/demandware.store/Sites-Carters-Site/default/Stores-ShowAll","Carter's Fontana","14980 Summit Avenue","Fontana","CA","92336","US","<MISSING>","(909) 463-6303","<MISSING>","34.1492005","-117.4812301","<MISSING>"
"https://www.oshkosh.com/","https://www.oshkosh.com/on/demandware.store/Sites-Carters-Site/default/Stores-ShowAll","OshKosh B'Gosh Summit Heights Gateway","14980 Summit Avenue","Fontana","CA","92336","US","<MISSING>","(909) 463-6303","<MISSING>","34.1492005","-117.4812301","<MISSING>"
"https://www.oshkosh.com/","https://www.oshkosh.com/on/demandware.store/Sites-Carters-Site/default/Stores-ShowAll","Carter's Fremont","43960 Pacific Commons BoulevardSpace #J1-A","Fremont","CA","94538","US","<MISSING>","(510) 249-9501","<MISSING>","37.5013312","-121.9713344","<MISSING>"
"https://www.oshkosh.com/","https://www.oshkosh.com/on/demandware.store/Sites-Carters-Site/default/Stores-ShowAll","OshKosh B'Gosh Pacific Commons","43960 Pacific Commons BoulevardSpace #J1-A","Fremont","CA","94538","US","<MISSING>","(510) 249-9501","<MISSING>","37.5013312","-121.9713344","<MISSING>"
"https://www.oshkosh.com/","https://www.oshkosh.com/on/demandware.store/Sites-Carters-Site/default/Stores-ShowAll","OshKosh B'Gosh Marketplace at El Paseo","153 South Las Posas Road","Fresno","CA","93720","US","<MISSING>","<MISSING>","<MISSING>","36.80753","-119.85437","<MISSING>"
"https://www.oshkosh.com/","https://www.oshkosh.com/on/demandware.store/Sites-Carters-Site/default/Stores-ShowAll","Carter's Fresno West","153 South Las Posas Road","Fresno","CA","93720","US","<MISSING>","<MISSING>","<MISSING>","36.80753","-119.85437","<MISSING>"
"https://www.oshkosh.com/","https://www.oshkosh.com/on/demandware.store/Sites-Carters-Site/default/Stores-ShowAll","Carter's Fresno","7917 North Blackstone Avenue","Fresno","CA","93720","US","<MISSING>","(559) 432-2963","<MISSING>","36.8506651","-119.7964956","<MISSING>"
"https://www.oshkosh.com/","https://www.oshkosh.com/on/demandware.store/Sites-Carters-Site/default/Stores-ShowAll","Carter's Gilroy Carters","8300 Arroyo CircleSuite A280","Gilroy","CA","95020","US","<MISSING>","(408) 847-3553","<MISSING>","37.0216699","-121.5628259","<MISSING>"
"https://www.oshkosh.com/","https://www.oshkosh.com/on/demandware.store/Sites-Carters-Site/default/Stores-ShowAll","OshKosh B'Gosh Gilroy OshKosh","8300 Arroyo CircleSuite B400","Gilroy","CA","95020","US","<MISSING>","(408) 842-3280","<MISSING>","37.0216699","-121.5628259","<MISSING>"
"https://www.oshkosh.com/","https://www.oshkosh.com/on/demandware.store/Sites-Carters-Site/default/Stores-ShowAll","OshKosh B'Gosh Glendale Galleria","1301 Glendale Galleria, Building D, Level 1Space 1007B","Glendale","CA","91210","US","<MISSING>","(818) 507-8581","<MISSING>","34.1453024","-118.2618981","<MISSING>"
"https://www.oshkosh.com/","https://www.oshkosh.com/on/demandware.store/Sites-Carters-Site/default/Stores-ShowAll","Carter's Glendale","1301 Glendale Galleria, Building D, Level 1Space 1007B","Glendale","CA","91210","US","<MISSING>","(818) 507-8581","<MISSING>","34.1453024","-118.2618981","<MISSING>"
"https://www.oshkosh.com/","https://www.oshkosh.com/on/demandware.store/Sites-Carters-Site/default/Stores-ShowAll","Carter's Granada Hills","18025 Chatsworth Street","Hills","CA","91344","US","<MISSING>","(818) 368-7614","<MISSING>","34.266018","-118.5284007","<MISSING>"
"https://www.oshkosh.com/","https://www.oshkosh.com/on/demandware.store/Sites-Carters-Site/default/Stores-ShowAll","Carter's Hayward","19681 Hesperian Boulevard","Hayward","CA","94541","US","<MISSING>","(510) 785-9781","<MISSING>","37.6659053","-122.1224552","<MISSING>"
"https://www.oshkosh.com/","https://www.oshkosh.com/on/demandware.store/Sites-Carters-Site/default/Stores-ShowAll","Carter's Huntington Beach","7881 Edinger Ave.Suite A114","Beach","CA","92647","US","<MISSING>","(714) 893-6036","<MISSING>","33.7313927","-117.9932574","<MISSING>"
"https://www.oshkosh.com/","https://www.oshkosh.com/on/demandware.store/Sites-Carters-Site/default/Stores-ShowAll","OshKosh B'Gosh La Alameda","7430 South Alameda Street","Park","CA","90255","US","<MISSING>","(323) 587-1458","<MISSING>","33.9717476","-118.2352669","<MISSING>"
"https://www.oshkosh.com/","https://www.oshkosh.com/on/demandware.store/Sites-Carters-Site/default/Stores-ShowAll","Carter's Huntington Park","7430 Almeda Street","Park","CA","90255","US","<MISSING>","(323) 587-1458","<MISSING>","33.9717729","-118.2350933","<MISSING>"
"https://www.oshkosh.com/","https://www.oshkosh.com/on/demandware.store/Sites-Carters-Site/default/Stores-ShowAll","Carter's Indio","42225 Jackson StreetBuilding C 102","Indio","CA","92203","US","<MISSING>","(760) 347-2658","<MISSING>","33.7429851","-116.2202516","<MISSING>"
"https://www.oshkosh.com/","https://www.oshkosh.com/on/demandware.store/Sites-Carters-Site/default/Stores-ShowAll","Carter's La Habra","1651 West Imperial HighwaySuite A","Habra","CA","90631","US","<MISSING>","(562) 266-1066","<MISSING>","33.918701","-117.9667655","<MISSING>"
"https://www.oshkosh.com/","https://www.oshkosh.com/on/demandware.store/Sites-Carters-Site/default/Stores-ShowAll","OshKosh B'Gosh La Habra Marketplace","1651 West Imperial HighwaySuite A","Habra","CA","90631","US","<MISSING>","(562) 266-1066","<MISSING>","33.918701","-117.9667655","<MISSING>"
"https://www.oshkosh.com/","https://www.oshkosh.com/on/demandware.store/Sites-Carters-Site/default/Stores-ShowAll","Carter's Lake Elsinore","17600 Collier Ave.Suite E139B","Elsinore","CA","92530","US","<MISSING>","(951) 674-1496","<MISSING>","33.7008209","-117.3542048","<MISSING>"
"https://www.oshkosh.com/","https://www.oshkosh.com/on/demandware.store/Sites-Carters-Site/default/Stores-ShowAll","OshKosh B'Gosh The Orchard","23622 El Toro RoadSuite A","Forest","CA","92630","US","<MISSING>","(949) 457-1630","<MISSING>","33.6179471","-117.7033586","<MISSING>"
"https://www.oshkosh.com/","https://www.oshkosh.com/on/demandware.store/Sites-Carters-Site/default/Stores-ShowAll","Carter's Lake Forest","23622 El Toro RoadSuite A","Forest","CA","92630","US","<MISSING>","(949) 457-1630","<MISSING>","33.6179471","-117.7033586","<MISSING>"
"https://www.oshkosh.com/","https://www.oshkosh.com/on/demandware.store/Sites-Carters-Site/default/Stores-ShowAll","OshKosh B'Gosh SF Premium Outlets OshKosh","3230 Paragon Outlets Drive","Livermore","CA","94551","US","<MISSING>","(925) 243-9380","<MISSING>","37.6987504","-121.8462342","<MISSING>"
"https://www.oshkosh.com/","https://www.oshkosh.com/on/demandware.store/Sites-Carters-Site/default/Stores-ShowAll","Carter's SF Premium Outlets Carters","3380 Paragon Outlets Drive","Livermore","CA","94588","US","<MISSING>","(925) 606-1369","<MISSING>","37.6982357","-121.8467407","<MISSING>"
"https://www.oshkosh.com/","https://www.oshkosh.com/on/demandware.store/Sites-Carters-Site/default/Stores-ShowAll","Carter's Long Beach","7378 Carson Blvd.","Beach","CA","90808","US","<MISSING>","(562) 429-5952","<MISSING>","33.8271935","-118.0892403","<MISSING>"
"https://www.oshkosh.com/","https://www.oshkosh.com/on/demandware.store/Sites-Carters-Site/default/Stores-ShowAll","OshKosh B'Gosh Long Beach Towne Center","7378 Carson Boulevard","Beach","CA","90808","US","<MISSING>","(562) 429-5952","<MISSING>","33.8271935","-118.0892403","<MISSING>"
"https://www.oshkosh.com/","https://www.oshkosh.com/on/demandware.store/Sites-Carters-Site/default/Stores-ShowAll","Carter's Mid-City","4550 Pico BoulevardSuite C 1-306","Angeles","CA","90019","US","<MISSING>","(323) 932-1630","<MISSING>","34.0478754","-118.3377906","<MISSING>"
"https://www.oshkosh.com/","https://www.oshkosh.com/on/demandware.store/Sites-Carters-Site/default/Stores-ShowAll","OshKosh B'Gosh Baldwin Hills","3650 West Martin Luther King BoulevardSuite 226","Angeles","CA","90008","US","<MISSING>","(323) 293-3691","<MISSING>","34.0110086","-118.3386625","<MISSING>"
"https://www.oshkosh.com/","https://www.oshkosh.com/on/demandware.store/Sites-Carters-Site/default/Stores-ShowAll","Carter's Baldwin Hills","3650 West Martin Luther King BoulevardSuite 224","Angeles","CA","90008","US","<MISSING>","(323) 293-3691","<MISSING>","34.0110086","-118.3386625","<MISSING>"
"https://www.oshkosh.com/","https://www.oshkosh.com/on/demandware.store/Sites-Carters-Site/default/Stores-ShowAll","Carter's Milpitas","447 Great Mall Dr.Space 490","Milpitas","CA","95035","US","<MISSING>","(408) 942-6621","<MISSING>","37.4158732","-121.8997231","<MISSING>"
"https://www.oshkosh.com/","https://www.oshkosh.com/on/demandware.store/Sites-Carters-Site/default/Stores-ShowAll","OshKosh B'Gosh Vintage Faire Mall","3401 Dale RoadSuite 131","Modesto","CA","95356","US","<MISSING>","(209) 578-9651","<MISSING>","37.6888109","-121.0563023","<MISSING>"
"https://www.oshkosh.com/","https://www.oshkosh.com/on/demandware.store/Sites-Carters-Site/default/Stores-ShowAll","Carter's Modesto","3401 Dale RoadSuite 131","Modesto","CA","95356","US","<MISSING>","(209) 578-9651","<MISSING>","37.6888109","-121.0563023","<MISSING>"
"https://www.oshkosh.com/","https://www.oshkosh.com/on/demandware.store/Sites-Carters-Site/default/Stores-ShowAll","Carter's Montclair","5010 Montclair Plaza Lane","Montclair","CA","91763","US","<MISSING>","(909) 398-7006","<MISSING>","34.0870572","-117.6967527","<MISSING>"
"https://www.oshkosh.com/","https://www.oshkosh.com/on/demandware.store/Sites-Carters-Site/default/Stores-ShowAll","Carter's Mountain View","550 Showers Dr.No. 6","View","CA","94040","US","<MISSING>","(650) 948-1572","<MISSING>","37.4025568","-122.1117617","<MISSING>"
"https://www.oshkosh.com/","https://www.oshkosh.com/on/demandware.store/Sites-Carters-Site/default/Stores-ShowAll","OshKosh B'Gosh Vintage Oaks","208 Vintage Way#K19A","Novato","CA","94945","US","<MISSING>","(415) 209-0631","<MISSING>","38.0893921","-122.5544562","<MISSING>"
"https://www.oshkosh.com/","https://www.oshkosh.com/on/demandware.store/Sites-Carters-Site/default/Stores-ShowAll","Carter's Novato","208 Vintage Way#K19A","Novato","CA","94945","US","<MISSING>","(415) 209-0631","<MISSING>","38.0893921","-122.5544562","<MISSING>"
"https://www.oshkosh.com/","https://www.oshkosh.com/on/demandware.store/Sites-Carters-Site/default/Stores-ShowAll","OshKosh B'Gosh Ontario OshKosh","1 Mills CircleSpace 708","Ontario","CA","91764","US","<MISSING>","(909) 987-5966","<MISSING>","34.073005","-117.5538792","<MISSING>"
"https://www.oshkosh.com/","https://www.oshkosh.com/on/demandware.store/Sites-Carters-Site/default/Stores-ShowAll","Carter's Ontario Carters","1 Mills CircleSuite 806","Ontario","CA","91764","US","<MISSING>","(909) 980-7116","<MISSING>","34.073005","-117.5538792","<MISSING>"
"https://www.oshkosh.com/","https://www.oshkosh.com/on/demandware.store/Sites-Carters-Site/default/Stores-ShowAll","Carter's Orange","20 City Boulevard West, Suite 908","Orange","CA","92868","US","<MISSING>","(714) 935-0949","<MISSING>","33.7826672","-117.8951172","<MISSING>"
"https://www.oshkosh.com/","https://www.oshkosh.com/on/demandware.store/Sites-Carters-Site/default/Stores-ShowAll","OshKosh B'Gosh Antelope Valley Mall","1301 Rancho Vista BoulevardSuite L","Palmdale","CA","93551","US","<MISSING>","(661) 575-9925","<MISSING>","34.6049022","-118.154622","<MISSING>"
"https://www.oshkosh.com/","https://www.oshkosh.com/on/demandware.store/Sites-Carters-Site/default/Stores-ShowAll","Carter's Palmdale","1301 Rancho Vista BoulevardSuite L","Palmdale","CA","93551","US","<MISSING>","(661) 575-9925","<MISSING>","34.6049022","-118.154622","<MISSING>"
"https://www.oshkosh.com/","https://www.oshkosh.com/on/demandware.store/Sites-Carters-Site/default/Stores-ShowAll","Carter's Panorama City","8401 Van Nuys Boulevard","City","CA","91402","US","<MISSING>","(818) 221-3666","<MISSING>","34.2232031","-118.4517205","<MISSING>"
"https://www.oshkosh.com/","https://www.oshkosh.com/on/demandware.store/Sites-Carters-Site/default/Stores-ShowAll","OshKosh B'Gosh Panorama Mall","8401 Van Nuys Boulevard","City","CA","91402","US","<MISSING>","(818) 221-3666","<MISSING>","34.2232031","-118.4517205","<MISSING>"
"https://www.oshkosh.com/","https://www.oshkosh.com/on/demandware.store/Sites-Carters-Site/default/Stores-ShowAll","Carter's Pasadena","3819 East Foothill Blvd","Pasadena","CA","91107","US","<MISSING>","(626) 351-0609","<MISSING>","34.1516643","-118.071478","<MISSING>"
"https://www.oshkosh.com/","https://www.oshkosh.com/on/demandware.store/Sites-Carters-Site/default/Stores-ShowAll","OshKosh B'Gosh Petaluma OshKosh","2200 Petaluma Blvd. NorthSuite 700","Petaluma","CA","94952","US","<MISSING>","(707) 766-8113","<MISSING>","38.2569438","-122.6520853","<MISSING>"
"https://www.oshkosh.com/","https://www.oshkosh.com/on/demandware.store/Sites-Carters-Site/default/Stores-ShowAll","Carter's Petaluma Carters","2200 Petaluma Blvd. NorthSpace 1100","Petaluma","CA","94952","US","<MISSING>","(707) 775-4064","<MISSING>","38.2569438","-122.6520853","<MISSING>"
"https://www.oshkosh.com/","https://www.oshkosh.com/on/demandware.store/Sites-Carters-Site/default/Stores-ShowAll","Carter's Pismo Beach Carters","333 Five Cities Dr.Space 102","Beach","CA","93449","US","<MISSING>","(805) 773-8084","<MISSING>","35.1353853","-120.6301781","<MISSING>"
"https://www.oshkosh.com/","https://www.oshkosh.com/on/demandware.store/Sites-Carters-Site/default/Stores-ShowAll","OshKosh B'Gosh Pismo Beach OshKosh","333 Five Cities Dr.Suite 130","Beach","CA","93449","US","<MISSING>","(805) 773-6064","<MISSING>","35.1353853","-120.6301781","<MISSING>"
"https://www.oshkosh.com/","https://www.oshkosh.com/on/demandware.store/Sites-Carters-Site/default/Stores-ShowAll","Carter's Pleasant Hill","15 Crescent DriveSuite B","Hill","CA","94523","US","<MISSING>","(925) 681-3396","<MISSING>","37.9473619","-122.0627622","<MISSING>"
"https://www.oshkosh.com/","https://www.oshkosh.com/on/demandware.store/Sites-Carters-Site/default/Stores-ShowAll","OshKosh B'Gosh Downtown Pleasant Hill","15 Crescent DriveSuite B","Hill","CA","94523","US","<MISSING>","(925) 681-3396","<MISSING>","37.9473619","-122.0627622","<MISSING>"
"https://www.oshkosh.com/","https://www.oshkosh.com/on/demandware.store/Sites-Carters-Site/default/Stores-ShowAll","Carter's Redwood City","2535 El Camino Real","City","CA","94061","US","<MISSING>","(650) 366-4583","<MISSING>","37.4742061","-122.2188185","<MISSING>"
"https://www.oshkosh.com/","https://www.oshkosh.com/on/demandware.store/Sites-Carters-Site/default/Stores-ShowAll","Carter's Riverside","3602 Riverside Plaza DriveSuite 105","Riverside","CA","92506","US","<MISSING>","(951) 786-9920","<MISSING>","33.9544874","-117.3930757","<MISSING>"
"https://www.oshkosh.com/","https://www.oshkosh.com/on/demandware.store/Sites-Carters-Site/default/Stores-ShowAll","Carter's Canyon Springs","2640 Canyon Springs ParkwaySuite A","Riverside","CA","92507","US","<MISSING>","(951) 653-3298","<MISSING>","33.9426033","-117.2862142","<MISSING>"
"https://www.oshkosh.com/","https://www.oshkosh.com/on/demandware.store/Sites-Carters-Site/default/Stores-ShowAll","Carter's Roseville","1204 Galleria Blvd.Suite 120","Roseville","CA","95678","US","<MISSING>","(916) 791-3627","<MISSING>","38.7726113","-121.2635288","<MISSING>"
"https://www.oshkosh.com/","https://www.oshkosh.com/on/demandware.store/Sites-Carters-Site/default/Stores-ShowAll","Carter's Rowland Heights","17406 Colima RdW-16","Heights","CA","91748","US","<MISSING>","(626) 964-5137","<MISSING>","33.9898665","-117.9290137","<MISSING>"
"https://www.oshkosh.com/","https://www.oshkosh.com/on/demandware.store/Sites-Carters-Site/default/Stores-ShowAll","OshKosh B'Gosh Puente Hills Town Center","17406 Colima RoadW-16A","Heights","CA","91748","US","<MISSING>","(626) 964-5137","<MISSING>","33.9898665","-117.9290137","<MISSING>"
"https://www.oshkosh.com/","https://www.oshkosh.com/on/demandware.store/Sites-Carters-Site/default/Stores-ShowAll","Carter's Sacramento","2100 Arden WaySuite 105","Sacramento","CA","95825","US","<MISSING>","(916) 924-6760","<MISSING>","38.5952408","-121.4187405","<MISSING>"
"https://www.oshkosh.com/","https://www.oshkosh.com/on/demandware.store/Sites-Carters-Site/default/Stores-ShowAll","OshKosh B'Gosh Howe 'Bout Arden","2100 Arden WaySuite #105","Sacramento","CA","95825","US","<MISSING>","(916) 924-6760","<MISSING>","38.5952408","-121.4187405","<MISSING>"
"https://www.oshkosh.com/","https://www.oshkosh.com/on/demandware.store/Sites-Carters-Site/default/Stores-ShowAll","OshKosh B'Gosh Northridge Mall","880 Northridge MallSpace T01A","Salinas","CA","93906","US","<MISSING>","(831) 449-2186","<MISSING>","36.7188694","-121.6603124","<MISSING>"
"https://www.oshkosh.com/","https://www.oshkosh.com/on/demandware.store/Sites-Carters-Site/default/Stores-ShowAll","Carter's Salinas","880 Northridge MallSpace T01A","Salinas","CA","93906","US","<MISSING>","(831) 449-2186","<MISSING>","36.7188694","-121.6603124","<MISSING>"
"https://www.oshkosh.com/","https://www.oshkosh.com/on/demandware.store/Sites-Carters-Site/default/Stores-ShowAll","Carter's San Bernardino","500 Inland Center Drive, #246","Bernardino","CA","92406","US","<MISSING>","(909) 381-6685","<MISSING>","34.0850828","-117.2995587","<MISSING>"
"https://www.oshkosh.com/","https://www.oshkosh.com/on/demandware.store/Sites-Carters-Site/default/Stores-ShowAll","OshKosh B'Gosh Inland Center","500 Inland Center Drive, #246","Bernardino","CA","92406","US","<MISSING>","(909) 381-6685","<MISSING>","34.0850828","-117.2995587","<MISSING>"
"https://www.oshkosh.com/","https://www.oshkosh.com/on/demandware.store/Sites-Carters-Site/default/Stores-ShowAll","OshKosh B'Gosh Outlets at San Clemente","101 West Avenida HermosaUnit #544","Clemente","CA","92672","US","<MISSING>","(949) 361-6947","<MISSING>","33.4399709","-117.6310259","<MISSING>"
"https://www.oshkosh.com/","https://www.oshkosh.com/on/demandware.store/Sites-Carters-Site/default/Stores-ShowAll","Carter's San Clemente","101 West Avenida HermosaUnit #548","Clemente","CA","92672","US","<MISSING>","(949) 361-6947","<MISSING>","33.4399709","-117.6310259","<MISSING>"
"https://www.oshkosh.com/","https://www.oshkosh.com/on/demandware.store/Sites-Carters-Site/default/Stores-ShowAll","OshKosh B'Gosh Carmel Mountain Plaza","11990 Carmel Mountain RoadSuite 246","Diego","CA","92128","US","<MISSING>","(858) 613-3953","<MISSING>","32.9839526","-117.0804477","<MISSING>"
"https://www.oshkosh.com/","https://www.oshkosh.com/on/demandware.store/Sites-Carters-Site/default/Stores-ShowAll","Carter's Carmel Mountain Plaza","11990 Carmel Mountain RoadSuite 246","Diego","CA","92128","US","<MISSING>","(858) 613-3953","<MISSING>","32.9839526","-117.0804477","<MISSING>"
"https://www.oshkosh.com/","https://www.oshkosh.com/on/demandware.store/Sites-Carters-Site/default/Stores-ShowAll","OshKosh B'Gosh Sports Arena Center","3231 Sports Arena Boulevard","Diego","CA","92110","US","<MISSING>","(619) 223-3860","<MISSING>","32.7518206","-117.2098569","<MISSING>"
"https://www.oshkosh.com/","https://www.oshkosh.com/on/demandware.store/Sites-Carters-Site/default/Stores-ShowAll","Carter's Sports Arena Center","3231 Sports Arena Boulevard","Diego","CA","92110","US","<MISSING>","(619) 223-3860","<MISSING>","32.7518206","-117.2098569","<MISSING>"
"https://www.oshkosh.com/","https://www.oshkosh.com/on/demandware.store/Sites-Carters-Site/default/Stores-ShowAll","Carter's Clairemont Town Square","3972 Clairemont Mesa Boulevard","Diego","CA","92107","US","<MISSING>","(858) 272-0013","<MISSING>","32.8289386","-117.2060438","<MISSING>"
"https://www.oshkosh.com/","https://www.oshkosh.com/on/demandware.store/Sites-Carters-Site/default/Stores-ShowAll","Carter's Westgate Mall","1600 Saratoga AvenueSuite #229","Jose","CA","95129","US","<MISSING>","(408) 866-5247","<MISSING>","37.2923388","-121.9905784","<MISSING>"
"https://www.oshkosh.com/","https://www.oshkosh.com/on/demandware.store/Sites-Carters-Site/default/Stores-ShowAll","OshKosh B'Gosh Westgate Mall","1600 Saratoga AvenueSuite #229","Jose","CA","95129","US","<MISSING>","(408) 866-5247","<MISSING>","37.2923388","-121.9905784","<MISSING>"
"https://www.oshkosh.com/","https://www.oshkosh.com/on/demandware.store/Sites-Carters-Site/default/Stores-ShowAll","Carter's Almaden","5353 Almaden ExpresswaySuite J40","Jose","CA","95118","US","<MISSING>","(408) 266-0390","<MISSING>","37.2515114","-121.881522","<MISSING>"
"https://www.oshkosh.com/","https://www.oshkosh.com/on/demandware.store/Sites-Carters-Site/default/Stores-ShowAll","Carter's San Marcos","153 South Las Posas RoadSuites 174 &182","Marcos","CA","92078","US","<MISSING>","(760) 736-8991","<MISSING>","33.1393342","-117.1923572","<MISSING>"
"https://www.oshkosh.com/","https://www.oshkosh.com/on/demandware.store/Sites-Carters-Site/default/Stores-ShowAll","Carter's San Pedro","944 North Western AvenueSuite #944","Pedro","CA","90732","US","<MISSING>","(310) 833-3450","<MISSING>","33.7517384","-118.3094787","<MISSING>"
"https://www.oshkosh.com/","https://www.oshkosh.com/on/demandware.store/Sites-Carters-Site/default/Stores-ShowAll","Carter's San Ysidro Carters","4454 Camino de la PlazaSuite D","Ysidro","CA","92173","US","<MISSING>","(619) 690-1106","<MISSING>","32.5464408","-117.0403585","<MISSING>"
"https://www.oshkosh.com/","https://www.oshkosh.com/on/demandware.store/Sites-Carters-Site/default/Stores-ShowAll","OshKosh B'Gosh San Ysidro OshKosh","4460 Camino de la Plaza","Ysidro","CA","92173","US","<MISSING>","(619) 690-2255","<MISSING>","32.5466068","-117.0409806","<MISSING>"
"https://www.oshkosh.com/","https://www.oshkosh.com/on/demandware.store/Sites-Carters-Site/default/Stores-ShowAll","Carter's Santa Clara","2026 El Camino Real","Clara","CA","95050","US","<MISSING>","(408) 241-3093","<MISSING>","37.3501933","-121.9636536","<MISSING>"
"https://www.oshkosh.com/","https://www.oshkosh.com/on/demandware.store/Sites-Carters-Site/default/Stores-ShowAll","OshKosh B'Gosh Enos Ranch Shopping Center","625 East Betteravia Road","Maria","CA","93455","US","<MISSING>","<MISSING>","<MISSING>","34.9241758","-120.427434","<MISSING>"
"https://www.oshkosh.com/","https://www.oshkosh.com/on/demandware.store/Sites-Carters-Site/default/Stores-ShowAll","Carter's Santa Maria","625 East Betteravia Road","Maria","CA","93455","US","<MISSING>","<MISSING>","<MISSING>","34.9241758","-120.427434","<MISSING>"
"https://www.oshkosh.com/","https://www.oshkosh.com/on/demandware.store/Sites-Carters-Site/default/Stores-ShowAll","Carter's South Gate","4745 Firestone Boulevard","Gate","CA","90280","US","<MISSING>","(323) 563-0630","<MISSING>","33.9524984","-118.1874329","<MISSING>"
"https://www.oshkosh.com/","https://www.oshkosh.com/on/demandware.store/Sites-Carters-Site/default/Stores-ShowAll","Carter's Stockton","5756 Pacific Avenue","Stockton","CA","95207","US","<MISSING>","(209) 957-4719","<MISSING>","38.0015742","-121.3186339","<MISSING>"
"https://www.oshkosh.com/","https://www.oshkosh.com/on/demandware.store/Sites-Carters-Site/default/Stores-ShowAll","OshKosh B'Gosh Studio City","11239 Ventura BlvdSuite 105","City","CA","91604","US","<MISSING>","(818) 508-3164","<MISSING>","34.1421504","-118.3770541","<MISSING>"
"https://www.oshkosh.com/","https://www.oshkosh.com/on/demandware.store/Sites-Carters-Site/default/Stores-ShowAll","Carter's Studio City","11239 Ventura BlvdSuite 105","City","CA","91604","US","<MISSING>","(818) 508-3164","<MISSING>","34.1421504","-118.3770541","<MISSING>"
"https://www.oshkosh.com/","https://www.oshkosh.com/on/demandware.store/Sites-Carters-Site/default/Stores-ShowAll","Carter's Sun Valley","8349 Laurel Canyon Boulevard","Valley","CA","91352","US","<MISSING>","(818) 768-2935","<MISSING>","34.2222673","-118.3987731","<MISSING>"
"https://www.oshkosh.com/","https://www.oshkosh.com/on/demandware.store/Sites-Carters-Site/default/Stores-ShowAll","Carter's Temecula","26431 Ynez RoadSuite A, B, and C","Temecula","CA","92591","US","<MISSING>","(951) 296-2162","<MISSING>","33.521951","-117.1629004","<MISSING>"
"https://www.oshkosh.com/","https://www.oshkosh.com/on/demandware.store/Sites-Carters-Site/default/Stores-ShowAll","OshKosh B'Gosh Palm Plaza Shopping Center","26431 Ynez RoadSuite A","Temecula","CA","92591","US","<MISSING>","(951) 296-2162","<MISSING>","33.521951","-117.1629004","<MISSING>"
"https://www.oshkosh.com/","https://www.oshkosh.com/on/demandware.store/Sites-Carters-Site/default/Stores-ShowAll","Carter's Torrance","19800 Hawthorne Blvd.Suite 220","Torrance","CA","90503","US","<MISSING>","(310) 921-3925","<MISSING>","33.8534432","-118.3547586","<MISSING>"
"https://www.oshkosh.com/","https://www.oshkosh.com/on/demandware.store/Sites-Carters-Site/default/Stores-ShowAll","OshKosh B'Gosh West Valley Mall","3200 North Naglee RoadSpace #248","Tracy","CA","95304","US","<MISSING>","(209) 835-6240","<MISSING>","37.7605343","-121.461114","<MISSING>"
"https://www.oshkosh.com/","https://www.oshkosh.com/on/demandware.store/Sites-Carters-Site/default/Stores-ShowAll","Carter's Tracy","3200 North Naglee RoadSpace #248","Tracy","CA","95304","US","<MISSING>","(209) 835-6240","<MISSING>","37.7605343","-121.461114","<MISSING>"
"https://www.oshkosh.com/","https://www.oshkosh.com/on/demandware.store/Sites-Carters-Site/default/Stores-ShowAll","Carter's Tulare Carters","1453 Retherford St.Suite D100","Tulare","CA","93274","US","<MISSING>","(559) 687-1244","<MISSING>","36.2272618","-119.3367466","<MISSING>"
"https://www.oshkosh.com/","https://www.oshkosh.com/on/demandware.store/Sites-Carters-Site/default/Stores-ShowAll","OshKosh B'Gosh Tulare OshKosh","1453 Retherford StreetSuite C30","Tulare","CA","93274","US","<MISSING>","(559) 687-0987","<MISSING>","36.2272618","-119.3367466","<MISSING>"
"https://www.oshkosh.com/","https://www.oshkosh.com/on/demandware.store/Sites-Carters-Site/default/Stores-ShowAll","Carter's Tustin","2821 El Camino Real","Tustin","CA","92782","US","<MISSING>","(714) 669-2782","<MISSING>","33.7265034","-117.7950914","<MISSING>"
"https://www.oshkosh.com/","https://www.oshkosh.com/on/demandware.store/Sites-Carters-Site/default/Stores-ShowAll","OshKosh B'Gosh The Market Place","2821 El Camino Real","Tustin","CA","92782","US","<MISSING>","(714) 669-2782","<MISSING>","33.7265034","-117.7950914","<MISSING>"
"https://www.oshkosh.com/","https://www.oshkosh.com/on/demandware.store/Sites-Carters-Site/default/Stores-ShowAll","OshKosh B'Gosh Vacaville Premium Outlets","101-A Nut Tree Rd.","Vacaville","CA","95687","US","<MISSING>","(707) 446-9275","<MISSING>","38.3676208","-121.9582984","<MISSING>"
"https://www.oshkosh.com/","https://www.oshkosh.com/on/demandware.store/Sites-Carters-Site/default/Stores-ShowAll","Carter's Vacaville","101-B Nut Tree Rd.Suite B","Vacaville","CA","95687","US","<MISSING>","(707) 447-7440","<MISSING>","38.3676208","-121.9582984","<MISSING>"
"https://www.oshkosh.com/","https://www.oshkosh.com/on/demandware.store/Sites-Carters-Site/default/Stores-ShowAll","Carter's Valencia","24201 West Valencia Boulevard, Suite 3318","Valencia","CA","91355","US","<MISSING>","(661) 255-0067","<MISSING>","34.4150241","-118.5593481","<MISSING>"
"https://www.oshkosh.com/","https://www.oshkosh.com/on/demandware.store/Sites-Carters-Site/default/Stores-ShowAll","Carter's West Covina","2620 E. Workman Avenue #4","Covina","CA","91791","US","<MISSING>","(626) 331-1595","<MISSING>","34.0745196","-117.8917352","<MISSING>"
"https://www.oshkosh.com/","https://www.oshkosh.com/on/demandware.store/Sites-Carters-Site/default/Stores-ShowAll","Carter's West Covina Mall","454 Plaza Drive","Covina","CA","91790","US","<MISSING>","<MISSING>","<MISSING>","34.0712068","-117.9362282","<MISSING>"
"https://www.oshkosh.com/","https://www.oshkosh.com/on/demandware.store/Sites-Carters-Site/default/Stores-ShowAll","OshKosh B'Gosh Plaza West Covina Mall","454 Plaza Drive","Covina","CA","91790","US","<MISSING>","<MISSING>","<MISSING>","34.0712068","-117.9362282","<MISSING>"
"https://www.oshkosh.com/","https://www.oshkosh.com/on/demandware.store/Sites-Carters-Site/default/Stores-ShowAll","OshKosh B'Gosh Eastland Center","2620 E. Workman Avenue #4","Covina","CA","91791","US","<MISSING>","(626) 331-1595","<MISSING>","34.0745196","-117.8917352","<MISSING>"
"https://www.oshkosh.com/","https://www.oshkosh.com/on/demandware.store/Sites-Carters-Site/default/Stores-ShowAll","Carter's Aurora","14200 East Alameda AvenueSpace 2008B","Aurora","CO","80012","US","<MISSING>","<MISSING>","<MISSING>","39.7082577","-104.8253977","<MISSING>"
"https://www.oshkosh.com/","https://www.oshkosh.com/on/demandware.store/Sites-Carters-Site/default/Stores-ShowAll","OshKosh B'Gosh Town Center at Aurora","14200 East Alameda AvenueSpace 2008B","Aurora","CO","80012","US","<MISSING>","<MISSING>","<MISSING>","39.7082577","-104.8253977","<MISSING>"
"https://www.oshkosh.com/","https://www.oshkosh.com/on/demandware.store/Sites-Carters-Site/default/Stores-ShowAll","OshKosh B'Gosh Flatiron Crossing","One West Flatiron Crossing DriveSpace 2192","Broomfield","CO","80021","US","<MISSING>","<MISSING>","<MISSING>","39.9329826","-105.1353053","<MISSING>"
"https://www.oshkosh.com/","https://www.oshkosh.com/on/demandware.store/Sites-Carters-Site/default/Stores-ShowAll","Carter's Broomfield","One West Flatiron Crossing DriveSpace 2192","Broomfield","CO","80021","US","<MISSING>","<MISSING>","<MISSING>","39.9329826","-105.1353053","<MISSING>"
"https://www.oshkosh.com/","https://www.oshkosh.com/on/demandware.store/Sites-Carters-Site/default/Stores-ShowAll","Carter's Castle Rock","5050 Factory Shops Blvd.Suite 500","Rock","CO","80108","US","<MISSING>","(303) 688-0648","<MISSING>","39.4156345","-104.8754364","<MISSING>"
"https://www.oshkosh.com/","https://www.oshkosh.com/on/demandware.store/Sites-Carters-Site/default/Stores-ShowAll","OshKosh B'Gosh Outlets at Castle Rock","5050 Factory Shops BoulevardSuite 500","Rock","CO","80108","US","<MISSING>","(303) 688-0648","<MISSING>","39.4156345","-104.8754364","<MISSING>"
"https://www.oshkosh.com/","https://www.oshkosh.com/on/demandware.store/Sites-Carters-Site/default/Stores-ShowAll","Carter's Colorado Springs","7655 North Academy Boulevard","Springs","CO","80920","US","<MISSING>","(719) 265-2510","<MISSING>","38.9420623","-104.8016159","<MISSING>"
"https://www.oshkosh.com/","https://www.oshkosh.com/on/demandware.store/Sites-Carters-Site/default/Stores-ShowAll","Carter's Greeley","4118 Centerplace Drive#830","Greeley","CO","80634","US","<MISSING>","(970) 339-1940","<MISSING>","40.3936396","-104.7465349","<MISSING>"
"https://www.oshkosh.com/","https://www.oshkosh.com/on/demandware.store/Sites-Carters-Site/default/Stores-ShowAll","Carter's Highlands Ranch","9567 South University Boulevard, #E","Ranch","CO","80126","US","<MISSING>","(303) 471-5541","<MISSING>","39.5421291","-104.9446789","<MISSING>"
"https://www.oshkosh.com/","https://www.oshkosh.com/on/demandware.store/Sites-Carters-Site/default/Stores-ShowAll","Carter's Lakewood","14500 West Colfax Ave.Space 504","Lakewood","CO","80401","US","<MISSING>","(303) 278-2135","<MISSING>","39.730932","-105.1637857","<MISSING>"
"https://www.oshkosh.com/","https://www.oshkosh.com/on/demandware.store/Sites-Carters-Site/default/Stores-ShowAll","OshKosh B'Gosh Colorado Mills","14500 West Colfax AvenueRoom #506","Lakewood","CO","80401","US","<MISSING>","(303) 278-2135","<MISSING>","39.730932","-105.1637857","<MISSING>"
"https://www.oshkosh.com/","https://www.oshkosh.com/on/demandware.store/Sites-Carters-Site/default/Stores-ShowAll","OshKosh B'Gosh Lone Tree","8505 Park Meadows Center DriveSuite 2533","Tree","CO","80124","US","<MISSING>","(303) 858-0211","<MISSING>","39.5626488","-104.8789833","<MISSING>"
"https://www.oshkosh.com/","https://www.oshkosh.com/on/demandware.store/Sites-Carters-Site/default/Stores-ShowAll","Carter's Loveland","5697 McWhinney Blvd.Suite A230","Loveland","CO","80538","US","<MISSING>","(970) 593-1676","<MISSING>","40.4128138","-104.9979747","<MISSING>"
"https://www.oshkosh.com/","https://www.oshkosh.com/on/demandware.store/Sites-Carters-Site/default/Stores-ShowAll","Carter's Pueblo","3407 Dillion DriveSpace G1","Pueblo","CO","81008","US","<MISSING>","(719) 545-4661","<MISSING>","38.3053241","-104.6089489","<MISSING>"
"https://www.oshkosh.com/","https://www.oshkosh.com/on/demandware.store/Sites-Carters-Site/default/Stores-ShowAll","OshKosh B'Gosh Pueblo Mall","3407 Dillon DriveSpace G1","Pueblo","CO","81001","US","<MISSING>","(719) 545-4661","<MISSING>","38.3053241","-104.6089489","<MISSING>"
"https://www.oshkosh.com/","https://www.oshkosh.com/on/demandware.store/Sites-Carters-Site/default/Stores-ShowAll","Carter's Silverthorne Carters","246 S RAINBOW DR","Silverthorne","CO","80498","US","<MISSING>","(970) 262-2238","<MISSING>","39.6306684","-106.0723605","<MISSING>"
"https://www.oshkosh.com/","https://www.oshkosh.com/on/demandware.store/Sites-Carters-Site/default/Stores-ShowAll","OshKosh B'Gosh Silverthorne OshKosh","246 Rainbow Dr.Suite R","Silverthorne","CO","80498","US","<MISSING>","(970) 468-4804","<MISSING>","39.6306684","-106.0723605","<MISSING>"
"https://www.oshkosh.com/","https://www.oshkosh.com/on/demandware.store/Sites-Carters-Site/default/Stores-ShowAll","OshKosh B'Gosh Denver Premium Outlets","13801 Grant StreetSuite 727","Thornton","CO","80023","US","<MISSING>","(303) 968-1336","<MISSING>","39.9891991","-104.9850191","<MISSING>"
"https://www.oshkosh.com/","https://www.oshkosh.com/on/demandware.store/Sites-Carters-Site/default/Stores-ShowAll","Carter's Thornton","13801 Grant StreetSuite 725","Thornton","CO","80023","US","<MISSING>","(303) 968-1336","<MISSING>","39.9891991","-104.9850191","<MISSING>"
"https://www.oshkosh.com/","https://www.oshkosh.com/on/demandware.store/Sites-Carters-Site/default/Stores-ShowAll","Carter's Clinton","20-A Killingworth Turnpike","Clinton","CT","06413","US","<MISSING>","(860) 664-0626","<MISSING>","41.2914897","-72.5350604","<MISSING>"
"https://www.oshkosh.com/","https://www.oshkosh.com/on/demandware.store/Sites-Carters-Site/default/Stores-ShowAll","Carter's Danbury","5 East Sugar Hollow Road","Danbury","CT","06810","US","<MISSING>","(203) 743-0613","<MISSING>","41.3776961","-73.4777536","<MISSING>"
"https://www.oshkosh.com/","https://www.oshkosh.com/on/demandware.store/Sites-Carters-Site/default/Stores-ShowAll","Carter's Fairfield","2233 Black Rock Turnpike","Fairfield","CT","06825","US","<MISSING>","(203) 335-1003","<MISSING>","41.181584","-73.2563857","<MISSING>"
"https://www.oshkosh.com/","https://www.oshkosh.com/on/demandware.store/Sites-Carters-Site/default/Stores-ShowAll","Carter's Milford","1644 Boston Post Rd","Milford","CT","06460","US","<MISSING>","(203) 783-1218","<MISSING>","41.2477024","-73.0294877","<MISSING>"
"https://www.oshkosh.com/","https://www.oshkosh.com/on/demandware.store/Sites-Carters-Site/default/Stores-ShowAll","Carter's North Haven","110 Universal Drive North","Haven","CT","06473","US","<MISSING>","(203) 234-0243","<MISSING>","41.3521119","-72.8747149","<MISSING>"
"https://www.oshkosh.com/","https://www.oshkosh.com/on/demandware.store/Sites-Carters-Site/default/Stores-ShowAll","OshKosh B'Gosh Westport Avenue Shopping Center","542 Westport Avenue","Norwalk","CT","06851","US","<MISSING>","(203) 845-0037","<MISSING>","41.1267035","-73.386541","<MISSING>"
"https://www.oshkosh.com/","https://www.oshkosh.com/on/demandware.store/Sites-Carters-Site/default/Stores-ShowAll","Carter's Norwalk","542 Westport Avenue","Norwalk","CT","06851","US","<MISSING>","(203) 845-0037","<MISSING>","41.1267035","-73.386541","<MISSING>"
"https://www.oshkosh.com/","https://www.oshkosh.com/on/demandware.store/Sites-Carters-Site/default/Stores-ShowAll","Carter's South Windsor","501 Evergreen WaySuite 525","Windsor","CT","06074","US","<MISSING>","(860) 648-0710","<MISSING>","41.8135091","-72.5585059","<MISSING>"
"https://www.oshkosh.com/","https://www.oshkosh.com/on/demandware.store/Sites-Carters-Site/default/Stores-ShowAll","Carter's Stamford","2329 Summer St.","Stamford","CT","06905","US","<MISSING>","(203) 975-9725","<MISSING>","41.0681065","-73.5486262","<MISSING>"
"https://www.oshkosh.com/","https://www.oshkosh.com/on/demandware.store/Sites-Carters-Site/default/Stores-ShowAll","OshKosh B'Gosh Corbin's Corner","1453 New Britain Avenue","Hartford","CT","06110","US","<MISSING>","(860) 521-0896","<MISSING>","41.7249448","-72.7594396","<MISSING>"
"https://www.oshkosh.com/","https://www.oshkosh.com/on/demandware.store/Sites-Carters-Site/default/Stores-ShowAll","Carter's West Hartford","1453 New Britain Avenue","Hartford","CT","06110","US","<MISSING>","(860) 521-0896","<MISSING>","41.7249448","-72.7594396","<MISSING>"
"https://www.oshkosh.com/","https://www.oshkosh.com/on/demandware.store/Sites-Carters-Site/default/Stores-ShowAll","OshKosh B'Gosh Westbrook OshKosh","314 Flat Rock PlaceSuite C100","Westbrook","CT","06498","US","<MISSING>","(860) 399-0215","<MISSING>","41.2891184","-72.4315576","<MISSING>"
"https://www.oshkosh.com/","https://www.oshkosh.com/on/demandware.store/Sites-Carters-Site/default/Stores-ShowAll","Carter's Westbrook Carters","314 Flat Rock PlaceSpace B115","Westbrook","CT","06498","US","<MISSING>","(860) 399-4426","<MISSING>","41.2891184","-72.4315576","<MISSING>"
"https://www.oshkosh.com/","https://www.oshkosh.com/on/demandware.store/Sites-Carters-Site/default/Stores-ShowAll","Carter's Dover","1574 North Dupont HighwaySuite 200","Dover","DE","19901","US","<MISSING>","(302) 678-8243","<MISSING>","39.1956677","-75.5541632","<MISSING>"
"https://www.oshkosh.com/","https://www.oshkosh.com/on/demandware.store/Sites-Carters-Site/default/Stores-ShowAll","OshKosh B'Gosh Christiana Fashion Center","3132 Fashion Center Boulevard#363-365","Newark","DE","19702","US","<MISSING>","(302) 731-1432","<MISSING>","39.6704283","-75.6519462","<MISSING>"
"https://www.oshkosh.com/","https://www.oshkosh.com/on/demandware.store/Sites-Carters-Site/default/Stores-ShowAll","Carter's Newark","3132 Fashion Center Boulevard#363-365","Newark","DE","19702","US","<MISSING>","(302) 731-1432","<MISSING>","39.6704283","-75.6519462","<MISSING>"
"https://www.oshkosh.com/","https://www.oshkosh.com/on/demandware.store/Sites-Carters-Site/default/Stores-ShowAll","Carter's Rehoboth Beach Carters","36725 Bayside Outlet Dr.Suite 725","Beach","DE","19971","US","<MISSING>","(302) 226-9180","<MISSING>","38.7150624","-75.1110711","<MISSING>"
"https://www.oshkosh.com/","https://www.oshkosh.com/on/demandware.store/Sites-Carters-Site/default/Stores-ShowAll","OshKosh B'Gosh Rehoboth Beach OshKosh","36470 Seaside Outlet Dr.Suite 1640-S","Beach","DE","19971","US","<MISSING>","(302) 227-4787","<MISSING>","38.718024","-75.1145227","<MISSING>"
"https://www.oshkosh.com/","https://www.oshkosh.com/on/demandware.store/Sites-Carters-Site/default/Stores-ShowAll","OshKosh B'Gosh Wilmington OshKosh","4433 Concord Pike","Wilmington","DE","19803","US","<MISSING>","(302) 478-1764","<MISSING>","39.8148102","-75.5508049","<MISSING>"
"https://www.oshkosh.com/","https://www.oshkosh.com/on/demandware.store/Sites-Carters-Site/default/Stores-ShowAll","Carter's Wilmington Carters","4425 Concord PikeSpace 5","Wilmington","DE","19803","US","<MISSING>","(302) 478-7162","<MISSING>","39.8159392","-75.5510566","<MISSING>"
"https://www.oshkosh.com/","https://www.oshkosh.com/on/demandware.store/Sites-Carters-Site/default/Stores-ShowAll","Carter's Altamonte Springs","305 East Altamonte DriveSuite #1010","Springs","FL","32701","US","<MISSING>","(407) 260-6320","<MISSING>","28.6642475","-81.3836303","<MISSING>"
"https://www.oshkosh.com/","https://www.oshkosh.com/on/demandware.store/Sites-Carters-Site/default/Stores-ShowAll","OshKosh B'Gosh Boynton Beach Commons","355 North Congress Avenue","Beach","FL","33435","US","<MISSING>","<MISSING>","<MISSING>","26.5288671","-80.0945052","<MISSING>"
"https://www.oshkosh.com/","https://www.oshkosh.com/on/demandware.store/Sites-Carters-Site/default/Stores-ShowAll","Carter's Boynton Beach","355 North Congress Avenue","Beach","FL","33435","US","<MISSING>","<MISSING>","<MISSING>","26.5288671","-80.0945052","<MISSING>"
"https://www.oshkosh.com/","https://www.oshkosh.com/on/demandware.store/Sites-Carters-Site/default/Stores-ShowAll","OshKosh B'Gosh Brandon Town Center","569 Brandon Town Center","Brandon","FL","33511","US","<MISSING>","(813) 645-1924","<MISSING>","27.9314359","-82.3274333","<MISSING>"
"https://www.oshkosh.com/","https://www.oshkosh.com/on/demandware.store/Sites-Carters-Site/default/Stores-ShowAll","Carter's Brandon","569 Brandon Town Center","Brandon","FL","33511","US","<MISSING>","(813) 643-1927","<MISSING>","27.9314359","-82.3274333","<MISSING>"
"https://www.oshkosh.com/","https://www.oshkosh.com/on/demandware.store/Sites-Carters-Site/default/Stores-ShowAll","Carter's Clearwater","23668 U.S. Highway 19 NorthUnit 20","Clearwater","FL","33765","US","<MISSING>","(727) 669-5114","<MISSING>","27.9881667","-82.7345069","<MISSING>"
"https://www.oshkosh.com/","https://www.oshkosh.com/on/demandware.store/Sites-Carters-Site/default/Stores-ShowAll","OshKosh B'Gosh Sunset Point Nineteen","23668 U.S. Highway 19 NorthUnit 20","Clearwater","FL","33765","US","<MISSING>","(727) 669-5114","<MISSING>","27.9881667","-82.7345069","<MISSING>"
"https://www.oshkosh.com/","https://www.oshkosh.com/on/demandware.store/Sites-Carters-Site/default/Stores-ShowAll","Carter's Coral Springs","9347 West Atlantic Boulevard","Springs","FL","33071","US","<MISSING>","<MISSING>","<MISSING>","26.239825","-80.254253","<MISSING>"
"https://www.oshkosh.com/","https://www.oshkosh.com/on/demandware.store/Sites-Carters-Site/default/Stores-ShowAll","OshKosh B'Gosh Coral Square","9347 West Atlantic Boulevard","Springs","FL","33071","US","<MISSING>","<MISSING>","<MISSING>","26.239825","-80.254253","<MISSING>"
"https://www.oshkosh.com/","https://www.oshkosh.com/on/demandware.store/Sites-Carters-Site/default/Stores-ShowAll","Carter's Davie","2114 South University Dr.","Davie","FL","33324","US","<MISSING>","(954) 370-5935","<MISSING>","26.0943171","-80.2525035","<MISSING>"
"https://www.oshkosh.com/","https://www.oshkosh.com/on/demandware.store/Sites-Carters-Site/default/Stores-ShowAll","OshKosh B'Gosh Tanger Outlets Daytona","1100 Cornerstone BoulevardSuite 1045","Beach","FL","32117","US","<MISSING>","(386) 274-1991","<MISSING>","29.2135217","-81.10084","<MISSING>"
"https://www.oshkosh.com/","https://www.oshkosh.com/on/demandware.store/Sites-Carters-Site/default/Stores-ShowAll","Carter's Daytona Beach","1100 Cornerstone BoulevardSuite 1050","Beach","FL","32117","US","<MISSING>","(386) 274-1991","<MISSING>","29.2135217","-81.10084","<MISSING>"
"https://www.oshkosh.com/","https://www.oshkosh.com/on/demandware.store/Sites-Carters-Site/default/Stores-ShowAll","OshKosh B'Gosh Destin OshKosh","10406 West Emerald Coast ParkwaySuite 48","Destin","FL","32550","US","<MISSING>","(850) 654-8860","<MISSING>","30.3784252","-86.3508082","<MISSING>"
"https://www.oshkosh.com/","https://www.oshkosh.com/on/demandware.store/Sites-Carters-Site/default/Stores-ShowAll","Carter's Destin Carters","10562 West Emerald Coast ParkwaySuite 90","Destin","FL","32550","US","<MISSING>","(850) 650-3040","<MISSING>","30.3795158","-86.3549484","<MISSING>"
"https://www.oshkosh.com/","https://www.oshkosh.com/on/demandware.store/Sites-Carters-Site/default/Stores-ShowAll","OshKosh B'Gosh Ellenton OshKosh","5455 Factory Shops Blvd.","Ellenton","FL","34222","US","<MISSING>","(941) 723-1511","<MISSING>","27.5344567","-82.5103497","<MISSING>"
"https://www.oshkosh.com/","https://www.oshkosh.com/on/demandware.store/Sites-Carters-Site/default/Stores-ShowAll","Carter's Ellenton Carters","5311 Factory Shops Blvd.","Ellenton","FL","34222","US","<MISSING>","(941) 722-3431","<MISSING>","27.535696","-82.5098966","<MISSING>"
"https://www.oshkosh.com/","https://www.oshkosh.com/on/demandware.store/Sites-Carters-Site/default/Stores-ShowAll","OshKosh B'Gosh Estero OshKosh","10801 Corkscrew Rd.Suite 130","Estero","FL","33928","US","<MISSING>","(239) 947-1098","<MISSING>","26.43618","-81.7768746","<MISSING>"
"https://www.oshkosh.com/","https://www.oshkosh.com/on/demandware.store/Sites-Carters-Site/default/Stores-ShowAll","Carter's Estero Carters","10801 Corkscrew Rd.Suite 143","Estero","FL","33928","US","<MISSING>","(239) 948-1581","<MISSING>","26.43618","-81.7768746","<MISSING>"
"https://www.oshkosh.com/","https://www.oshkosh.com/on/demandware.store/Sites-Carters-Site/default/Stores-ShowAll","Carter's Florida City Carters","250 East Palm Dr.Suite 100","City","FL","33034","US","<MISSING>","(305) 246-9161","<MISSING>","25.4517163","-80.4756314","<MISSING>"
"https://www.oshkosh.com/","https://www.oshkosh.com/on/demandware.store/Sites-Carters-Site/default/Stores-ShowAll","OshKosh B'Gosh Florida City OshKosh","250 East Palm Dr.Suite 200","City","FL","33034","US","<MISSING>","(305) 248-7100","<MISSING>","25.4517163","-80.4756314","<MISSING>"
"https://www.oshkosh.com/","https://www.oshkosh.com/on/demandware.store/Sites-Carters-Site/default/Stores-ShowAll","OshKosh B'Gosh Coral Ridge Mall","3200 North Federal HighwaySpace 603","Lauderdale","FL","33306","US","<MISSING>","(954) 565-2188","<MISSING>","26.168998","-80.1179933","<MISSING>"
"https://www.oshkosh.com/","https://www.oshkosh.com/on/demandware.store/Sites-Carters-Site/default/Stores-ShowAll","Carter's Ft. Lauderdale","3200 North Federal HighwaySuite 604","Lauderdale","FL","33306","US","<MISSING>","(954) 565-2188","<MISSING>","26.168998","-80.1179933","<MISSING>"
"https://www.oshkosh.com/","https://www.oshkosh.com/on/demandware.store/Sites-Carters-Site/default/Stores-ShowAll","Carter's Fort Myers","20350 Summerline Rd.Suite 4120","Myers","FL","33908","US","<MISSING>","(239) 267-0674","<MISSING>","26.4946972","-81.9760577","<MISSING>"
"https://www.oshkosh.com/","https://www.oshkosh.com/on/demandware.store/Sites-Carters-Site/default/Stores-ShowAll","Carter's Gainesville","3964 SW Archer RoadSpace #W-102","Gainesville","FL","32608","US","<MISSING>","(352) 374-8059","<MISSING>","29.6215198","-82.3855778","<MISSING>"
"https://www.oshkosh.com/","https://www.oshkosh.com/on/demandware.store/Sites-Carters-Site/default/Stores-ShowAll","OshKosh B'Gosh Palm Springs Mile","407 West 49th StreetSuite #4","Hialeah","FL","33012","US","<MISSING>","(305) 825-7066","<MISSING>","25.867755","-80.2937555","<MISSING>"
"https://www.oshkosh.com/","https://www.oshkosh.com/on/demandware.store/Sites-Carters-Site/default/Stores-ShowAll","Carter's Hialeah","407 West 49th StreetSuite #3","Hialeah","FL","33012","US","<MISSING>","(305) 825-7066","<MISSING>","25.867755","-80.2937555","<MISSING>"
"https://www.oshkosh.com/","https://www.oshkosh.com/on/demandware.store/Sites-Carters-Site/default/Stores-ShowAll","Carter's Hollywood","5131 Sheridan St.Space 21","Hollywood","FL","33021","US","<MISSING>","(954) 966-3441","<MISSING>","26.0344717","-80.1983764","<MISSING>"
"https://www.oshkosh.com/","https://www.oshkosh.com/on/demandware.store/Sites-Carters-Site/default/Stores-ShowAll","OshKosh B'Gosh St. Johns Town Center","10261 River Marsh DriveSuite 183","Jacksonville","FL","32246","US","<MISSING>","(904) 997-6769","<MISSING>","30.2617448","-81.5280438","<MISSING>"
"https://www.oshkosh.com/","https://www.oshkosh.com/on/demandware.store/Sites-Carters-Site/default/Stores-ShowAll","OshKosh B'Gosh Riverplace Shopping Center","11111 San Jose BoulevardSpace 42","Jacksonville","FL","32257","US","<MISSING>","(904) 292-4698","<MISSING>","30.1732443","-81.6278096","<MISSING>"
"https://www.oshkosh.com/","https://www.oshkosh.com/on/demandware.store/Sites-Carters-Site/default/Stores-ShowAll","Carter's Jacksonville South","11111 San Jose BoulevardSpace 42","Jacksonville","FL","32257","US","<MISSING>","(904) 292-4698","<MISSING>","30.1732443","-81.6278096","<MISSING>"
"https://www.oshkosh.com/","https://www.oshkosh.com/on/demandware.store/Sites-Carters-Site/default/Stores-ShowAll","Carter's Town Center","10261 River Marsh DriveSuite 183","Jacksonville","FL","32246","US","<MISSING>","(904) 997-6769","<MISSING>","30.2617448","-81.5280438","<MISSING>"
"https://www.oshkosh.com/","https://www.oshkosh.com/on/demandware.store/Sites-Carters-Site/default/Stores-ShowAll","Carter's Jacksonville North","13271 City Station DriveSuite 101","Jacksonville","FL","32218","US","<MISSING>","(904) 696-0482","<MISSING>","30.479438","-81.6433959","<MISSING>"
"https://www.oshkosh.com/","https://www.oshkosh.com/on/demandware.store/Sites-Carters-Site/default/Stores-ShowAll","Carter's Kissimmee","616 Centerview Boulevard","Kissimmee","FL","34741","US","<MISSING>","(407) 846-2018","<MISSING>","28.3399678","-81.4094383","<MISSING>"
"https://www.oshkosh.com/","https://www.oshkosh.com/on/demandware.store/Sites-Carters-Site/default/Stores-ShowAll","OshKosh B'Gosh The Crosslands","616 Centerview Boulevard","Kissimmee","FL","34741","US","<MISSING>","(407) 846-2018","<MISSING>","28.3399678","-81.4094383","<MISSING>"
"https://www.oshkosh.com/","https://www.oshkosh.com/on/demandware.store/Sites-Carters-Site/default/Stores-ShowAll","Carter's Lakeland","1429 Town Center Drive","Lakeland","FL","33803","US","<MISSING>","(863) 284-1198","<MISSING>","28.0009853","-81.9803452","<MISSING>"
"https://www.oshkosh.com/","https://www.oshkosh.com/on/demandware.store/Sites-Carters-Site/default/Stores-ShowAll","Carter's Lutz","2300 Grand Cypress DriveSuite 115","Lutz","FL","33559","US","<MISSING>","(813) 949-9173","<MISSING>","28.1895863","-82.3935626","<MISSING>"
"https://www.oshkosh.com/","https://www.oshkosh.com/on/demandware.store/Sites-Carters-Site/default/Stores-ShowAll","OshKosh B'Gosh Tampa Premium Outlets","2300 Grand Cypress DriveSuite 120","Lutz","FL","33559","US","<MISSING>","(813) 949-9173","<MISSING>","28.1895863","-82.3935626","<MISSING>"
"https://www.oshkosh.com/","https://www.oshkosh.com/on/demandware.store/Sites-Carters-Site/default/Stores-ShowAll","OshKosh B'Gosh Dolphin Mall","11401 NW 12th St.Space #181","Miami","FL","33172","US","<MISSING>","(305) 513-4557","<MISSING>","25.7872397","-80.3824889","<MISSING>"
"https://www.oshkosh.com/","https://www.oshkosh.com/on/demandware.store/Sites-Carters-Site/default/Stores-ShowAll","OshKosh B'Gosh Shops at Midtown Miami","3401 North Miami AvenueSuite #138","Miami","FL","33127","US","<MISSING>","(305) 438-3764","<MISSING>","25.8081992","-80.1962553","<MISSING>"
"https://www.oshkosh.com/","https://www.oshkosh.com/on/demandware.store/Sites-Carters-Site/default/Stores-ShowAll","Carter's Midtown Miami","3401 North Miami AvenueSuite #137","Miami","FL","33127","US","<MISSING>","(305) 438-3764","<MISSING>","25.8081992","-80.1962553","<MISSING>"
"https://www.oshkosh.com/","https://www.oshkosh.com/on/demandware.store/Sites-Carters-Site/default/Stores-ShowAll","Carter's Kendall","8726 Mills Drive","Miami","FL","33183","US","<MISSING>","(305) 270-9363","<MISSING>","25.6869905","-80.3892218","<MISSING>"
"https://www.oshkosh.com/","https://www.oshkosh.com/on/demandware.store/Sites-Carters-Site/default/Stores-ShowAll","OshKosh B'Gosh The Palms at Town & Country","8726 Mills Drive","Miami","FL","33183","US","<MISSING>","(305) 270-9363","<MISSING>","25.6869905","-80.3892218","<MISSING>"
"https://www.oshkosh.com/","https://www.oshkosh.com/on/demandware.store/Sites-Carters-Site/default/Stores-ShowAll","Carter's Dolphin Mall Carters","11401 NW 12th St.","Miami","FL","33172","US","<MISSING>","(305) 513-4557","<MISSING>","25.7872397","-80.3824889","<MISSING>"
"https://www.oshkosh.com/","https://www.oshkosh.com/on/demandware.store/Sites-Carters-Site/default/Stores-ShowAll","Carter's Ocala","<MISSING>","Ocala","FL","34474","US","<MISSING>","<MISSING>","<MISSING>","29.1520528","-82.2673907","<MISSING>"
"https://www.oshkosh.com/","https://www.oshkosh.com/on/demandware.store/Sites-Carters-Site/default/Stores-ShowAll","OshKosh B'Gosh Gaitway Plaza","<MISSING>","Ocala","FL","34474","US","<MISSING>","<MISSING>","<MISSING>","29.1520528","-82.2673907","<MISSING>"
"https://www.oshkosh.com/","https://www.oshkosh.com/on/demandware.store/Sites-Carters-Site/default/Stores-ShowAll","Carter's Lake Buena Vista Carters","15541 State Road 535","Orlando","FL","32821","US","<MISSING>","(407) 239-4022","<MISSING>","28.365601","-81.5043885","<MISSING>"
"https://www.oshkosh.com/","https://www.oshkosh.com/on/demandware.store/Sites-Carters-Site/default/Stores-ShowAll","OshKosh B'Gosh Orlando Marketplace CLEARANCE STORE","<MISSING>","Orlando","FL","32819","US","<MISSING>","(407) 363-2754","<MISSING>","28.4519516","-81.5353373","<MISSING>"
"https://www.oshkosh.com/","https://www.oshkosh.com/on/demandware.store/Sites-Carters-Site/default/Stores-ShowAll","Carter's Orlando Marketplace","<MISSING>","Orlando","FL","32819","US","<MISSING>","(407) 363-2754","<MISSING>","28.4519516","-81.5353373","<MISSING>"
"https://www.oshkosh.com/","https://www.oshkosh.com/on/demandware.store/Sites-Carters-Site/default/Stores-ShowAll","OshKosh B'Gosh Vineland OshKosh","8200 Vineland Ave.Suite 820","Orlando","FL","32821","US","<MISSING>","(407) 239-4666","<MISSING>","28.3871235","-81.4945637","<MISSING>"
"https://www.oshkosh.com/","https://www.oshkosh.com/on/demandware.store/Sites-Carters-Site/default/Stores-ShowAll","Carter's International Carters","4967 International Dr.Suite 3A21","Orlando","FL","32819","US","<MISSING>","(407) 345-0003","<MISSING>","28.475977","-81.4523737","<MISSING>"
"https://www.oshkosh.com/","https://www.oshkosh.com/on/demandware.store/Sites-Carters-Site/default/Stores-ShowAll","OshKosh B'Gosh Lake Buena Vista OshKosh","15795 State Road 535","Orlando","FL","32821","US","<MISSING>","(407) 239-6252","<MISSING>","28.365601","-81.5043885","<MISSING>"
"https://www.oshkosh.com/","https://www.oshkosh.com/on/demandware.store/Sites-Carters-Site/default/Stores-ShowAll","Carter's Vineland Carters","8200 Vineland Ave.Space 1112","Orlando","FL","32821","US","<MISSING>","(407) 477-0472","<MISSING>","28.3871235","-81.4945637","<MISSING>"
"https://www.oshkosh.com/","https://www.oshkosh.com/on/demandware.store/Sites-Carters-Site/default/Stores-ShowAll","Carter's Waterford Lakes","679 North Alafaya Trail","Orlando","FL","32828","US","<MISSING>","(407) 275-2500","<MISSING>","28.5546522","-81.2059372","<MISSING>"
"https://www.oshkosh.com/","https://www.oshkosh.com/on/demandware.store/Sites-Carters-Site/default/Stores-ShowAll","OshKosh B'Gosh International OshKosh","4967 International Dr. 3A.25","Orlando","FL","32819","US","<MISSING>","(407) 352-6414","<MISSING>","28.4763824","-81.4529799","<MISSING>"
"https://www.oshkosh.com/","https://www.oshkosh.com/on/demandware.store/Sites-Carters-Site/default/Stores-ShowAll","Carter's Palmetto Bay","13615 South Dixie Highway","Bay","FL","33176","US","<MISSING>","(305) 251-2830","<MISSING>","25.6426","-80.3347712","<MISSING>"
"https://www.oshkosh.com/","https://www.oshkosh.com/on/demandware.store/Sites-Carters-Site/default/Stores-ShowAll","OshKosh B'Gosh Pier Park","204 Bluefish DriveSpace #G-110A","Beach","FL","32413","US","<MISSING>","(850) 235-9636","<MISSING>","30.219524","-85.8731331","<MISSING>"
"https://www.oshkosh.com/","https://www.oshkosh.com/on/demandware.store/Sites-Carters-Site/default/Stores-ShowAll","Carter's Panama City Beach","204 Bluefish Dr.Suite 125","Beach","FL","32413","US","<MISSING>","(850) 235-9636","<MISSING>","30.219524","-85.8731331","<MISSING>"
"https://www.oshkosh.com/","https://www.oshkosh.com/on/demandware.store/Sites-Carters-Site/default/Stores-ShowAll","Carter's Pembroke Pines","524 SW 145th TerraceSpace 10030","Pines","FL","33027","US","<MISSING>","(954) 431-8258","<MISSING>","26.003062","-80.3392177","<MISSING>"
"https://www.oshkosh.com/","https://www.oshkosh.com/on/demandware.store/Sites-Carters-Site/default/Stores-ShowAll","OshKosh B'Gosh Shops at Pembroke Gardens","524 SW 145th TerraceSpace 10040","Pines","FL","33027","US","<MISSING>","(954) 431-8258","<MISSING>","26.003062","-80.3392177","<MISSING>"
"https://www.oshkosh.com/","https://www.oshkosh.com/on/demandware.store/Sites-Carters-Site/default/Stores-ShowAll","Carter's Pensacola","5100 N 9th Ave","Pensacola","FL","32504","US","<MISSING>","(850) 474-6956","<MISSING>","30.4749009","-87.2111583","<MISSING>"
"https://www.oshkosh.com/","https://www.oshkosh.com/on/demandware.store/Sites-Carters-Site/default/Stores-ShowAll","OshKosh B'Gosh Cordova Mall","5100 N 9th Ave","Pensacola","FL","32504","US","<MISSING>","(850) 474-6956","<MISSING>","30.4749009","-87.2111583","<MISSING>"
"https://www.oshkosh.com/","https://www.oshkosh.com/on/demandware.store/Sites-Carters-Site/default/Stores-ShowAll","OshKosh B'Gosh The Marketplace at Seminole","1333 WP Ball Blvd","Sanford","FL","32771","US","<MISSING>","(407) 330-6472","<MISSING>","28.7982365","-81.3376567","<MISSING>"
"https://www.oshkosh.com/","https://www.oshkosh.com/on/demandware.store/Sites-Carters-Site/default/Stores-ShowAll","Carter's Sanford","1333 WP Ball BLVD","Sanford","FL","32771","US","<MISSING>","(407) 330-6472","<MISSING>","28.7982365","-81.3376567","<MISSING>"
"https://www.oshkosh.com/","https://www.oshkosh.com/on/demandware.store/Sites-Carters-Site/default/Stores-ShowAll","Carter's St. Augustine Carters","2700 State Rd. 16Space 801","Augustine","FL","32092","US","<MISSING>","(904) 823-9483","<MISSING>","29.9219929","-81.4176958","<MISSING>"
"https://www.oshkosh.com/","https://www.oshkosh.com/on/demandware.store/Sites-Carters-Site/default/Stores-ShowAll","OshKosh B'Gosh St. Augustine OshKosh","2700 State Rd. 16Suite 505","Augustine","FL","32092","US","<MISSING>","(904) 829-8923","<MISSING>","29.9219929","-81.4176958","<MISSING>"
"https://www.oshkosh.com/","https://www.oshkosh.com/on/demandware.store/Sites-Carters-Site/default/Stores-ShowAll","OshKosh B'Gosh Sawgrass OshKosh","12801 West Sunrise Blvd.Suite 875","Sunrise","FL","33323","US","<MISSING>","(954) 846-7953","<MISSING>","26.1491963","-80.3269737","<MISSING>"
"https://www.oshkosh.com/","https://www.oshkosh.com/on/demandware.store/Sites-Carters-Site/default/Stores-ShowAll","Carter's Sawgrass Carters","12801 West Sunrise Blvd.Suite 815","Sunrise","FL","33323","US","<MISSING>","(954) 846-2688","<MISSING>","26.1491963","-80.3269737","<MISSING>"
"https://www.oshkosh.com/","https://www.oshkosh.com/on/demandware.store/Sites-Carters-Site/default/Stores-ShowAll","Carter's Tallahassee","1534 Governors Square Blvd","Tallahassee","FL","32301","US","<MISSING>","(850) 309-0074","<MISSING>","30.4406838","-84.2599028","<MISSING>"
"https://www.oshkosh.com/","https://www.oshkosh.com/on/demandware.store/Sites-Carters-Site/default/Stores-ShowAll","OshKosh B'Gosh Westshore Plaza","250 Westshore PlazaSpace C26A","Tampa","FL","33609","US","<MISSING>","<MISSING>","<MISSING>","27.9469081","-82.5289002","<MISSING>"
"https://www.oshkosh.com/","https://www.oshkosh.com/on/demandware.store/Sites-Carters-Site/default/Stores-ShowAll","Carter's Citrus Park","12695 Citrus Plaza Dr","Tampa","FL","33625","US","<MISSING>","(813) 792-1593","<MISSING>","28.063543","-82.5782317","<MISSING>"
"https://www.oshkosh.com/","https://www.oshkosh.com/on/demandware.store/Sites-Carters-Site/default/Stores-ShowAll","Carter's Westshore Plaza","250 Westshore PlazaSpace C26A","Tampa","FL","33609","US","<MISSING>","<MISSING>","<MISSING>","27.9469081","-82.5289002","<MISSING>"
"https://www.oshkosh.com/","https://www.oshkosh.com/on/demandware.store/Sites-Carters-Site/default/Stores-ShowAll","Carter's Vero Beach","1701 94th Dr.Space F110","Beach","FL","32966","US","<MISSING>","(772) 770-9058","<MISSING>","27.6392891","-80.5251298","<MISSING>"
"https://www.oshkosh.com/","https://www.oshkosh.com/on/demandware.store/Sites-Carters-Site/default/Stores-ShowAll","OshKosh B'Gosh Wellington Green","10300 West Forest Boulevard","Wellington","FL","33414","US","<MISSING>","(561) 612-0485","<MISSING>","26.6470225","-80.2109558","<MISSING>"
"https://www.oshkosh.com/","https://www.oshkosh.com/on/demandware.store/Sites-Carters-Site/default/Stores-ShowAll","Carter's Wellington","10300 West Forest Boulevard","Wellington","FL","33414","US","<MISSING>","(561) 612-0485","<MISSING>","26.6470225","-80.2109558","<MISSING>"
"https://www.oshkosh.com/","https://www.oshkosh.com/on/demandware.store/Sites-Carters-Site/default/Stores-ShowAll","Carter's West Palm Beach","1741 Palm Beach Lakes BlvdSpace #E205","Beach","FL","33401","US","<MISSING>","(561) 689-7239","<MISSING>","26.7252061","-80.0886805","<MISSING>"
"https://www.oshkosh.com/","https://www.oshkosh.com/on/demandware.store/Sites-Carters-Site/default/Stores-ShowAll","OshKosh B'Gosh Palm Beach Outlets","1741 Palm Beach Lakes BlvdSpace #E209","Beach","FL","33401","US","<MISSING>","(561) 689-7239","<MISSING>","26.7252061","-80.0886805","<MISSING>"
"https://www.oshkosh.com/","https://www.oshkosh.com/on/demandware.store/Sites-Carters-Site/default/Stores-ShowAll","OshKosh B'Gosh Winter Garden Village","3049 Daniels RoadUnit #220B","Garden","FL","34787","US","<MISSING>","(407) 654-7842","<MISSING>","28.5240858","-81.5856082","<MISSING>"
"https://www.oshkosh.com/","https://www.oshkosh.com/on/demandware.store/Sites-Carters-Site/default/Stores-ShowAll","Carter's Winter Garden","3049 Daniels RoadUnit #220A","Garden","FL","34787","US","<MISSING>","(407) 654-7842","<MISSING>","28.5240858","-81.5856082","<MISSING>"
"https://www.oshkosh.com/","https://www.oshkosh.com/on/demandware.store/Sites-Carters-Site/default/Stores-ShowAll","OshKosh B'Gosh North Point MarketCenter","6120 North Point Parkway","Alpharetta","GA","30022","US","<MISSING>","(770) 360-7969","<MISSING>","34.0455928","-84.2903449","<MISSING>"
"https://www.oshkosh.com/","https://www.oshkosh.com/on/demandware.store/Sites-Carters-Site/default/Stores-ShowAll","Carter's Alpharetta","6120 North Point Parkway","Alpharetta","GA","30022","US","<MISSING>","(770) 360-7969","<MISSING>","34.0455928","-84.2903449","<MISSING>"
"https://www.oshkosh.com/","https://www.oshkosh.com/on/demandware.store/Sites-Carters-Site/default/Stores-ShowAll","Carter's Athens","1791 Oconee ConnectorSuite #710","Athens","GA","30606","US","<MISSING>","(706) 543-6013","<MISSING>","33.9163357","-83.459893","<MISSING>"
"https://www.oshkosh.com/","https://www.oshkosh.com/on/demandware.store/Sites-Carters-Site/default/Stores-ShowAll","Carter's Dunwoody","4737A Ashford Dunwoody RoadUnit BOH","Atlanta","GA","30338","US","<MISSING>","(770) 668-9487","<MISSING>","33.9338419","-84.3398302","<MISSING>"
"https://www.oshkosh.com/","https://www.oshkosh.com/on/demandware.store/Sites-Carters-Site/default/Stores-ShowAll","Carter's Peachtree Battle","2345 A Peachtree Road NW","Atlanta","GA","30305","US","<MISSING>","(404) 869-3373","<MISSING>","33.8189296","-84.3891033","<MISSING>"
"https://www.oshkosh.com/","https://www.oshkosh.com/on/demandware.store/Sites-Carters-Site/default/Stores-ShowAll","OshKosh B'Gosh Perimeter Village","4737A Ashford Dunwoody Road,Unit BOH","Atlanta","GA","30338","US","<MISSING>","(770) 668-9487","<MISSING>","33.9338419","-84.3398302","<MISSING>"
"https://www.oshkosh.com/","https://www.oshkosh.com/on/demandware.store/Sites-Carters-Site/default/Stores-ShowAll","OshKosh B'Gosh Akers Mill Shopping Center","2967 Cobb ParkwaySuite C1-A","Atlanta","GA","30339","US","<MISSING>","<MISSING>","<MISSING>","33.8811154","-84.4620224","<MISSING>"
"https://www.oshkosh.com/","https://www.oshkosh.com/on/demandware.store/Sites-Carters-Site/default/Stores-ShowAll","OshKosh B'Gosh Peachtree Battle","2345 B Peachtree Road NW","Atlanta","GA","30305","US","<MISSING>","(404) 869-3373","<MISSING>","33.8189296","-84.3891033","<MISSING>"
"https://www.oshkosh.com/","https://www.oshkosh.com/on/demandware.store/Sites-Carters-Site/default/Stores-ShowAll","Carter's Perimeter Mall","4400 Ashford Dunwoody RoadSpace 1060","Atlanta","GA","30346","US","<MISSING>","<MISSING>","<MISSING>","33.9230015","-84.3421691","<MISSING>"
"https://www.oshkosh.com/","https://www.oshkosh.com/on/demandware.store/Sites-Carters-Site/default/Stores-ShowAll","OshKosh B'Gosh Washington Crossing","2907 Washington RoadSuite #208","Augusta","GA","30909","US","<MISSING>","(706) 481-5007","<MISSING>","33.5135101","-82.0413699","<MISSING>"
"https://www.oshkosh.com/","https://www.oshkosh.com/on/demandware.store/Sites-Carters-Site/default/Stores-ShowAll","Carter's Augusta","2907 Washington RoadSuite #208","Augusta","GA","30909","US","<MISSING>","(706) 481-5007","<MISSING>","33.5135101","-82.0413699","<MISSING>"
"https://www.oshkosh.com/","https://www.oshkosh.com/on/demandware.store/Sites-Carters-Site/default/Stores-ShowAll","Carter's Buford","3205 Woodward Crossing BoulevardSuite 200B","Buford","GA","30519","US","<MISSING>","(770) 932-1026","<MISSING>","34.0705461","-83.9833941","<MISSING>"
"https://www.oshkosh.com/","https://www.oshkosh.com/on/demandware.store/Sites-Carters-Site/default/Stores-ShowAll","OshKosh B'Gosh Prime Outlets at Calhoun","455 Belwood Rd.Suite 45","Calhoun","GA","30701","US","<MISSING>","(706) 602-9260","<MISSING>","34.4610972","-84.9201854","<MISSING>"
"https://www.oshkosh.com/","https://www.oshkosh.com/on/demandware.store/Sites-Carters-Site/default/Stores-ShowAll","Carter's Calhoun","455 Belwood Rd.Suite 45","Calhoun","GA","30701","US","<MISSING>","(706) 602-9260","<MISSING>","34.4610972","-84.9201854","<MISSING>"
"https://www.oshkosh.com/","https://www.oshkosh.com/on/demandware.store/Sites-Carters-Site/default/Stores-ShowAll","Carter's Columbus Carters","5555 Whittlesey Blvd.Suite 2000","Columbus","GA","31909","US","<MISSING>","(706) 327-1700","<MISSING>","32.5464594","-84.9468944","<MISSING>"
"https://www.oshkosh.com/","https://www.oshkosh.com/on/demandware.store/Sites-Carters-Site/default/Stores-ShowAll","OshKosh B'Gosh Columbus OshKosh","5555 Whittlesey Blvd.Suite 2001","Columbus","GA","31909","US","<MISSING>","(706) 494-8909","<MISSING>","32.5464594","-84.9468944","<MISSING>"
"https://www.oshkosh.com/","https://www.oshkosh.com/on/demandware.store/Sites-Carters-Site/default/Stores-ShowAll","OshKosh B'Gosh Tanger Outlet Center Commerce","800 Steven B. Tanger Blvd.Suite 505","Commerce","GA","30529","US","<MISSING>","(706) 336-8474","<MISSING>","34.2508559","-83.4757696","<MISSING>"
"https://www.oshkosh.com/","https://www.oshkosh.com/on/demandware.store/Sites-Carters-Site/default/Stores-ShowAll","Carter's Commerce","800 Steven B. Tanger Blvd.Suite 505","Commerce","GA","30529","US","<MISSING>","(706) 336-8474","<MISSING>","34.2508559","-83.4757696","<MISSING>"
"https://www.oshkosh.com/","https://www.oshkosh.com/on/demandware.store/Sites-Carters-Site/default/Stores-ShowAll","Carter's Dawsonville Carters","800 Highway 400 SouthSuite 105","Dawsonville","GA","30534","US","<MISSING>","(706) 216-4425","<MISSING>","34.3578094","-84.0500545","<MISSING>"
"https://www.oshkosh.com/","https://www.oshkosh.com/on/demandware.store/Sites-Carters-Site/default/Stores-ShowAll","OshKosh B'Gosh Dawsonville OshKosh","800 Highway 400 SouthSuite 100","Dawsonville","GA","30534","US","<MISSING>","(706) 216-2294","<MISSING>","34.3578094","-84.0500545","<MISSING>"
"https://www.oshkosh.com/","https://www.oshkosh.com/on/demandware.store/Sites-Carters-Site/default/Stores-ShowAll","Carter's Lawrenceville","5900 Sugar Loaf ParkwaySpace 574","Lawrenceville","GA","30043","US","<MISSING>","(678) 847-5323","<MISSING>","33.9811233","-84.0816897","<MISSING>"
"https://www.oshkosh.com/","https://www.oshkosh.com/on/demandware.store/Sites-Carters-Site/default/Stores-ShowAll","Carter's Locust Grove Carters","1000 Tanger Dr.Suite 221","Grove","GA","30248","US","<MISSING>","(770) 957-7235","<MISSING>","33.3482674","-84.1246578","<MISSING>"
"https://www.oshkosh.com/","https://www.oshkosh.com/on/demandware.store/Sites-Carters-Site/default/Stores-ShowAll","OshKosh B'Gosh Locust Grove OshKosh","1000 Tanger Dr.Suite 314","Grove","GA","30248","US","<MISSING>","(770) 914-7423","<MISSING>","33.3482674","-84.1246578","<MISSING>"
"https://www.oshkosh.com/","https://www.oshkosh.com/on/demandware.store/Sites-Carters-Site/default/Stores-ShowAll","Carter's Marietta","50 Barrett ParkwaySuite 1025","Marietta","GA","30066","US","<MISSING>","(770) 426-5383","<MISSING>","34.0162188","-84.5531769","<MISSING>"
"https://www.oshkosh.com/","https://www.oshkosh.com/on/demandware.store/Sites-Carters-Site/default/Stores-ShowAll","Carter's Newnan","595 Bullsboro Drive","Newnan","GA","30265","US","<MISSING>","(770) 252-5982","<MISSING>","33.3957308","-84.7606278","<MISSING>"
"https://www.oshkosh.com/","https://www.oshkosh.com/on/demandware.store/Sites-Carters-Site/default/Stores-ShowAll","OshKosh B'Gosh Newnan Crossing","595 Bullsboro Drive","Newnan","GA","30265","US","<MISSING>","(770) 252-5982","<MISSING>","33.3957308","-84.7606278","<MISSING>"
"https://www.oshkosh.com/","https://www.oshkosh.com/on/demandware.store/Sites-Carters-Site/default/Stores-ShowAll","Carter's Pooler","200 Tanger Outlet BoulevardSuite #677 (Building #6)","Pooler","GA","31322","US","<MISSING>","(912) 450-0720","<MISSING>","32.1346946","-81.2454058","<MISSING>"
"https://www.oshkosh.com/","https://www.oshkosh.com/on/demandware.store/Sites-Carters-Site/default/Stores-ShowAll","OshKosh B'Gosh Tanger Outlet Center Savannah","200 Tanger Outlet BoulevardSuite #677 (Building #6)","Pooler","GA","31322","US","<MISSING>","(912) 450-0720","<MISSING>","32.1346946","-81.2454058","<MISSING>"
"https://www.oshkosh.com/","https://www.oshkosh.com/on/demandware.store/Sites-Carters-Site/default/Stores-ShowAll","Carter's Savannah","8108 Abercorn StreetSuite #640","Savannah","GA","31406","US","<MISSING>","(912) 920-2637","<MISSING>","32.0027282","-81.1245949","<MISSING>"
"https://www.oshkosh.com/","https://www.oshkosh.com/on/demandware.store/Sites-Carters-Site/default/Stores-ShowAll","Carter's Snellville","1350 Scenic HighwaySuite 816","Snellville","GA","30078","US","<MISSING>","(770) 985-3737","<MISSING>","33.8995323","-84.0065368","<MISSING>"
"https://www.oshkosh.com/","https://www.oshkosh.com/on/demandware.store/Sites-Carters-Site/default/Stores-ShowAll","Carter's Valdosta","1700 Norman DriveSpace 1110","Valdosta","GA","31601","US","<MISSING>","<MISSING>","<MISSING>","30.8437269","-83.322839","<MISSING>"
"https://www.oshkosh.com/","https://www.oshkosh.com/on/demandware.store/Sites-Carters-Site/default/Stores-ShowAll","OshKosh B'Gosh Valdosta Mall","1700 Norman DriveSuite 1110","Valdosta","GA","31601","US","<MISSING>","<MISSING>","<MISSING>","30.8437269","-83.322839","<MISSING>"
"https://www.oshkosh.com/","https://www.oshkosh.com/on/demandware.store/Sites-Carters-Site/default/Stores-ShowAll","Carter's Warner Robins","2620 Watson BoulevardSuite 7","Robins","GA","31093","US","<MISSING>","(478) 923-2483","<MISSING>","32.6200513","-83.6697674","<MISSING>"
"https://www.oshkosh.com/","https://www.oshkosh.com/on/demandware.store/Sites-Carters-Site/default/Stores-ShowAll","OshKosh B'Gosh Outlet Shoppes at Atlanta","915 Ridgewalk ParkwaySpace D430","Woodstock","GA","30188","US","<MISSING>","(770) 928-2836","<MISSING>","34.1202777","-84.5287225","<MISSING>"
"https://www.oshkosh.com/","https://www.oshkosh.com/on/demandware.store/Sites-Carters-Site/default/Stores-ShowAll","Carter's Woodstock","915 Ridgewalk ParkwaySpace D420","Woodstock","GA","30188","US","<MISSING>","(770) 928-2836","<MISSING>","34.1202777","-84.5287225","<MISSING>"
"https://www.oshkosh.com/","https://www.oshkosh.com/on/demandware.store/Sites-Carters-Site/default/Stores-ShowAll","Carter's Lahaina","900 Front StreetSpace F3","Lahaina","HI","96761","US","<MISSING>","(808) 661-6858","<MISSING>","20.8784845","-156.6832979","<MISSING>"
"https://www.oshkosh.com/","https://www.oshkosh.com/on/demandware.store/Sites-Carters-Site/default/Stores-ShowAll","OshKosh B'Gosh Waipahu OshKosh","94-792 Lumiaina St.Suite 210","Waipahu","HI","96797","US","<MISSING>","(808) 678-2773","<MISSING>","21.4010576","-158.0084922","<MISSING>"
"https://www.oshkosh.com/","https://www.oshkosh.com/on/demandware.store/Sites-Carters-Site/default/Stores-ShowAll","Carter's Waipahu Carters","94-792 Lumiaina St.Suite 206","Waipahu","HI","96797","US","<MISSING>","(808) 678-9287","<MISSING>","21.4010576","-158.0084922","<MISSING>"
"https://www.oshkosh.com/","https://www.oshkosh.com/on/demandware.store/Sites-Carters-Site/default/Stores-ShowAll","OshKosh B'Gosh Outlets of Des Moines","545 Bass Pro Drive NWSpace 615","Altoona","IA","50009","US","<MISSING>","(515) 957-0819","<MISSING>","41.6563583","-93.5148315","<MISSING>"
"https://www.oshkosh.com/","https://www.oshkosh.com/on/demandware.store/Sites-Carters-Site/default/Stores-ShowAll","Carter's Altoona","545 Bass Pro Drive NWSpace 610","Altoona","IA","50009","US","<MISSING>","(515) 957-0819","<MISSING>","41.6563583","-93.5148315","<MISSING>"
"https://www.oshkosh.com/","https://www.oshkosh.com/on/demandware.store/Sites-Carters-Site/default/Stores-ShowAll","OshKosh B'Gosh East Viking Plaza","406 Viking Plaza DriveSuite 700","Falls","IA","50613","US","<MISSING>","(319) 266-6832","<MISSING>","42.482188","-92.4436906","<MISSING>"
"https://www.oshkosh.com/","https://www.oshkosh.com/on/demandware.store/Sites-Carters-Site/default/Stores-ShowAll","Carter's Cedar Falls","406 Viking Plaza DriveSuite 700","Falls","IA","50613","US","<MISSING>","(319) 266-6832","<MISSING>","42.482188","-92.4436906","<MISSING>"
"https://www.oshkosh.com/","https://www.oshkosh.com/on/demandware.store/Sites-Carters-Site/default/Stores-ShowAll","Carter's Cedar Rapids","4444 First Avenue NE","Rapids","IA","52402","US","<MISSING>","(319) 294-9033","<MISSING>","42.0257279","-91.6300358","<MISSING>"
"https://www.oshkosh.com/","https://www.oshkosh.com/on/demandware.store/Sites-Carters-Site/default/Stores-ShowAll","OshKosh B'Gosh Lindale Mall","4444 First Avenue NE","Rapids","IA","52402","US","<MISSING>","(319) 294-9033","<MISSING>","42.0257279","-91.6300358","<MISSING>"
"https://www.oshkosh.com/","https://www.oshkosh.com/on/demandware.store/Sites-Carters-Site/default/Stores-ShowAll","OshKosh B'Gosh Metro Crossing","3706 Metro DriveSpace 500","Bluffs","IA","51501","US","<MISSING>","(712) 366-7892","<MISSING>","41.2228128","-95.8426826","<MISSING>"
"https://www.oshkosh.com/","https://www.oshkosh.com/on/demandware.store/Sites-Carters-Site/default/Stores-ShowAll","Carter's Council Bluffs","3706 Metro DriveSpace 500","Bluffs","IA","51501","US","<MISSING>","(712) 366-7892","<MISSING>","41.2228128","-95.8426826","<MISSING>"
"https://www.oshkosh.com/","https://www.oshkosh.com/on/demandware.store/Sites-Carters-Site/default/Stores-ShowAll","Carter's Davenport","4227 Elmore Avenue","Davenport","IA","52807","US","<MISSING>","(563) 359-0283","<MISSING>","41.5639117","-90.5258013","<MISSING>"
"https://www.oshkosh.com/","https://www.oshkosh.com/on/demandware.store/Sites-Carters-Site/default/Stores-ShowAll","Carter's Dubuque","2445 Northwest Arterial#100","Dubuque","IA","52002","US","<MISSING>","(563) 556-0362","<MISSING>","42.5176628","-90.7466253","<MISSING>"
