"page_url","location_name","street_address","city","state","zip","country_code","store_number","phone","location_type","latitude","longitude","locator_domain","hours_of_operation","raw_address","record_id"
"https://lifestance.com/location/alpharetta-ga/","Alpharetta, GA","3300 Old Milton Parkway Suite 175","Alpharetta","GA","30005-2423","US","<MISSING>","470-820-7830","<MISSING>","34.0694722","-84.2657757","https://lifestance.com/","Monday:8am-5pm; Tuesday:8am-5pm; Wednesday:8am-5pm; Thursday:8am-5pm; Friday:8am-5pm; Saturday:Closed; Sunday:Closed","<MISSING>","longitude:street_address:page_url:latitude"
"https://lifestance.com/location/marietta-ga/","Marietta, GA","1640 Power Ferry Rd Bldg 9 Suite 100","Marietta","GA","30067-5491","US","<MISSING>","678-830-0608","<MISSING>","33.9144575","-84.4670655","https://lifestance.com/","Monday:8am-5pm; Tuesday:8am-5pm; Wednesday:8am-5pm; Thursday:8am-5pm; Friday:8am-5pm; Saturday:Closed; Sunday:Closed","<MISSING>","longitude:street_address:page_url:latitude"
"https://lifestance.com/location/augusta-ga/","Augusta, GA","3633 Wheeler Rd Suite 365","Augusta","GA","30909-6549","US","<MISSING>","706-432-6866","<MISSING>","33.483039","-82.0892862","https://lifestance.com/","Monday:8am-5pm; Tuesday:8am-5pm; Wednesday:8am-5pm; Thursday:8am-5pm; Friday:8am-5pm; Saturday:Closed; Sunday:Closed","<MISSING>","longitude:street_address:page_url:latitude"
"https://lifestance.com/location/cumming-ga-2-2/","Cumming, GA","5995 Parkway North Blvd Suites A & B","Cumming","GA","30040-1477","US","<MISSING>","470-552-2570","<MISSING>","34.1666137","-84.1745262","https://lifestance.com/","Monday:8am-5pm; Tuesday:8am-5pm; Wednesday:8am-5pm; Thursday:8am-5pm; Friday:8am-2pm; Saturday:Closed; Sunday:Closed","<MISSING>","longitude:street_address:page_url:latitude"
"https://lifestance.com/location/duluth-ga/","Duluth, GA","2055 Sugarloaf Circle Suite 5","Duluth","GA","30097-4363","US","<MISSING>","404-999-7971","<MISSING>","33.9865571","-84.0896519","https://lifestance.com/","Monday:8am-6pm; Tuesday:8am-6pm; Wednesday:8am-6pm; Thursday:8am-6pm; Friday:8am-6pm; Saturday:Closed; Sunday:Closed","<MISSING>","longitude:street_address:page_url:latitude"
"https://lifestance.com/location/grovetown-ga/","Grovetown, GA","4039 Gateway Blvd","Grovetown","GA","30813-3395","US","<MISSING>","706-498-9570","<MISSING>","33.4789244","-82.1946591","https://lifestance.com/","Monday:8am-5pm; Tuesday:8am-5pm; Wednesday:8am-5pm; Thursday:8am-5pm; Friday:8am-5pm; Saturday:Closed; Sunday:Closed","<MISSING>","longitude:street_address:page_url:latitude"
"https://lifestance.com/location/macon-ga/","Macon, GA","6055 Lakeside Commons Drive","Macon","GA","31210-5791","US","<MISSING>","478-238-9344","<MISSING>","32.9234454","-83.7314523","https://lifestance.com/","Monday:8am-6pm; Tuesday:8am-6pm; Wednesday:8am-6pm; Thursday:8am-6pm; Friday:8am-6pm; Saturday:Closed; Sunday:Closed","<MISSING>","longitude:street_address:page_url:latitude"
"https://lifestance.com/location/peachtree-city-ga/","Peachtree City, GA","125 Governors Square Suite D","Peachtree City","GA","30269-3922","US","<MISSING>","678-423-5500","<MISSING>","33.4273587","-84.554855","https://lifestance.com/","Monday:8am-6pm; Tuesday:8am-6pm; Wednesday:8am-6pm; Thursday:8am-6pm; Friday:8am-6pm; Saturday:9am-5pm; Sunday:Closed","<MISSING>","longitude:street_address:page_url:latitude"
"https://lifestance.com/location/norcross-ga/","Norcross, GA","5635 Peachtree Parkway Suite 180","Norcross","GA","30092-0001","US","<MISSING>","470-938-6670","<MISSING>","33.9666096","-84.2244628","https://lifestance.com/","Monday:8am-5pm; Tuesday:8am-5pm; Wednesday:8am-5pm; Thursday:8am-5pm; Friday:8am-2pm; Saturday:Closed; Sunday:Closed","<MISSING>","longitude:street_address:page_url:latitude"
"https://lifestance.com/location/peachtree-city-ga-2/","Peachtree City, GA","117 Governors Square Suite B","Peachtree City","GA","30269-4811","US","<MISSING>","470-661-0890","<MISSING>","33.4273611","-84.5554077","https://lifestance.com/","Monday:8am-5pm; Tuesday:8am-5pm; Wednesday:8am-5pm; Thursday:8am-5pm; Friday:8am-5pm; Saturday:Closed; Sunday:Closed","<MISSING>","longitude:street_address:page_url:latitude"
"https://lifestance.com/location/warner-robins-ga/","Warner Robins, GA","404 Corder Road Suite 100","Warner Robins","GA","31088-7196","US","<MISSING>","478-322-1113","<MISSING>","32.6121945","-83.6535668","https://lifestance.com/","Monday:8am-6pm; Tuesday:8am-6pm; Wednesday:8am-6pm; Thursday:8am-6pm; Friday:8am-6pm; Saturday:Closed; Sunday:Closed","<MISSING>","longitude:street_address:page_url:latitude"
"https://lifestance.com/location/woodstock-ga/","Woodstock, GA","100 Stoneforest Dr Suite 230","Woodstock","GA","30189-1100","US","<MISSING>","470-552-8470","<MISSING>","34.1035498","-84.5380274","https://lifestance.com/","Monday:8am-5pm; Tuesday:8am-5pm; Wednesday:8am-5pm; Thursday:8am-5pm; Friday:8am-5pm; Saturday:Closed; Sunday:Closed","<MISSING>","longitude:street_address:page_url:latitude"
"https://lifestance.com/location/richmond-va/","Richmond, VA","7301 Forest Ave St 200","Richmond","VA","23226-3792","US","<MISSING>","804-374-8112","<MISSING>","37.604663","-77.5333916","https://lifestance.com/","Monday:8:30am-5pm; Tuesday:8:30am-5pm; Wednesday:8:30am-5pm; Thursday:8:30am-5pm; Friday:8:30am-5pm; Saturday:Closed; Sunday:Closed","<MISSING>","longitude:street_address:page_url:latitude"
"https://lifestance.com/location/richmond-va-2/","Richmond, VA","10710 Midlothian Tpike Suite 127","Richmond","VA","23235-4776","US","<MISSING>","804-220-0903","<MISSING>","37.5081862","-77.5955213","https://lifestance.com/","Monday:8:30am-5pm; Tuesday:8:30am-5pm; Wednesday:8:30am-5pm; Thursday:8:30am-5pm; Friday:8:30am-5pm; Saturday:Closed; Sunday:Closed","<MISSING>","longitude:street_address:page_url:latitude"
"https://lifestance.com/location/richmond-va-3/","Richmond, VA","7231 Forest Avenue Suite 103","Richmond","VA","23226-3785","US","<MISSING>","804-728-2138","<MISSING>","37.604811","-77.5313845","https://lifestance.com/","Monday:8:30am-5pm; Tuesday:8:30am-5pm; Wednesday:8:30am-5pm; Thursday:8:30am-5pm; Friday:8:30am-5pm; Saturday:Closed; Sunday:Closed","<MISSING>","longitude:street_address:page_url:latitude"
"https://lifestance.com/location/mechanicsville-va/","Mechanicsville, VA","9202 Center Oak Court","Mechanicsville","VA","23116-2744","US","<MISSING>","804-730-0432","<MISSING>","37.654989","-77.4021027","https://lifestance.com/","Monday:8:30am-5pm; Tuesday:8:30am-5pm; Wednesday:8:30am-5pm; Thursday:8:30am-5pm; Friday:8:30am-5pm; Saturday:Closed; Sunday:Closed","<MISSING>","longitude:street_address:page_url:latitude"
"https://lifestance.com/location/midlothian-va/","Midlothian, VA","15521 Midlothian Turnpike Suite 105","Midlothian","VA","23113-7313","US","<MISSING>","804-423-1550","<MISSING>","37.5113468","-77.6982477","https://lifestance.com/","Monday:8:30am-5pm; Tuesday:8:30am-5pm; Wednesday:8:30am-5pm; Thursday:8:30am-5pm; Friday:8:30am-5pm; Saturday:Closed; Sunday:Closed","<MISSING>","longitude:street_address:page_url:latitude"
"https://lifestance.com/location/newport-news-va/","Newport News, VA","580 City Center Boulevard St 5","Newport News","VA","23606-1880","US","<MISSING>","757-600-5657","<MISSING>","37.0865408","-76.4863391","https://lifestance.com/","Monday:8:30am-5pm; Tuesday:8:30am-5pm; Wednesday:8:30am-5pm; Thursday:8:30am-5pm; Friday:8:30am-5pm; Saturday:Closed; Sunday:Closed","<MISSING>","longitude:street_address:page_url:latitude"
"https://lifestance.com/location/virginia-beach-va/","Virginia Beach, VA","575 Lynnhaven Parkway 305","Virginia Beach","VA","23452-7350","US","<MISSING>","757-752-8941","<MISSING>","36.830422","-76.0686522","https://lifestance.com/","Monday:8:30am-5pm; Tuesday:8:30am-5pm; Wednesday:8:30am-5pm; Thursday:8:30am-5pm; Friday:8:30am-5pm; Saturday:Closed; Sunday:Closed","<MISSING>","longitude:street_address:page_url:latitude"
"https://lifestance.com/location/williamsburg-va/","Williamsburg, VA","5360 Discovery Park Blvd Suite 201","Williamsburg","VA","23188-2860","US","<MISSING>","757-932-2631","<MISSING>","37.2816909","-76.7407087","https://lifestance.com/","Monday:8:30am-5pm; Tuesday:8:30am-5pm; Wednesday:8:30am-5pm; Thursday:8:30am-5pm; Friday:8:30am-5pm; Saturday:Closed; Sunday:Closed","<MISSING>","longitude:street_address:page_url:latitude"
"https://lifestance.com/location/glen-allen-va/","Glen Allen, VA","5213 Hickory Park Drive Suite A","Glen Allen","VA","23059-2617","US","<MISSING>","804-237-8030","<MISSING>","37.6765861","-77.5891838","https://lifestance.com/","Monday:8:30am-5pm; Tuesday:8:30am-5pm; Wednesday:8:30am-5pm; Thursday:8:30am-5pm; Friday:8:30am-5pm; Saturday:Closed; Sunday:Closed","<MISSING>","longitude:street_address:page_url:latitude"
"https://lifestance.com/location/richmond-va-4/","Richmond, VA","8716 West Broad Street","Richmond","VA","23294-6209","US","<MISSING>","804-423-1550","<MISSING>","37.6378684","-77.5418775","https://lifestance.com/","Monday:8am-5pm; Tuesday:8am-5pm; Wednesday:8am-5pm; Thursday:8am-5pm; Friday:8am-5pm; Saturday:Closed; Sunday:Closed","<MISSING>","longitude:street_address:page_url:latitude"
"https://lifestance.com/location/houston-tx/","Houston, TX","8588 Katy Fwy #350","Houston","TX","77024-1853","US","<MISSING>","713-426-3100","<MISSING>","29.7870955","-95.4976702","https://lifestance.com/","Monday:8am-5pm; Tuesday:8am-5pm; Wednesday:8am-5pm; Thursday:8am-5pm; Friday:9am-5pm; Saturday:Closed; Sunday:Closed","<MISSING>","longitude:street_address:page_url:latitude"
"https://lifestance.com/location/pasadena-tx/","Pasadena, TX","4001 Preston Rd Suite 150","Pasadena","TX","77505-2517","US","<MISSING>","281-324-0459","<MISSING>","29.6507948","-95.1700393","https://lifestance.com/","Monday:8am-5pm; Tuesday:8am-5pm; Wednesday:8am-5pm; Thursday:8am-5pm; Friday:8am-5pm; Saturday:Closed; Sunday:Closed","<MISSING>","longitude:street_address:page_url:latitude"
"https://lifestance.com/location/friendswood-tx/","Friendswood, TX","308 S Friendswood Dr Suite 110","Friendswood","TX","77546-3989","US","<MISSING>","281-993-3733","<MISSING>","29.5300949","-95.2024624","https://lifestance.com/","Monday:7:30am-6pm; Tuesday:7:30am-6pm; Wednesday:7:30am-6pm; Thursday:7:30am-6pm; Friday:9am-5pm; Saturday:Closed; Sunday:Closed","<MISSING>","longitude:street_address:page_url:latitude"
"https://lifestance.com/location/houston-tx-2/","Houston, TX","2222 Greenhouse Suite Rd 200 B","Houston","TX","77084-7252","US","<MISSING>","281-324-0459","<MISSING>","29.8296506","-95.6668306","https://lifestance.com/","Monday:8am-5pm; Tuesday:8am-5pm; Wednesday:8am-5pm; Thursday:8am-5pm; Friday:8am-5pm; Saturday:Closed; Sunday:Closed","<MISSING>","longitude:street_address:page_url:latitude"
"https://lifestance.com/location/round-rock-tx/","Round Rock, TX","505 E Palm Valley Blvd Suite 240","Round Rock","TX","78664-3043","US","<MISSING>","281-993-3733","<MISSING>","30.5183149","-97.6766456","https://lifestance.com/","Monday:8am-5pm; Tuesday:8am-5pm; Wednesday:8am-5pm; Thursday:8am-5pm; Friday:8am-5pm; Saturday:Closed; Sunday:Closed","<MISSING>","longitude:street_address:page_url:latitude"
"https://lifestance.com/location/richmond-tx/","Richmond, TX","22001 Sw Freeway Suite 125 1St Floor","Richmond","TX","77469-7002","US","<MISSING>","832-219-3898","<MISSING>","29.5555007","-95.7129484","https://lifestance.com/","Monday:9am-5pm; Tuesday:9am-5pm; Wednesday:9am-5pm; Thursday:9am-5pm; Friday:9am-5pm; Saturday:Closed; Sunday:Closed","<MISSING>","longitude:street_address:page_url:latitude"
"https://lifestance.com/location/houston-tx-3/","Houston, TX","3355 West Alabama Suite 195","Houston","TX","77098-1722","US","<MISSING>","832-895-6255","<MISSING>","29.7378211","-95.427656","https://lifestance.com/","Monday:9am-5pm; Tuesday:9am-5pm; Wednesday:9am-5pm; Thursday:9am-5pm; Friday:9am-5pm; Saturday:Closed; Sunday:Closed","<MISSING>","longitude:street_address:page_url:latitude"
"https://lifestance.com/location/san-antonio-tx/","San Antonio, TX","4242 Medical Dr Suite 6300","San Antonio","TX","78229-5372","US","<MISSING>","210-614-8400","<MISSING>","29.5129264","-98.5677604","https://lifestance.com/","Monday:9am-5pm; Tuesday:9am-5pm; Wednesday:9am-5pm; Thursday:9am-5pm; Friday:9am-5pm; Saturday:Closed; Sunday:Closed","<MISSING>","longitude:street_address:page_url:latitude"
"https://lifestance.com/location/san-antonio-tx-2/","San Antonio, TX","540 Oak Center Dr Suite 205","San Antonio","TX","78258-3936","US","<MISSING>","210-614-8400","<MISSING>","29.6182939","-98.4925644","https://lifestance.com/","Monday:8am-5pm; Tuesday:8am-5pm; Wednesday:8am-5pm; Thursday:8am-5pm; Friday:8am-5pm; Saturday:Closed; Sunday:Closed","<MISSING>","longitude:street_address:page_url:latitude"
"https://lifestance.com/location/the-woodlands-tx/","The Woodlands, TX","2103 Research Forest Drive Suite 175","The Woodlands","TX","77380-4162","US","<MISSING>","832-895-0347","<MISSING>","30.1752388","-95.4695724","https://lifestance.com/","Monday:9am-5pm; Tuesday:9am-5pm; Wednesday:9am-5pm; Thursday:9am-5pm; Friday:9am-5pm; Saturday:Closed; Sunday:Closed","<MISSING>","longitude:street_address:page_url:latitude"
"https://lifestance.com/location/austin-tx/","Austin, TX","1515 S Capitol Of Tx Highway Suite 300 & 310","Austin","TX","78746-6544","US","<MISSING>","832-895-0098","<MISSING>","30.2746652","-97.7403505","https://lifestance.com/","Monday:9am-5pm; Tuesday:9am-5pm; Wednesday:9am-5pm; Thursday:9am-5pm; Friday:9am-5pm; Saturday:Closed; Sunday:Closed","<MISSING>","longitude:street_address:page_url:latitude"
"https://lifestance.com/location/arlington-ma/","Arlington, MA","22 Mill St Suite 004","Arlington","MA","02476-4378","US","<MISSING>","781-646-0500","<MISSING>","42.4178066","-71.15813","https://lifestance.com/","Monday:9am-5pm; Tuesday:9am-5pm; Wednesday:9am-5pm; Thursday:9am-5pm; Friday:9am-5pm; Saturday:Closed; Sunday:Closed","<MISSING>","longitude:street_address:page_url:latitude"
"https://lifestance.com/location/auburn-ma/","Auburn, MA","11 Midstate Drive Suite 3","Auburn","MA","15013173","US","<MISSING>","781-551-0999","<MISSING>","42.1881064","-71.856253","https://lifestance.com/","Monday:8am-8pm; Tuesday:8am-8pm; Wednesday:8am-8pm; Thursday:8am-8pm; Friday:8am-6pm; Saturday:9am-2pm; Sunday:Closed","<MISSING>","longitude:street_address:page_url:latitude"
"https://lifestance.com/location/bellingham-ma/","Bellingham, MA","1003 South Main Street","Bellingham","MA","02019-1826","US","<MISSING>","781-551-0999","<MISSING>","42.0690873","-71.4746929","https://lifestance.com/","Monday:8am-5pm; Tuesday:8am-5pm; Wednesday:8am-5pm; Thursday:8am-5pm; Friday:8am-5pm; Saturday:Closed; Sunday:Closed","<MISSING>","longitude:street_address:page_url:latitude"
"https://lifestance.com/location/newton-center-ma/","Newton Center, MA","714 Beacon St","Newton Center","MA","02459-1943","US","<MISSING>","617-646-0500","<MISSING>","42.3306775","-71.1898946","https://lifestance.com/","Monday:8am-8pm; Tuesday:8am-8pm; Wednesday:8am-8pm; Thursday:8am-8pm; Friday:8am-8pm; Saturday:8am-5pm; Sunday:Closed","<MISSING>","longitude:street_address:page_url:latitude"
"https://lifestance.com/location/northbridge-ma/","Northbridge, MA","100 Commerce Drive","Northbridge","MA","01534-1415","US","<MISSING>","781-551-0999","<MISSING>","42.1260544","-71.6412851","https://lifestance.com/","Monday:8am-5pm; Tuesday:8am-5pm; Wednesday:8am-5pm; Thursday:8am-5pm; Friday:8am-5pm; Saturday:Closed; Sunday:Closed","<MISSING>","longitude:street_address:page_url:latitude"
"https://lifestance.com/location/canton-ma/","Canton, MA","45 Shawmut Rd 3Rd Floor","Canton","MA","02021-1400","US","<MISSING>","781-551-0999","<MISSING>","42.1885188","-71.1520463","https://lifestance.com/","Monday:8am-8pm; Tuesday:8am-8pm; Wednesday:8am-8pm; Thursday:8am-8pm; Friday:8am-6pm; Saturday:9am-2pm; Sunday:Closed","<MISSING>","longitude:street_address:page_url:latitude"
"https://lifestance.com/location/chelmsford-ma/","Chelmsford, MA","321 Billerica Rd Suite 104","Chelmsford","MA","01824-4100","US","<MISSING>","781-646-0500","<MISSING>","42.5917753","-71.3189996","https://lifestance.com/","Monday:8am-8pm; Tuesday:8am-8pm; Wednesday:8am-8pm; Thursday:8am-8pm; Friday:8am-6pm; Saturday:9am-2pm; Sunday:Closed","<MISSING>","longitude:street_address:page_url:latitude"
"https://lifestance.com/location/concord-ma/","Concord, MA","200 Baker Ave Suite 203","Concord","MA","01742-2170","US","<MISSING>","781-646-0500","<MISSING>","42.4601885","-71.3845712","https://lifestance.com/","Monday:8am-8pm; Tuesday:8am-8pm; Wednesday:8am-8pm; Thursday:8am-8pm; Friday:8am-6pm; Saturday:Closed; Sunday:Closed","<MISSING>","longitude:street_address:page_url:latitude"
"https://lifestance.com/location/marlborough-ma/","Marlborough, MA","246 Maple St","Marlborough","MA","01752-3235","US","<MISSING>","781-646-0500","<MISSING>","42.3394563","-71.5417474","https://lifestance.com/","Monday:8am-5pm; Tuesday:8am-5pm; Wednesday:8am-5pm; Thursday:8am-5pm; Friday:8am-5pm; Saturday:Closed; Sunday:Closed","<MISSING>","longitude:street_address:page_url:latitude"
"https://lifestance.com/location/natick-ma/","Natick, MA","83 Spleen St","Natick","MA","01760-4168","US","<MISSING>","781-646-0500","<MISSING>","42.2785022","-71.3758881","https://lifestance.com/","Monday:8am-5pm; Tuesday:8am-5pm; Wednesday:8am-5pm; Thursday:8am-5pm; Friday:8am-5pm; Saturday:Closed; Sunday:Closed","<MISSING>","longitude:street_address:page_url:latitude"
"https://lifestance.com/location/north-easton-ma/","North Easton, MA","115 Main St Suite 2D","North Easton","MA","02356-1469","US","<MISSING>","508-238-7766","<MISSING>","42.066662","-71.1045482","https://lifestance.com/","Monday:9am-7pm; Tuesday:9am-7pm; Wednesday:9am-7pm; Thursday:9am-7pm; Friday:9am-5pm; Saturday:8am-4pm; Sunday:Closed","<MISSING>","longitude:street_address:page_url:latitude"
"https://lifestance.com/location/bedford-ma/","Bedford, MA","55 North Road Suite 120","Bedford","MA","01730-1075","US","<MISSING>","<MISSING>","<MISSING>","42.4964765","-71.2846678","https://lifestance.com/","Monday:8am-5pm; Tuesday:8am-5pm; Wednesday:8am-5pm; Thursday:8am-5pm; Friday:8am-5pm; Saturday:Closed; Sunday:Closed","<MISSING>","longitude:street_address:page_url:latitude"
"https://lifestance.com/location/melrose-ma/","Melrose, MA","548 Lebanon St","Melrose","MA","02176-3226","US","<MISSING>","781-646-0500","<MISSING>","42.4591176","-71.0620106","https://lifestance.com/","Monday:8am-5pm; Tuesday:8am-5pm; Wednesday:8am-5pm; Thursday:8am-5pm; Friday:8am-5pm; Saturday:Closed; Sunday:Closed","<MISSING>","longitude:street_address:page_url:latitude"
"https://lifestance.com/location/franklin-ma/","Franklin, MA","1280 W Central St Suite 202","Franklin","MA","02038-3110","US","<MISSING>","781-551-0999","<MISSING>","42.0844535","-71.447792","https://lifestance.com/","Monday:8am-5pm; Tuesday:8am-5pm; Wednesday:8am-5pm; Thursday:8am-5pm; Friday:8am-5pm; Saturday:Closed; Sunday:Closed","<MISSING>","longitude:street_address:page_url:latitude"
"https://lifestance.com/location/foxboro-ma/","Foxboro, MA","9 Payson Road Suite 100","Foxboro","MA","02035-1309","US","<MISSING>","781-551-0999","<MISSING>","42.076365","-71.2574934","https://lifestance.com/","Monday:8am-5pm; Tuesday:8am-5pm; Wednesday:8am-5pm; Thursday:8am-5pm; Friday:8am-5pm; Saturday:Closed; Sunday:Closed","<MISSING>","longitude:street_address:page_url:latitude"
"https://lifestance.com/location/framingham-ma/","Framingham, MA","125 Newbury St Suite 500","Framingham","MA","01701-4592","US","<MISSING>","781-646-0500","<MISSING>","42.3073233","-71.3964302","https://lifestance.com/","Monday:8am-8pm; Tuesday:8am-8pm; Wednesday:8am-8pm; Thursday:8am-8pm; Friday:8am-6pm; Saturday:9am-2pm; Sunday:Closed","<MISSING>","longitude:street_address:page_url:latitude"
"https://lifestance.com/location/groton-ma/","Groton, MA","120 Boston Rd Suite 200","Groton","MA","01450-1860","US","<MISSING>","781-646-0500","<MISSING>","42.5960213","-71.559645","https://lifestance.com/","Monday:8am-8pm; Tuesday:8am-8pm; Wednesday:8am-8pm; Thursday:8am-8pm; Friday:8am-6pm; Saturday:9am-2pm; Sunday:Closed","<MISSING>","longitude:street_address:page_url:latitude"
"https://lifestance.com/location/holliston-ma/","Holliston, MA","100 Jeffrey Avenue","Holliston","MA","01746-2028","US","<MISSING>","781-551-0999","<MISSING>","42.2136392","-71.41129","https://lifestance.com/","Monday:8am-8pm; Tuesday:8am-8pm; Wednesday:8am-8pm; Thursday:8am-8pm; Friday:8am-6pm; Saturday:9am-2pm; Sunday:Closed","<MISSING>","longitude:street_address:page_url:latitude"
"https://lifestance.com/location/hopkinton-ma/","Hopkinton, MA","1 Ash Street First Floor","Hopkinton","MA","01748-1886","US","<MISSING>","617-552-5116","<MISSING>","42.2300341","-71.5173983","https://lifestance.com/","Monday:8am-8pm; Tuesday:8am-8pm; Wednesday:8am-8pm; Thursday:8am-8pm; Friday:8am-8pm; Saturday:8am-5pm; Sunday:Closed","<MISSING>","longitude:street_address:page_url:latitude"
"https://lifestance.com/location/kingston-ma/","Kingston, MA","5 Tarkiln Road","Kingston","MA","02364-1250","US","<MISSING>","781-551-0999","<MISSING>","42.0134802","-70.7317616","https://lifestance.com/","Monday:8am-5pm; Tuesday:8am-5pm; Wednesday:8am-5pm; Thursday:8am-5pm; Friday:8am-5pm; Saturday:Closed; Sunday:Closed","<MISSING>","longitude:street_address:page_url:latitude"
"https://lifestance.com/location/lexington-ma/","Lexington, MA","110 Hartwell Ave Suite 330","Lexington","MA","02421-3118","US","<MISSING>","781-551-0999","<MISSING>","42.463385","-71.2617141","https://lifestance.com/","Monday:9am-5pm; Tuesday:9am-5pm; Wednesday:9am-5pm; Thursday:9am-5pm; Friday:Closed; Saturday:9am-1pm; Sunday:Closed","<MISSING>","longitude:street_address:page_url:latitude"
"https://lifestance.com/location/lynnfield-ma/","Lynnfield, MA","6 Kimball Lane","Lynnfield","MA","01940-2682","US","<MISSING>","781-646-0500","<MISSING>","42.5095356","-71.0342922","https://lifestance.com/","Monday:8am-8pm; Tuesday:8am-8pm; Wednesday:8am-8pm; Thursday:8am-8pm; Friday:8am-6pm; Saturday:9am-2pm; Sunday:Closed","<MISSING>","longitude:street_address:page_url:latitude"
"https://lifestance.com/location/medford-ma/","Medford, MA","101 Main St Suite 201","Medford","MA","02155-4530","US","<MISSING>","781-646-0500","<MISSING>","42.4160483","-71.1107762","https://lifestance.com/","Monday:8am-5pm; Tuesday:8am-5pm; Wednesday:8am-5pm; Thursday:8am-5pm; Friday:8am-5pm; Saturday:Closed; Sunday:Closed","<MISSING>","longitude:street_address:page_url:latitude"
"https://lifestance.com/location/medfield-ma/","Medfield, MA","33A Main Street Building 3","Medfield","MA","02052-2099","US","<MISSING>","508-242-9666","<MISSING>","42.164817","-71.2339867","https://lifestance.com/","Monday:8am-8pm; Tuesday:8am-8pm; Wednesday:8am-8pm; Thursday:8am-8pm; Friday:8am-8pm; Saturday:8am-1pm; Sunday:Closed","<MISSING>","longitude:street_address:page_url:latitude"
"https://lifestance.com/location/medway-ma/","Medway, MA","116 Main Street","Medway","MA","02053-1800","US","<MISSING>","781-551-0999","<MISSING>","42.1506009","-71.4171809","https://lifestance.com/","Monday:8am-5pm; Tuesday:8am-5pm; Wednesday:8am-5pm; Thursday:8am-5pm; Friday:8am-5pm; Saturday:Closed; Sunday:Closed","<MISSING>","longitude:street_address:page_url:latitude"
"https://lifestance.com/location/milford-ma/","Milford, MA","117 Water Street","Milford","MA","01757-3036","US","<MISSING>","781-551-0999","<MISSING>","42.1374676","-71.5366323","https://lifestance.com/","Monday:8am-5pm; Tuesday:8am-5pm; Wednesday:8am-5pm; Thursday:8am-5pm; Friday:8am-5pm; Saturday:Closed; Sunday:Closed","<MISSING>","longitude:street_address:page_url:latitude"
"https://lifestance.com/location/milford-ma-2/","Milford, MA","25 Birch St","Milford","MA","01757-3585","US","<MISSING>","781-551-0999","<MISSING>","42.1412015","-71.4903215","https://lifestance.com/","Monday:8am-5pm; Tuesday:8am-5pm; Wednesday:8am-5pm; Thursday:8am-5pm; Friday:8am-5pm; Saturday:Closed; Sunday:Closed","<MISSING>","longitude:street_address:page_url:latitude"
"https://lifestance.com/location/milford-ma-3/","Milford, MA","229 East Main Street","Milford","MA","01757-2832","US","<MISSING>","781-551-0999","<MISSING>","42.1509483","-71.4952836","https://lifestance.com/","Monday:8am-5pm; Tuesday:8am-5pm; Wednesday:8am-5pm; Thursday:8am-5pm; Friday:8am-5pm; Saturday:Closed; Sunday:Closed","<MISSING>","longitude:street_address:page_url:latitude"
"https://lifestance.com/location/north-andover-ma/","North Andover, MA","800 Turnpike St Suite 201","North Andover","MA","01845-6156","US","<MISSING>","781-646-0500","<MISSING>","42.6607381","-71.1072514","https://lifestance.com/","Monday:8am-8pm; Tuesday:8am-8pm; Wednesday:8am-8pm; Thursday:8am-8pm; Friday:8am-6pm; Saturday:9am-2pm; Sunday:Closed","<MISSING>","longitude:street_address:page_url:latitude"
"https://lifestance.com/location/newton-ma/","Newton, MA","288 Walnut Street Suite 220","Newton","MA","02460-1994","US","<MISSING>","617-618-9263","<MISSING>","42.350947","-71.2062496","https://lifestance.com/","Monday:8am-8pm; Tuesday:8am-8pm; Wednesday:8am-8pm; Thursday:8am-8pm; Friday:8am-8pm; Saturday:8am-5pm; Sunday:Closed","<MISSING>","longitude:street_address:page_url:latitude"
"https://lifestance.com/location/norwood-ma/","Norwood, MA","89 Access Road Suite 24","Norwood","MA","02062-5233","US","<MISSING>","781-551-0999","<MISSING>","42.1854539","-71.1771132","https://lifestance.com/","Monday:8am-8pm; Tuesday:8am-8pm; Wednesday:8am-8pm; Thursday:8am-8pm; Friday:8am-6pm; Saturday:9am-2pm; Sunday:Closed","<MISSING>","longitude:street_address:page_url:latitude"
"https://lifestance.com/location/norwell-ma/","Norwell, MA","101 Accord Park Drive Suite 105","Norwell","MA","02061-1605","US","<MISSING>","781-551-0999","<MISSING>","42.1646155","-70.8874772","https://lifestance.com/","Monday:8am-8pm; Tuesday:8am-8pm; Wednesday:8am-8pm; Thursday:8am-8pm; Friday:8am-8pm; Saturday:8am-5pm; Sunday:Closed","<MISSING>","longitude:street_address:page_url:latitude"
"https://lifestance.com/location/northborough-ma/","Northborough, MA","44 Bearfoot Rd Suite 300","Northborough","MA","01532-1559","US","<MISSING>","781-551-0999","<MISSING>","42.342392","-71.6301598","https://lifestance.com/","Monday:8am-7pm; Tuesday:8am-7pm; Wednesday:8am-7pm; Thursday:8am-7pm; Friday:8am-5pm; Saturday:Closed; Sunday:Closed","<MISSING>","longitude:street_address:page_url:latitude"
"https://lifestance.com/location/norwell-ma-2/","Norwell, MA","143 Longwater Drive","Norwell","MA","02061-1683","US","<MISSING>","781-551-0999","<MISSING>","42.1567509","-70.8767405","https://lifestance.com/","Monday:8am-5pm; Tuesday:8am-5pm; Wednesday:8am-5pm; Thursday:8am-5pm; Friday:8am-5pm; Saturday:Closed; Sunday:Closed","<MISSING>","longitude:street_address:page_url:latitude"
"https://lifestance.com/location/bedford-ma-2/","Bedford, MA","74 Loomis St","Bedford","MA","01730-2248","US","<MISSING>","781-646-0500","<MISSING>","42.4863656","-71.2764238","https://lifestance.com/","Monday:8am-5pm; Tuesday:8am-5pm; Wednesday:8am-5pm; Thursday:8am-5pm; Friday:8am-5pm; Saturday:Closed; Sunday:Closed","<MISSING>","longitude:street_address:page_url:latitude"
"https://lifestance.com/location/plymouth-ma/","Plymouth, MA","4 Collins Avenue Unit 3D","Plymouth","MA","02360-4809","US","<MISSING>","781-336-5040","<MISSING>","41.9596785","-70.6935912","https://lifestance.com/","Monday:8am-8pm; Tuesday:8am-8pm; Wednesday:8am-8pm; Thursday:8am-8pm; Friday:8am-8pm; Saturday:8am-5pm; Sunday:Closed","<MISSING>","longitude:street_address:page_url:latitude"
"https://lifestance.com/location/quincy-ma/","Quincy, MA","500 Congress Street","Quincy","MA","02169-0908","US","<MISSING>","781-551-0999","<MISSING>","42.234632","-71.0162539","https://lifestance.com/","Monday:8am-5pm; Tuesday:8am-5pm; Wednesday:8am-5pm; Thursday:8am-5pm; Friday:8am-5pm; Saturday:Closed; Sunday:Closed","<MISSING>","longitude:street_address:page_url:latitude"
"https://lifestance.com/location/quincy-ma-2/","Quincy, MA","2300 Crown Colony Suite 202","Quincy","MA","02169-9126","US","<MISSING>","781-551-0999","<MISSING>","42.2353403","-71.0184362","https://lifestance.com/","Monday:8am-7pm; Tuesday:8am-7pm; Wednesday:8am-7pm; Thursday:8am-7pm; Friday:8am-7pm; Saturday:Closed; Sunday:Closed","<MISSING>","longitude:street_address:page_url:latitude"
"https://lifestance.com/location/quincy-ma-3/","Quincy, MA","1495 Hancock St 2Nd Floor","Quincy","MA","02169-5229","US","<MISSING>","781-551-0999","<MISSING>","42.2480883","-71.0019989","https://lifestance.com/","Monday:8am-5pm; Tuesday:8am-5pm; Wednesday:8am-5pm; Thursday:8am-5pm; Friday:8am-5pm; Saturday:Closed; Sunday:Closed","<MISSING>","longitude:street_address:page_url:latitude"
"https://lifestance.com/location/raynham-ma/","Raynham, MA","175 Paramount Drive Suite 204","Raynham","MA","02767-1926","US","<MISSING>","508-824-1780","<MISSING>","41.9016606","-71.0344086","https://lifestance.com/","Monday:8am-8pm; Tuesday:8am-8pm; Wednesday:8am-8pm; Thursday:8am-8pm; Friday:8am-8pm; Saturday:8am-5pm; Sunday:Closed","<MISSING>","longitude:street_address:page_url:latitude"
"https://lifestance.com/location/weymouth-ma/","Weymouth, MA","51 Performance Drive Entry 2","Weymouth","MA","02189-3101","US","<MISSING>","781-551-0999","<MISSING>","42.1946963","-70.9433464","https://lifestance.com/","Monday:8am-5pm; Tuesday:8am-5pm; Wednesday:8am-5pm; Thursday:8am-5pm; Friday:8am-5pm; Saturday:Closed; Sunday:Closed","<MISSING>","longitude:street_address:page_url:latitude"
"https://lifestance.com/location/stoneham-ma/","Stoneham, MA","92 Montvale Ave Suite 2450","Stoneham","MA","02180-3662","US","<MISSING>","781-646-0500","<MISSING>","42.4798097","-71.1117394","https://lifestance.com/","Monday:8am-8pm; Tuesday:8am-8pm; Wednesday:8am-8pm; Thursday:8am-8pm; Friday:8am-6pm; Saturday:9am-2pm; Sunday:Closed","<MISSING>","longitude:street_address:page_url:latitude"
"https://lifestance.com/location/taunton-ma/","Taunton, MA","2007 Bay Street Suite 103","Taunton","MA","02780-1086","US","<MISSING>","<MISSING>","<MISSING>","41.958459","-71.117599","https://lifestance.com/","Monday:8am-5pm; Tuesday:8am-5pm; Wednesday:8am-5pm; Thursday:8am-5pm; Friday:8am-5pm; Saturday:Closed; Sunday:Closed","<MISSING>","longitude:street_address:page_url:latitude"
"https://lifestance.com/location/wellesley-ma/","Wellesley, MA","372 Washington St Suite A","Wellesley","MA","02481-6231","US","<MISSING>","781-239-1093","<MISSING>","42.3088809","-71.2773994","https://lifestance.com/","Monday:8am-5pm; Tuesday:8am-5pm; Wednesday:8am-5pm; Thursday:8am-5pm; Friday:8am-5pm; Saturday:Closed; Sunday:Closed","<MISSING>","longitude:street_address:page_url:latitude"
"https://lifestance.com/location/weymouth-ma-2/","Weymouth, MA","169 Libbey Parkway","Weymouth","MA","02189-3101","US","<MISSING>","781-551-0999","<MISSING>","42.1917889","-70.9428378","https://lifestance.com/","Monday:8am-8pm; Tuesday:8am-8pm; Wednesday:8am-8pm; Thursday:8am-8pm; Friday:8am-6pm; Saturday:9am-2pm; Sunday:Closed","<MISSING>","longitude:street_address:page_url:latitude"
"https://lifestance.com/location/waltham-ma/","Waltham, MA","281 Winter Street Suite 340","Waltham","MA","02451-3206","US","<MISSING>","781-646-0500","<MISSING>","42.4004047","-71.2553863","https://lifestance.com/","Monday:8am-5pm; Tuesday:8am-5pm; Wednesday:8am-5pm; Thursday:8am-5pm; Friday:8am-5pm; Saturday:Closed; Sunday:Closed","<MISSING>","longitude:street_address:page_url:latitude"
"https://lifestance.com/location/woburn-ma/","Woburn, MA","12 Alfred St Suite 200","Woburn","MA","01801-1915","US","<MISSING>","781-646-0500","<MISSING>","42.5019455","-71.1561588","https://lifestance.com/","Monday:8am-8pm; Tuesday:8am-8pm; Wednesday:8am-8pm; Thursday:8am-8pm; Friday:8am-6pm; Saturday:9am-2pm; Sunday:Closed","<MISSING>","longitude:street_address:page_url:latitude"
"https://lifestance.com/location/westford-ma-2-2/","Westford, MA","133 Littleton Rd","Westford","MA","01886-3115","US","<MISSING>","781-646-0500","<MISSING>","42.5706292","-71.4174128","https://lifestance.com/","Monday:8am-5pm; Tuesday:8am-5pm; Wednesday:8am-5pm; Thursday:8am-5pm; Friday:8am-5pm; Saturday:Closed; Sunday:Closed","<MISSING>","longitude:street_address:page_url:latitude"
"https://lifestance.com/location/ashtabula-oh/","Ashtabula, OH","145 West 46Th St","Ashtabula","OH","44004-6916","US","<MISSING>","440-998-7541","<MISSING>","41.8654648","-80.7817219","https://lifestance.com/","Monday:8:30am-5pm; Tuesday:8:30am-5pm; Wednesday:8:30am-5pm; Thursday:8:30am-5pm; Friday:8:30am-5pm; Saturday:Closed; Sunday:Closed","<MISSING>","longitude:street_address:page_url:latitude"
"https://lifestance.com/location/avon-oh/","Avon, OH","1426 Center Rd","Avon","OH","44011-4063","US","<MISSING>","216-468-5000","<MISSING>","41.4686421","-82.0200652","https://lifestance.com/","Monday:8:15am-4:45pm; Tuesday:8:15am-4:45pm; Wednesday:8:15am-4:45pm; Thursday:8:15am-4:45pm; Friday:8:15am-4:45pm; Saturday:Closed; Sunday:Closed","<MISSING>","longitude:street_address:page_url:latitude"
"https://lifestance.com/location/beachwood-oh/","Beachwood, OH","25101 Chagrin Blvd Suite 100","Beachwood","OH","44122-5694","US","<MISSING>","216-468-5000","<MISSING>","41.4651924","-81.5020554","https://lifestance.com/","Monday:7:30am-5pm; Tuesday:7:30am-5pm; Wednesday:7:30am-5pm; Thursday:7:30am-5pm; Friday:7:30am-5pm; Saturday:Closed; Sunday:Closed","<MISSING>","longitude:street_address:page_url:latitude"
"https://lifestance.com/location/brecksville-oh/","Brecksville, OH","6802 West Snowville Rd Suite B","Brecksville","OH","44141-3281","US","<MISSING>","216-468-5000","<MISSING>","41.281531","-81.6341021","https://lifestance.com/","Monday:8am-5pm; Tuesday:8am-5pm; Wednesday:8am-5pm; Thursday:8am-5pm; Friday:8am-5pm; Saturday:Closed; Sunday:Closed","<MISSING>","longitude:street_address:page_url:latitude"
"https://lifestance.com/location/beachwood-oh-2/","Beachwood, OH","23625 Commerce Park Suite 100","Beachwood","OH","44122-6042","US","<MISSING>","216-468-5000","<MISSING>","41.462684","-81.5099654","https://lifestance.com/","Monday:8:30am-5pm; Tuesday:8:30am-5pm; Wednesday:8:30am-5pm; Thursday:8:30am-5pm; Friday:8:30am-5pm; Saturday:Closed; Sunday:Closed","<MISSING>","longitude:street_address:page_url:latitude"
"https://lifestance.com/location/fairlawn-oh/","Fairlawn, OH","822 Kumho Dr Suite 101","Fairlawn","OH","44333-9297","US","<MISSING>","216-468-5000","<MISSING>","41.1172592","-81.6387411","https://lifestance.com/","Monday:8am-5pm; Tuesday:8am-5pm; Wednesday:8am-5pm; Thursday:8am-5pm; Friday:8am-5pm; Saturday:Closed; Sunday:Closed","<MISSING>","longitude:street_address:page_url:latitude"
"https://lifestance.com/location/north-olmsted-oh/","North Olmsted, OH","25111 Country Club Blvd St 290","North Olmsted","OH","44070-5330","US","<MISSING>","216-468-5000","<MISSING>","41.4134283","-81.9064273","https://lifestance.com/","Monday:8am-6pm; Tuesday:8am-6pm; Wednesday:8am-6pm; Thursday:8am-6pm; Friday:8am-5pm; Saturday:Closed; Sunday:Closed","<MISSING>","longitude:street_address:page_url:latitude"
"https://lifestance.com/location/twinsburg-oh/","Twinsburg, OH","8054 Darrow Rd Bldg D Unit 6","Twinsburg","OH","44087-2387","US","<MISSING>","216-468-5000","<MISSING>","41.2851615","-81.4411175","https://lifestance.com/","Monday:8am-5pm; Tuesday:8am-5pm; Wednesday:8am-5pm; Thursday:8am-5pm; Friday:8am-5pm; Saturday:Closed; Sunday:Closed","<MISSING>","longitude:street_address:page_url:latitude"
"https://lifestance.com/location/willoughby-hills-oh/","Willoughby Hills, OH","34900 Chardon Rd Suite 200","Willoughby Hills","OH","44094-9161","US","<MISSING>","440-951-5600","<MISSING>","41.5864909","-81.4368181","https://lifestance.com/","Monday:8am-5pm; Tuesday:8am-5pm; Wednesday:8am-5pm; Thursday:8am-5pm; Friday:8am-5pm; Saturday:Closed; Sunday:Closed","<MISSING>","longitude:street_address:page_url:latitude"
"https://lifestance.com/location/willoughby-oh/","Willoughby, OH","4212 State Route 306 Suite 100","Willoughby","OH","44094-9263","US","<MISSING>","216-468-5000","<MISSING>","41.6368111","-81.3718897","https://lifestance.com/","Monday:8:30am-5pm; Tuesday:8:30am-5pm; Wednesday:8:30am-5pm; Thursday:8:30am-5pm; Friday:8:30am-5pm; Saturday:Closed; Sunday:Closed","<MISSING>","longitude:street_address:page_url:latitude"
"https://lifestance.com/location/cincinnati-oh/","Cincinnati, OH","1060 Nimitzview Dr En A Suite100","Cincinnati","OH","45230-4351","US","<MISSING>","513-826-3846","<MISSING>","39.0685158","-84.3535066","https://lifestance.com/","Monday:8am-4:30pm; Tuesday:8am-4:30pm; Wednesday:8am-4:30pm; Thursday:8am-4:30pm; Friday:8am-4:30pm; Saturday:Closed; Sunday:Closed","<MISSING>","longitude:street_address:page_url:latitude"
"https://lifestance.com/location/cincinnati-oh-2/","Cincinnati, OH","10200 Alliance Rd Suite 150","Cincinnati","OH","45242-6612","US","<MISSING>","513-826-4046","<MISSING>","39.2464073","-84.3793665","https://lifestance.com/","Monday:8am-4:30pm; Tuesday:8am-4:30pm; Wednesday:8am-4:30pm; Thursday:8am-4:30pm; Friday:8am-4:30pm; Saturday:Closed; Sunday:Closed","<MISSING>","longitude:street_address:page_url:latitude"
"https://lifestance.com/location/cincinnati-oh-3/","Cincinnati, OH","130 Wellington Pl","Cincinnati","OH","45219-1710","US","<MISSING>","513-826-3847","<MISSING>","39.1245584","-84.5093355","https://lifestance.com/","Monday:8:30am-5pm; Tuesday:8:30am-5pm; Wednesday:8:30am-5pm; Thursday:8:30am-5pm; Friday:8:30am-5pm; Saturday:Closed; Sunday:Closed","<MISSING>","longitude:street_address:page_url:latitude"
"https://lifestance.com/location/fort-thomas-ky/","Fort Thomas, KY","20 N Grand Ave Suite 8","Fort Thomas","KY","41075-1755","US","<MISSING>","859-486-2808","<MISSING>","39.0768003","-84.4622307","https://lifestance.com/","Monday:8:30am-5pm; Tuesday:8:30am-5pm; Wednesday:8:30am-5pm; Thursday:8:30am-5pm; Friday:8:30am-5pm; Saturday:Closed; Sunday:Closed","<MISSING>","longitude:street_address:page_url:latitude"
"https://lifestance.com/location/cincinnati-oh-4/","Cincinnati, OH","8040 Hosbrook Rd Suite 102","Cincinnati","OH","45236-2926","US","<MISSING>","513-975-4676","<MISSING>","39.2050517","-84.3709203","https://lifestance.com/","Monday:8am-4:30pm; Tuesday:8am-4:30pm; Wednesday:8am-4:30pm; Thursday:8am-4:30pm; Friday:8am-4:30pm; Saturday:Closed; Sunday:Closed","<MISSING>","longitude:street_address:page_url:latitude"
"https://lifestance.com/location/liberty-township-oh/","Liberty Township, OH","7185 Liberty Centre Dr Suite D","Liberty Township","OH","45069-6586","US","<MISSING>","513-712-5070","<MISSING>","39.3732645","-84.3874193","https://lifestance.com/","Monday:8am-4:30pm; Tuesday:8am-4:30pm; Wednesday:8am-4:30pm; Thursday:8am-4:30pm; Friday:8am-4:30pm; Saturday:Closed; Sunday:Closed","<MISSING>","longitude:street_address:page_url:latitude"
"https://lifestance.com/location/mason-oh/","Mason, OH","5386 Cox-Smith Rd Suite A","Mason","OH","45040-6803","US","<MISSING>","513-972-5120","<MISSING>","39.3635863","-84.2814833","https://lifestance.com/","Monday:8am-4:30pm; Tuesday:8am-4:30pm; Wednesday:8am-4:30pm; Thursday:8am-4:30pm; Friday:8am-4:30pm; Saturday:Closed; Sunday:Closed","<MISSING>","longitude:street_address:page_url:latitude"
"https://lifestance.com/location/milford-oh/","Milford, OH","1077 State Route 28 Suite 202","Milford","OH","45150-4000","US","<MISSING>","781-551-0999","<MISSING>","39.1915143","-84.2357005","https://lifestance.com/","Monday:8am-8pm; Tuesday:8am-8pm; Wednesday:8am-8pm; Thursday:8am-8pm; Friday:8am-8pm; Saturday:8am-5pm; Sunday:Closed","<MISSING>","longitude:street_address:page_url:latitude"
"https://lifestance.com/location/louisville-ky/","Louisville, KY","10331 Champion Farms Dr","Louisville","KY","40241-6129","US","<MISSING>","502-975-2960","<MISSING>","38.2963134","-85.5630578","https://lifestance.com/","Monday:8am-5pm; Tuesday:8am-5pm; Wednesday:8am-5pm; Thursday:8am-5pm; Friday:8am-5pm; Saturday:Closed; Sunday:Closed","<MISSING>","longitude:street_address:page_url:latitude"
"https://lifestance.com/location/louisville-ky-2/","Louisville, KY","100 Executive Park Suite 103","Louisville","KY","40207-4201","US","<MISSING>","502-313-6880","<MISSING>","38.2432373","-85.6236123","https://lifestance.com/","Monday:8am-5pm; Tuesday:8am-5pm; Wednesday:8am-5pm; Thursday:8am-5pm; Friday:8am-5pm; Saturday:Closed; Sunday:Closed","<MISSING>","longitude:street_address:page_url:latitude"
"https://lifestance.com/location/west-chester-oh/","West Chester, OH","8806 Cincinnati Dayton Rd","West Chester","OH","45069-3135","US","<MISSING>","513-712-5146","<MISSING>","39.332575","-84.4049076","https://lifestance.com/","Monday:8am-4:30pm; Tuesday:8am-4:30pm; Wednesday:8am-4:30pm; Thursday:8am-4:30pm; Friday:8am-4:30pm; Saturday:Closed; Sunday:Closed","<MISSING>","longitude:street_address:page_url:latitude"
"https://lifestance.com/location/fairborn-oh/","Fairborn, OH","2900 Presidential Dr Suite 100","Fairborn","OH","45324-6224","US","<MISSING>","937-912-3306","<MISSING>","39.7752933","-84.0594589","https://lifestance.com/","Monday:8am-5pm; Tuesday:8am-5pm; Wednesday:8am-5pm; Thursday:8am-5pm; Friday:8am-5pm; Saturday:Closed; Sunday:Closed","<MISSING>","longitude:street_address:page_url:latitude"
"https://lifestance.com/location/centerville-oh/","Centerville, OH","6601 Centerville Business Park Suite 310","Centerville","OH","45459-2691","US","<MISSING>","937-637-6735","<MISSING>","39.6512373","-84.1363439","https://lifestance.com/","Monday:8am-4:30pm; Tuesday:8am-4:30pm; Wednesday:8am-4:30pm; Thursday:8am-4:30pm; Friday:7:30am-4pm; Saturday:Closed; Sunday:Closed","<MISSING>","longitude:street_address:page_url:latitude"
"https://lifestance.com/location/dublin-oh/","Dublin, OH","6455 Post Road Suite B","Dublin","OH","43016-1225","US","<MISSING>","614-376-1430","<MISSING>","40.106343","-83.1649727","https://lifestance.com/","Monday:8am-6pm; Tuesday:8am-6pm; Wednesday:8am-6pm; Thursday:8am-6pm; Friday:8am-6pm; Saturday:Closed; Sunday:Closed","<MISSING>","longitude:street_address:page_url:latitude"
"https://lifestance.com/location/columbus-oh/","Columbus, OH","2 Easton Oval Suite 115","Columbus","OH","43219-6036","US","<MISSING>","614-934-6890","<MISSING>","40.0466237","-82.9061981","https://lifestance.com/","Monday:8am-5pm; Tuesday:8am-5pm; Wednesday:8am-5pm; Thursday:8am-5pm; Friday:8am-5pm; Saturday:Closed; Sunday:Closed","<MISSING>","longitude:street_address:page_url:latitude"
"https://lifestance.com/location/columbus-oh-2/","Columbus, OH","855 Grandview Ave Suite 215","Columbus","OH","43215-1102","US","<MISSING>","614-591-6862","<MISSING>","39.9750108","-83.0464245","https://lifestance.com/","Monday:8am-4:30pm; Tuesday:8am-4:30pm; Wednesday:8am-4:30pm; Thursday:8am-4:30pm; Friday:7:30am-4pm; Saturday:Closed; Sunday:Closed","<MISSING>","longitude:street_address:page_url:latitude"
"https://lifestance.com/location/orient-oh/","Orient, OH","9085 Southern St","Orient","OH","43146-9360","US","<MISSING>","380-666-5026","<MISSING>","39.8041075","-83.0317018","https://lifestance.com/","Monday:8:30am-5pm; Tuesday:8:30am-5pm; Wednesday:8:30am-5pm; Thursday:8:30am-5pm; Friday:8:30am-5pm; Saturday:8:30am-5pm; Sunday:8:30am-5pm","<MISSING>","longitude:street_address:page_url:latitude"
"https://lifestance.com/location/hilliard-oh/","Hilliard, OH","3779 Trueman Court","Hilliard","OH","43026-2496","US","<MISSING>","614-541-5030","<MISSING>","40.0374093","-83.1202806","https://lifestance.com/","Monday:9am-5:30pm; Tuesday:9am-5:30pm; Wednesday:9am-5:30pm; Thursday:9am-5:30pm; Friday:9am-5:30pm; Saturday:Closed; Sunday:Closed","<MISSING>","longitude:street_address:page_url:latitude"
"https://lifestance.com/location/reynoldsburg-oh/","Reynoldsburg, OH","150 Taylor Station Suite 300","Reynoldsburg","OH","43213-1548","US","<MISSING>","614-986-2790","<MISSING>","39.9826889","-82.841507","https://lifestance.com/","Monday:8am-6pm; Tuesday:8am-6pm; Wednesday:8am-6pm; Thursday:8am-6pm; Friday:8am-6pm; Saturday:Closed; Sunday:Closed","<MISSING>","longitude:street_address:page_url:latitude"
"https://lifestance.com/location/westerville-oh/","Westerville, OH","631 Copeland Mill Drive Suite B","Westerville","OH","43081-8905","US","<MISSING>","614-948-0862","<MISSING>","40.1121453","-82.9484138","https://lifestance.com/","Monday:8am-4:30pm; Tuesday:8am-4:30pm; Wednesday:8am-4:30pm; Thursday:8am-4:30pm; Friday:8am-4:30pm; Saturday:Closed; Sunday:Closed","<MISSING>","longitude:street_address:page_url:latitude"
"https://lifestance.com/location/evansville-in/","Evansville, IN","7300 E Indiana St Suite 103","Evansville","IN","47715-2794","US","<MISSING>","812-401-8008","<MISSING>","37.9784544","-87.4644989","https://lifestance.com/","Monday:8am-5pm; Tuesday:8am-5pm; Wednesday:8am-5pm; Thursday:8am-5pm; Friday:8am-5pm; Saturday:Closed; Sunday:Closed","<MISSING>","longitude:street_address:page_url:latitude"
"https://lifestance.com/location/fishers-in/","Fishers, IN","10967 Allisonville Rd Suite 240","Fishers","IN","46038-2634","US","<MISSING>","317-558-0630","<MISSING>","39.9455299","-86.0443886","https://lifestance.com/","Monday:8am-6pm; Tuesday:8am-6pm; Wednesday:8am-6pm; Thursday:8am-6pm; Friday:8am-6pm; Saturday:Closed; Sunday:Closed","<MISSING>","longitude:street_address:page_url:latitude"
"https://lifestance.com/location/indianapolis-in/","Indianapolis, IN","8920 Southpointe Dr Suite E1&2","Indianapolis","IN","46227-7505","US","<MISSING>","317-851-1004","<MISSING>","39.6369569","-86.1383868","https://lifestance.com/","Monday:8am-5pm; Tuesday:8am-5pm; Wednesday:8am-5pm; Thursday:8am-5pm; Friday:8am-5pm; Saturday:Closed; Sunday:Closed","<MISSING>","longitude:street_address:page_url:latitude"
"https://lifestance.com/location/zionsville-in/","Zionsville, IN","10801 N Michigan Rd Suite 200","Zionsville","IN","46077-8171","US","<MISSING>","317-732-9550","<MISSING>","39.9441775","-86.2372308","https://lifestance.com/","Monday:8:30am-6pm; Tuesday:8:30am-6pm; Wednesday:8:30am-6pm; Thursday:8:30am-6pm; Friday:8:30am-6pm; Saturday:Closed; Sunday:Closed","<MISSING>","longitude:street_address:page_url:latitude"
"https://lifestance.com/location/frankfort-ky/","Frankfort, KY","649 Chamberlin Ave","Frankfort","KY","40601-4220","US","<MISSING>","502-875-1685","<MISSING>","38.1589596","-84.9192675","https://lifestance.com/","Monday:8am-5pm; Tuesday:8am-5pm; Wednesday:8am-5pm; Thursday:8am-5pm; Friday:8am-5pm; Saturday:Closed; Sunday:Closed","<MISSING>","longitude:street_address:page_url:latitude"
"https://lifestance.com/location/georgetown-ky/","Georgetown, KY","105 Windsor Path Suite 5","Georgetown","KY","40324-9819","US","<MISSING>","606-898-6030","<MISSING>","38.185644","-84.5578881","https://lifestance.com/","Monday:8am-5pm; Tuesday:8am-5pm; Wednesday:8am-5pm; Thursday:8am-5pm; Friday:8am-5pm; Saturday:Closed; Sunday:Closed","<MISSING>","longitude:street_address:page_url:latitude"
"https://lifestance.com/location/lexington-ky/","Lexington, KY","1030 Monarch St Suite 100","Lexington","KY","40513-1820","US","<MISSING>","859-296-3141","<MISSING>","38.0217195","-84.5547533","https://lifestance.com/","Monday:8am-5pm; Tuesday:8am-5pm; Wednesday:8am-5pm; Thursday:8am-5pm; Friday:8am-5pm; Saturday:Closed; Sunday:Closed","<MISSING>","longitude:street_address:page_url:latitude"
"https://lifestance.com/location/paris-ky/","Paris, KY","5 Linville Dr Suite 105","Paris","KY","40361-2165","US","<MISSING>","859-987-3388","<MISSING>","38.2203317","-84.2381288","https://lifestance.com/","Monday:9am-5pm; Tuesday:9am-5pm; Wednesday:9am-5pm; Thursday:9am-5pm; Friday:9am-5pm; Saturday:Closed; Sunday:Closed","<MISSING>","longitude:street_address:page_url:latitude"
"https://lifestance.com/location/lexington-ky-2/","Lexington, KY","161 Prosperous Pl Suite 100","Lexington","KY","40509-1898","US","<MISSING>","859-368-0609","<MISSING>","38.003163","-84.441615","https://lifestance.com/","Monday:8am-5pm; Tuesday:8am-5pm; Wednesday:8am-5pm; Thursday:8am-5pm; Friday:8am-5pm; Saturday:Closed; Sunday:Closed","<MISSING>","longitude:street_address:page_url:latitude"
"https://lifestance.com/location/nashua-nh/","Nashua, NH","8 Auburn St","Nashua","NH","03064-2614","US","<MISSING>","603-883-0005","<MISSING>","42.7652166","-71.4694291","https://lifestance.com/","Monday:8am-5pm; Tuesday:8am-5pm; Wednesday:8am-5pm; Thursday:8am-5pm; Friday:8am-5pm; Saturday:Closed; Sunday:Closed","<MISSING>","longitude:street_address:page_url:latitude"
"https://lifestance.com/location/bedford-nh/","Bedford, NH","8 Commerce Drive Suite 305","Bedford","NH","03110-6074","US","<MISSING>","603-883-0005","<MISSING>","42.928233","-71.4639329","https://lifestance.com/","Monday:8am-5pm; Tuesday:8am-5pm; Wednesday:8am-5pm; Thursday:8am-5pm; Friday:8am-5pm; Saturday:Closed; Sunday:Closed","<MISSING>","longitude:street_address:page_url:latitude"
"https://lifestance.com/location/brunswick-me/","Brunswick, ME","16 Lincoln St Suite C","Brunswick","ME","04011-1900","US","<MISSING>","207-774-8700","<MISSING>","43.9167314","-69.9677569","https://lifestance.com/","Monday:9am-5pm; Tuesday:9am-5pm; Wednesday:9am-5pm; Thursday:9am-5pm; Friday:9am-5pm; Saturday:Closed; Sunday:Closed","<MISSING>","longitude:street_address:page_url:latitude"
"https://lifestance.com/location/portland-me/","Portland, ME","11 Baxter Blvd 2Nd Floor","Portland","ME","04101-1801","US","<MISSING>","207-828-4026","<MISSING>","43.6632147","-70.2714104","https://lifestance.com/","Monday:8am-5pm; Tuesday:8am-5pm; Wednesday:8am-5pm; Thursday:8am-5pm; Friday:8am-5pm; Saturday:Closed; Sunday:Closed","<MISSING>","longitude:street_address:page_url:latitude"
"https://lifestance.com/location/dover-nh/","Dover, NH","16 Fifth St","Dover","NH","03820-2950","US","<MISSING>","603-749-4462","<MISSING>","43.1999034","-70.8768176","https://lifestance.com/","Monday:8am-5pm; Tuesday:8am-6pm; Wednesday:8am-5pm; Thursday:8am-5pm; Friday:8am-5pm; Saturday:Closed; Sunday:Closed","<MISSING>","longitude:street_address:page_url:latitude"
"https://lifestance.com/location/exeter-nh/","Exeter, NH","24 Front St Suite 100","Exeter","NH","03833-2727","US","<MISSING>","603-778-2005","<MISSING>","42.9801529","-70.9473518","https://lifestance.com/","Monday:8am-5pm; Tuesday:8am-5pm; Wednesday:8am-5pm; Thursday:8am-6pm; Friday:8am-4pm; Saturday:Closed; Sunday:Closed","<MISSING>","longitude:street_address:page_url:latitude"
"https://lifestance.com/location/portsmouth-nh/","Portsmouth, NH","539 Islington St Suite 4","Portsmouth","NH","03801-4471","US","<MISSING>","603-427-6565","<MISSING>","43.0717478","-70.7699139","https://lifestance.com/","Monday:8am-6pm; Tuesday:8am-5pm; Wednesday:8am-5pm; Thursday:8am-4pm; Friday:8am-6pm; Saturday:Closed; Sunday:Closed","<MISSING>","longitude:street_address:page_url:latitude"
"https://lifestance.com/location/londonderry-nh/","Londonderry, NH","77 Gilcreast Rd Suite 3000","Londonderry","NH","03053-3563","US","<MISSING>","603-432-3033","<MISSING>","42.8659219","-71.3507222","https://lifestance.com/","Monday:8am-5pm; Tuesday:8am-5pm; Wednesday:8am-5pm; Thursday:8am-5pm; Friday:8am-4pm; Saturday:Closed; Sunday:Closed","<MISSING>","longitude:street_address:page_url:latitude"
"https://lifestance.com/location/manchester-nh/","Manchester, NH","148 Coolidge Ave","Manchester","NH","03102-3493","US","<MISSING>","603-627-3111","<MISSING>","42.995908","-71.4763624","https://lifestance.com/","Monday:8am-5pm; Tuesday:8am-6pm; Wednesday:8am-5pm; Thursday:8am-6pm; Friday:8am-5pm; Saturday:Closed; Sunday:Closed","<MISSING>","longitude:street_address:page_url:latitude"
"https://lifestance.com/location/merrimack-nh/","Merrimack, NH","294 Daniel Websuiter Hwy","Merrimack","NH","03054-4474","US","<MISSING>","603-883-0005","<MISSING>","42.8379816","-71.4913881","https://lifestance.com/","Monday:9am-5pm; Tuesday:9am-5pm; Wednesday:9am-5pm; Thursday:9am-5pm; Friday:9am-5pm; Saturday:Closed; Sunday:Closed","<MISSING>","longitude:street_address:page_url:latitude"
"https://lifestance.com/location/nashua-nh-2/","Nashua, NH","1 Main Street","Nashua","NH","03064-2716","US","<MISSING>","603-883-0005","<MISSING>","42.7652938","-71.4680145","https://lifestance.com/","Monday:8am-5pm; Tuesday:8am-5pm; Wednesday:8am-5pm; Thursday:8am-5pm; Friday:8am-5pm; Saturday:8am-1pm; Sunday:Closed","<MISSING>","longitude:street_address:page_url:latitude"
"https://lifestance.com/location/manchester-nh-2/","Manchester, NH","15 Nelson Street 2Nd Floor","Manchester","NH","03103-6547","US","<MISSING>","603-883-0005","<MISSING>","42.982477","-71.4342422","https://lifestance.com/","Monday:8am-5pm; Tuesday:8am-5pm; Wednesday:8am-5pm; Thursday:8am-5pm; Friday:8am-5pm; Saturday:Closed; Sunday:Closed","<MISSING>","longitude:street_address:page_url:latitude"
"https://lifestance.com/location/peterborough-nh/","Peterborough, NH","45 Main St","Peterborough","NH","03458-2433","US","<MISSING>","603-924-3331","<MISSING>","42.8778844","-71.950276","https://lifestance.com/","Monday:8am-5pm; Tuesday:8am-5pm; Wednesday:8am-5pm; Thursday:8am-5pm; Friday:8am-5pm; Saturday:Closed; Sunday:Closed","<MISSING>","longitude:street_address:page_url:latitude"
"https://lifestance.com/location/portland-me-2/","Portland, ME","11 & 53 Baxter Blvd Suite 3","Portland","ME","04101-1827","US","<MISSING>","207-774-8700","<MISSING>","43.6632147","-70.2714104","https://lifestance.com/","Monday:8am-5pm; Tuesday:8am-5pm; Wednesday:8am-5pm; Thursday:8am-5pm; Friday:8am-5pm; Saturday:Closed; Sunday:Closed","<MISSING>","longitude:street_address:page_url:latitude"
"https://lifestance.com/location/portsmouth-nh-2/","Portsmouth, NH","414 State St Suite 2","Portsmouth","NH","03801-4053","US","<MISSING>","603-431-3004","<MISSING>","43.0748547","-70.7596039","https://lifestance.com/","Monday:9am-5pm; Tuesday:9am-5pm; Wednesday:9am-5pm; Thursday:9am-5pm; Friday:9am-5pm; Saturday:Closed; Sunday:Closed","<MISSING>","longitude:street_address:page_url:latitude"
"https://lifestance.com/location/portland-me-3/","Portland, ME","491 Stevens Ave","Portland","ME","04103-2636","US","<MISSING>","207-828-4026","<MISSING>","43.675338","-70.294711","https://lifestance.com/","Monday:9am-5pm; Tuesday:9am-5pm; Wednesday:9am-5pm; Thursday:9am-5pm; Friday:9am-5pm; Saturday:Closed; Sunday:Closed","<MISSING>","longitude:street_address:page_url:latitude"
"https://lifestance.com/location/salem-nh/","Salem, NH","25 Pelham Road Suite 103","Salem","NH","03079-4851","US","<MISSING>","603-883-0005","<MISSING>","42.7758648","-71.2475814","https://lifestance.com/","Monday:8am-5pm; Tuesday:8am-5pm; Wednesday:8am-5pm; Thursday:8am-5pm; Friday:8am-5pm; Saturday:Closed; Sunday:Closed","<MISSING>","longitude:street_address:page_url:latitude"
"https://lifestance.com/location/nashua-nh-3/","Nashua, NH","15 Trafalgar Sq Suite 202","Nashua","NH","03063-1968","US","<MISSING>","603-883-0005","<MISSING>","42.7858089","-71.504256","https://lifestance.com/","Monday:8am-5pm; Tuesday:8am-5pm; Wednesday:8am-5pm; Thursday:8am-5pm; Friday:8am-5pm; Saturday:Closed; Sunday:Closed","<MISSING>","longitude:street_address:page_url:latitude"
"https://lifestance.com/location/chesterfield-mo/","Chesterfield, MO","16020 Swingley Ridge Suite 300","Chesterfield","MO","63017-2052","US","<MISSING>","636-939-2550","<MISSING>","38.6533848","-90.5533483","https://lifestance.com/","Monday:8am-5pm; Tuesday:8am-5pm; Wednesday:8am-5pm; Thursday:8am-5pm; Friday:8am-5pm; Saturday:Closed; Sunday:Closed","<MISSING>","longitude:street_address:page_url:latitude"
"https://lifestance.com/location/saint-louis-mo/","Saint Louis, MO","816 S Kirkwood Rd Suite 105","Saint Louis","MO","63122-6066","US","<MISSING>","636-939-2550","<MISSING>","38.5700796","-90.4062748","https://lifestance.com/","Monday:9am-5pm; Tuesday:9am-5pm; Wednesday:9am-5pm; Thursday:9am-5pm; Friday:9am-5pm; Saturday:Closed; Sunday:Closed","<MISSING>","longitude:street_address:page_url:latitude"
"https://lifestance.com/location/orlando-fl/","Orlando, FL","4776 New Broad Street Suite 201","Orlando","FL","32814-6423","US","<MISSING>","407-871-9490","<MISSING>","28.5659099","-81.3281231","https://lifestance.com/","Monday:8am-5pm; Tuesday:8am-5pm; Wednesday:8am-5pm; Thursday:8am-5pm; Friday:8am-5pm; Saturday:Closed; Sunday:Closed","<MISSING>","longitude:street_address:page_url:latitude"
"https://lifestance.com/location/brandon-fl/","Brandon, FL","615 Oakfield Dr","Brandon","FL","33511-5714","US","<MISSING>","813-565-3322","<MISSING>","27.9337866","-82.2926366","https://lifestance.com/","Monday:8am-5pm; Tuesday:8am-5pm; Wednesday:8am-5pm; Thursday:8am-5pm; Friday:8am-5pm; Saturday:Closed; Sunday:Closed","<MISSING>","longitude:street_address:page_url:latitude"
"https://lifestance.com/location/celebration-fl/","Celebration, FL","1530 Celebration Blvd Suite 405","Celebration","FL","34747-5165","US","<MISSING>","321-559-7015","<MISSING>","28.3097882","-81.5645272","https://lifestance.com/","Monday:8am-5pm; Tuesday:8am-5pm; Wednesday:8am-5pm; Thursday:8am-5pm; Friday:8am-5pm; Saturday:Closed; Sunday:Closed","<MISSING>","longitude:street_address:page_url:latitude"
"https://lifestance.com/location/lake-buena-vista-fl/","Lake Buena Vista, FL","960 Backstage Lane","Lake Buena Vista","FL","32830-8472","US","<MISSING>","321-559-7015","<MISSING>","28.3706917","-81.5420243","https://lifestance.com/","Monday:8am-5pm; Tuesday:8am-5pm; Wednesday:8am-5pm; Thursday:8am-5pm; Friday:8am-5pm; Saturday:Closed; Sunday:Closed","<MISSING>","longitude:street_address:page_url:latitude"
"https://lifestance.com/location/miami-fl/","Miami, FL","2500 Nw 107Th Avenue Suite 102","Miami","FL","33122-1003","US","<MISSING>","786-605-9400","<MISSING>","25.7975936","-80.3696493","https://lifestance.com/","Monday:8am-6pm; Tuesday:8am-6pm; Wednesday:8am-6pm; Thursday:8am-6pm; Friday:8am-6pm; Saturday:Closed; Sunday:Closed","<MISSING>","longitude:street_address:page_url:latitude"
"https://lifestance.com/location/orlando-fl-2/","Orlando, FL","10967 Lake Underhill Rd Suite 113","Orlando","FL","32825-4434","US","<MISSING>","407-537-9451","<MISSING>","28.5432839","-81.2255646","https://lifestance.com/","Monday:8am-5pm; Tuesday:8am-5pm; Wednesday:8am-5pm; Thursday:8am-5pm; Friday:8am-5pm; Saturday:Closed; Sunday:Closed","<MISSING>","longitude:street_address:page_url:latitude"
"https://lifestance.com/location/fort-lauderdale-fl/","Fort Lauderdale, FL","2400 E Commercial Boulevard Suite 101","Fort Lauderdale","FL","33308-4022","US","<MISSING>","754-243-5650","<MISSING>","26.1889093","-80.1145298","https://lifestance.com/","Monday:8am-5pm; Tuesday:8am-5pm; Wednesday:8am-5pm; Thursday:8am-5pm; Friday:8am-5pm; Saturday:Closed; Sunday:Closed","<MISSING>","longitude:street_address:page_url:latitude"
"https://lifestance.com/location/fort-myers-fl/","Fort Myers, FL","8570 Granite Ct Suite 101","Fort Myers","FL","33908-4102","US","<MISSING>","239-310-4646","<MISSING>","26.5137466","-81.8966581","https://lifestance.com/","Monday:8am-6pm; Tuesday:8am-6pm; Wednesday:8am-6pm; Thursday:8am-6pm; Friday:8am-4pm; Saturday:Closed; Sunday:Closed","<MISSING>","longitude:street_address:page_url:latitude"
"https://lifestance.com/location/hollywood-fl/","Hollywood, FL","4000 Hollywood Blvd Suite 715-S","Hollywood","FL","33021-6755","US","<MISSING>","754-209-1880","<MISSING>","26.0105815","-80.1835833","https://lifestance.com/","Monday:8am-5pm; Tuesday:8am-5pm; Wednesday:8am-5pm; Thursday:8am-5pm; Friday:8am-5pm; Saturday:Closed; Sunday:Closed","<MISSING>","longitude:street_address:page_url:latitude"
"https://lifestance.com/location/lake-buena-vista-fl-2/","Lake Buena Vista, FL","950 Backstage Lane Suite 202","Lake Buena Vista","FL","32830-8472","US","<MISSING>","321-559-7015","<MISSING>","28.3708873","-81.5419674","https://lifestance.com/","Monday:8am-5pm; Tuesday:8am-5pm; Wednesday:8am-5pm; Thursday:8am-5pm; Friday:8am-5pm; Saturday:Closed; Sunday:Closed","<MISSING>","longitude:street_address:page_url:latitude"
"https://lifestance.com/location/lakeland-fl/","Lakeland, FL","930 Alicia Rd","Lakeland","FL","33801-2104","US","<MISSING>","863-680-1950","<MISSING>","28.0530451","-81.9379237","https://lifestance.com/","Monday:8:30am-5:30pm; Tuesday:8:30am-5:30pm; Wednesday:8:30am-5:30pm; Thursday:8:30am-5:30pm; Friday:8am-4pm; Saturday:9am-1pm; Sunday:Closed","<MISSING>","longitude:street_address:page_url:latitude"
"https://lifestance.com/location/lake-mary-fl/","Lake Mary, FL","743 Sterling Center Place","Lake Mary","FL","32746-4856","US","<MISSING>","407-537-9453","<MISSING>","28.777107","-81.349457","https://lifestance.com/","Monday:8am-5pm; Tuesday:8am-5pm; Wednesday:8am-5pm; Thursday:8am-5pm; Friday:8am-5pm; Saturday:Closed; Sunday:Closed","<MISSING>","longitude:street_address:page_url:latitude"
"https://lifestance.com/location/orlando-fl-4-2/","Orlando, FL","6718 Lake Nona Blvd","Orlando","FL","32827-7729","US","<MISSING>","407-476-1222","<MISSING>","28.3692942","-81.2861713","https://lifestance.com/","Monday:8am-5pm; Tuesday:8am-5pm; Wednesday:8am-5pm; Thursday:8am-5pm; Friday:8am-5pm; Saturday:Closed; Sunday:Closed","<MISSING>","longitude:street_address:page_url:latitude"
"https://lifestance.com/location/maitland-fl/","Maitland, FL","260 Lookout Place Suite 101","Maitland","FL","32751-4485","US","<MISSING>","321-559-7015","<MISSING>","28.6373629","-81.3645033","https://lifestance.com/","Monday:8am-5pm; Tuesday:8am-5pm; Wednesday:8am-5pm; Thursday:8am-5pm; Friday:8am-5pm; Saturday:Closed; Sunday:Closed","<MISSING>","longitude:street_address:page_url:latitude"
"https://lifestance.com/location/tampa-fl/","Tampa, FL","14499 N Dale Mabry Highway 130-S","Tampa","FL","33618-2074","US","<MISSING>","813-530-1414","<MISSING>","28.0781168","-82.5050106","https://lifestance.com/","Monday:8am-5pm; Tuesday:8am-5pm; Wednesday:8am-5pm; Thursday:8am-5pm; Friday:8am-5pm; Saturday:Closed; Sunday:Closed","<MISSING>","longitude:street_address:page_url:latitude"
"https://lifestance.com/location/new-port-richey-fl/","New Port Richey, FL","9332 State Road 54 Suite 350","New Port Richey","FL","34655-1810","US","<MISSING>","727-999-3311","<MISSING>","28.2038776","-82.6596617","https://lifestance.com/","Monday:8am-5pm; Tuesday:8am-5pm; Wednesday:8am-5pm; Thursday:8am-5pm; Friday:8am-5pm; Saturday:Closed; Sunday:Closed","<MISSING>","longitude:street_address:page_url:latitude"
"https://lifestance.com/location/philadelphia-pa/","Philadelphia, PA","1500 Walnut Street Suite 601","Philadelphia","PA","19103-3504","US","<MISSING>","610-892-3800","<MISSING>","39.9489949","-75.1663033","https://lifestance.com/","Monday:8am-9pm; Tuesday:8am-9pm; Wednesday:8am-9pm; Thursday:8am-9pm; Friday:8am-9pm; Saturday:Closed; Sunday:Closed","<MISSING>","longitude:street_address:page_url:latitude"
"https://lifestance.com/location/glen-mills-pa/","Glen Mills, PA","600 Evergreen Drive Suite 110","Glen Mills","PA","19342-1053","US","<MISSING>","610-892-3800","<MISSING>","39.8884689","-75.5341297","https://lifestance.com/","Monday:8am-9pm; Tuesday:8am-9pm; Wednesday:8am-9pm; Thursday:8am-9pm; Friday:8am-9pm; Saturday:8am-5pm; Sunday:8am-5pm","<MISSING>","longitude:street_address:page_url:latitude"
"https://lifestance.com/location/west-chester-pa/","West Chester, PA","520 Maple Avenue Suite 4","West Chester","PA","19380-4434","US","<MISSING>","610-892-3800","<MISSING>","39.9606643","-75.6054882","https://lifestance.com/","Monday:8am-5pm; Tuesday:8am-5pm; Wednesday:8am-5pm; Thursday:8am-5pm; Friday:8am-5pm; Saturday:Closed; Sunday:Closed","<MISSING>","longitude:street_address:page_url:latitude"
"https://lifestance.com/location/west-chester-pa-2/","West Chester, PA","1240 Wrights Lane","West Chester","PA","19380-4252","US","<MISSING>","610-892-3800","<MISSING>","39.9871134","-75.5744741","https://lifestance.com/","Monday:8am-5pm; Tuesday:8am-5pm; Wednesday:8am-5pm; Thursday:8am-5pm; Friday:8am-5pm; Saturday:Closed; Sunday:Closed","<MISSING>","longitude:street_address:page_url:latitude"
"https://lifestance.com/location/havertown-pa/","Havertown, PA","2010 West Chesuiter Pike Suite 314","Havertown","PA","19083-2737","US","<MISSING>","610-892-3800","<MISSING>","39.9760024","-75.3336199","https://lifestance.com/","Monday:8am-9pm; Tuesday:8am-9pm; Wednesday:8am-9pm; Thursday:8am-9pm; Friday:8am-9pm; Saturday:9am-5pm; Sunday:Closed","<MISSING>","longitude:street_address:page_url:latitude"
"https://lifestance.com/location/media-pa/","Media, PA","1055 E Baltimore Pike St 303","Media","PA","19063-5173","US","<MISSING>","610-892-3800","<MISSING>","39.9161428","-75.4180621","https://lifestance.com/","Monday:8am-9pm; Tuesday:8am-9pm; Wednesday:8am-9pm; Thursday:8am-9pm; Friday:8am-9pm; Saturday:9am-5pm; Sunday:Closed","<MISSING>","longitude:street_address:page_url:latitude"
"https://lifestance.com/location/philadelphia-pa-2/","Philadelphia, PA","805 Locust St","Philadelphia","PA","19107-5507","US","<MISSING>","610-892-3800","<MISSING>","39.9472489","-75.1553088","https://lifestance.com/","Monday:8am-5pm; Tuesday:8am-5pm; Wednesday:8am-5pm; Thursday:8am-5pm; Friday:8am-5pm; Saturday:Closed; Sunday:Closed","<MISSING>","longitude:street_address:page_url:latitude"
"https://lifestance.com/location/philadelphia-pa-3/","Philadelphia, PA","400 Market Street Suite 720","Philadelphia","PA","19106-2545","US","<MISSING>","610-892-3800","<MISSING>","39.9501307","-75.147751","https://lifestance.com/","Monday:8am-9pm; Tuesday:8am-9pm; Wednesday:8am-9pm; Thursday:8am-9pm; Friday:8am-9pm; Saturday:9am-5pm; Sunday:Closed","<MISSING>","longitude:street_address:page_url:latitude"
"https://lifestance.com/location/plymouth-meeting-pa/","Plymouth Meeting, PA","140 W Germantown Pike Suite 160","Plymouth Meeting","PA","19462-1421","US","<MISSING>","610-892-3800","<MISSING>","40.1050007","-75.2806719","https://lifestance.com/","Monday:8am-9pm; Tuesday:8am-9pm; Wednesday:8am-9pm; Thursday:8am-9pm; Friday:8am-9pm; Saturday:9am-5pm; Sunday:Closed","<MISSING>","longitude:street_address:page_url:latitude"
"https://lifestance.com/location/philadelphia-pa-4/","Philadelphia, PA","3535 Market Street Suite 1230","Philadelphia","PA","19104-3309","US","<MISSING>","610-892-3800","<MISSING>","39.9565128","-75.1937293","https://lifestance.com/","Monday:8am-9pm; Tuesday:8am-9pm; Wednesday:8am-9pm; Thursday:8am-9pm; Friday:8am-9pm; Saturday:9am-5pm; Sunday:Closed","<MISSING>","longitude:street_address:page_url:latitude"
"https://lifestance.com/location/philadelphia-pa-5/","Philadelphia, PA","3700 Market Street Suite 301","Philadelphia","PA","19104-3143","US","<MISSING>","610-892-3800","<MISSING>","39.9560787","-75.1965788","https://lifestance.com/","Monday:8am-9pm; Tuesday:8am-9pm; Wednesday:8am-9pm; Thursday:8am-9pm; Friday:8am-9pm; Saturday:9am-5pm; Sunday:Closed","<MISSING>","longitude:street_address:page_url:latitude"
"https://lifestance.com/location/west-chester-pa-3/","West Chester, PA","780 E Market Street Suite 230","West Chester","PA","19382-4882","US","<MISSING>","610-892-3800","<MISSING>","39.9644443","-75.5915728","https://lifestance.com/","Monday:8am-9pm; Tuesday:8am-9pm; Wednesday:8am-9pm; Thursday:8am-9pm; Friday:8am-9pm; Saturday:Closed; Sunday:Closed","<MISSING>","longitude:street_address:page_url:latitude"
"https://lifestance.com/location/brooklyn-ny/","Brooklyn, NY","83 3Rd Avenue","<MISSING>","NY","11217-2315","US","<MISSING>","631-323-6872","<MISSING>","40.6836404","-73.9814936","https://lifestance.com/","Monday:8am-9pm; Tuesday:9am-8pm; Wednesday:9am-8pm; Thursday:9am-8pm; Friday:9am-8pm; Saturday:Closed; Sunday:Closed","<MISSING>","longitude:street_address:page_url:latitude"
"https://lifestance.com/location/bronx-ny/","Bronx, NY","2900 Exterior St Suite 203","<MISSING>","NY","10463-7103","US","<MISSING>","347-509-9206","<MISSING>","40.8764368","-73.9057361","https://lifestance.com/","Monday:8am-9pm; Tuesday:8am-9pm; Wednesday:8am-9pm; Thursday:8am-9pm; Friday:8am-9pm; Saturday:9am-4pm; Sunday:Closed","<MISSING>","longitude:street_address:page_url:latitude"
"https://lifestance.com/location/carmel-ny/","Carmel, NY","667 Stoneleigh Ave Suite 202","Carmel","NY","10512-2455","US","<MISSING>","845-279-5908","<MISSING>","41.3817995","-73.6656523","https://lifestance.com/","Monday:9am-8pm; Tuesday:9am-8pm; Wednesday:9am-8pm; Thursday:9am-8pm; Friday:9am-8pm; Saturday:Closed; Sunday:Closed","<MISSING>","longitude:street_address:page_url:latitude"
"https://lifestance.com/location/new-york-ny/","New York, NY","110 E 60Th St","New York","NY","10022-1694","US","<MISSING>","631-323-6546","<MISSING>","40.7630697","-73.9688606","https://lifestance.com/","Monday:9am-8pm; Tuesday:9am-8pm; Wednesday:9am-8pm; Thursday:9am-8pm; Friday:9am-8pm; Saturday:Closed; Sunday:Closed","<MISSING>","longitude:street_address:page_url:latitude"
"https://lifestance.com/location/salt-point-ny/","Salt Point, NY","#10 Route 44 Suite F","Salt Point","NY","12578-8041","US","<MISSING>","845-768-3178","<MISSING>","41.7821172","-73.7559962","https://lifestance.com/","Monday:9am-8pm; Tuesday:9am-8pm; Wednesday:9am-8pm; Thursday:9am-8pm; Friday:9am-8pm; Saturday:Closed; Sunday:Closed","<MISSING>","longitude:street_address:page_url:latitude"
"https://lifestance.com/location/new-rochelle-ny/","New Rochelle, NY","1 Radisson Plaza 9Th Floor","New Rochelle","NY","10801-5766","US","<MISSING>","914-369-1934","<MISSING>","40.9139668","-73.7778007","https://lifestance.com/","Monday:9am-8pm; Tuesday:9am-8pm; Wednesday:9am-8pm; Thursday:9am-8pm; Friday:9am-8pm; Saturday:9am-5pm; Sunday:Closed","<MISSING>","longitude:street_address:page_url:latitude"
"https://lifestance.com/location/port-chester-ny/","Port Chester, NY","10 Pearl Street 2Nd Floor","Port Chester","NY","10573-4611","US","<MISSING>","914-265-2762","<MISSING>","41.0010974","-73.6665436","https://lifestance.com/","Monday:9am-8pm; Tuesday:9am-8pm; Wednesday:9am-8pm; Thursday:9am-8pm; Friday:9am-8pm; Saturday:Closed; Sunday:Closed","<MISSING>","longitude:street_address:page_url:latitude"
"https://lifestance.com/location/putnam-valley-ny/","Putnam Valley, NY","10 Morrissey Drive","Putnam Valley","NY","10579-3019","US","<MISSING>","845-284-1570","<MISSING>","41.3398621","-73.8760186","https://lifestance.com/","Monday:9am-8pm; Tuesday:9am-8pm; Wednesday:9am-8pm; Thursday:9am-8pm; Friday:9am-8pm; Saturday:Closed; Sunday:Closed","<MISSING>","longitude:street_address:page_url:latitude"
"https://lifestance.com/location/tarrytown-ny/","Tarrytown, NY","560 White Plains Road Suite 215","Tarrytown","NY","10591-5113","US","<MISSING>","914-359-5841","<MISSING>","41.0608758","-73.8394907","https://lifestance.com/","Monday:9am-8pm; Tuesday:9am-8pm; Wednesday:9am-8pm; Thursday:9am-8pm; Friday:9am-8pm; Saturday:9am-5pm; Sunday:Closed","<MISSING>","longitude:street_address:page_url:latitude"
"https://lifestance.com/location/new-york-ny-2/","New York, NY","122 W 97Th Street Suite 130 &140","New York","NY","10025-6330","US","<MISSING>","631-323-6580","<MISSING>","40.7939322","-73.9682349","https://lifestance.com/","Monday:9am-8pm; Tuesday:9am-8pm; Wednesday:9am-8pm; Thursday:9am-8pm; Friday:9am-8pm; Saturday:Closed; Sunday:Closed","<MISSING>","longitude:street_address:page_url:latitude"
"https://lifestance.com/location/yonkers-ny/","Yonkers, NY","1 Executive Blvd Suite 178","Yonkers","NY","10701-1123","US","<MISSING>","914-595-1482","<MISSING>","40.973746","-73.8811407","https://lifestance.com/","Monday:9am-8pm; Tuesday:9am-8pm; Wednesday:9am-8pm; Thursday:9am-8pm; Friday:9am-8pm; Saturday:Closed; Sunday:Closed","<MISSING>","longitude:street_address:page_url:latitude"
"https://lifestance.com/location/yorktown-heights-ny/","Yorktown Heights, NY","1940 Commerce Street Suite 309","Yorktown Heights","NY","10598-4448","US","<MISSING>","914-245-0437","<MISSING>","41.2751664","-73.7806502","https://lifestance.com/","Monday:9am-8pm; Tuesday:9am-8pm; Wednesday:9am-8pm; Thursday:9am-8pm; Friday:9am-8pm; Saturday:Closed; Sunday:Closed","<MISSING>","longitude:street_address:page_url:latitude"
"https://lifestance.com/location/savannah-ga/","Savannah, GA","322 Suitephenson Ave Suite B","Savannah","GA","31405-5998","US","<MISSING>","912-352-2992","<MISSING>","32.0129045","-81.1075938","https://lifestance.com/","Monday:7:30am-5pm; Tuesday:7:30am-5pm; Wednesday:7:30am-5pm; Thursday:7:30am-5pm; Friday:7:30am-4pm; Saturday:Closed; Sunday:Closed","<MISSING>","longitude:street_address:page_url:latitude"
"https://lifestance.com/location/savannah-ga-2/","Savannah, GA","4849 Paulsen St Suite 102","Savannah","GA","31405-4425","US","<MISSING>","912-600-8800","<MISSING>","32.0313903","-81.0962743","https://lifestance.com/","Monday:8am-5pm; Tuesday:8am-5pm; Wednesday:8am-5pm; Thursday:8am-5pm; Friday:8am-5pm; Saturday:Closed; Sunday:Closed","<MISSING>","longitude:street_address:page_url:latitude"
"https://lifestance.com/location/pooler-ga/","Pooler, GA","6 Holmes Ct","Pooler","GA","31322-4809","US","<MISSING>","912-254-4401","<MISSING>","32.0794499","-81.286594","https://lifestance.com/","Monday:8am-5pm; Tuesday:8am-5pm; Wednesday:8am-5pm; Thursday:8am-5pm; Friday:8am-4pm; Saturday:Closed; Sunday:Closed","<MISSING>","longitude:street_address:page_url:latitude"
"https://lifestance.com/location/savannah-ga-3/","Savannah, GA","635 Stephenson Ave","Savannah","GA","31405-5970","US","<MISSING>","912-352-2921","<MISSING>","32.0091768","-81.1015986","https://lifestance.com/","Monday:8am-5pm; Tuesday:8am-5pm; Wednesday:8am-5pm; Thursday:8am-5pm; Friday:8am-5pm; Saturday:Closed; Sunday:Closed","<MISSING>","longitude:street_address:page_url:latitude"
"https://lifestance.com/location/glendale-ca/","Glendale, CA","1509 Wilson Terrace","Glendale","CA","91206-4007","US","<MISSING>","818-240-0340","<MISSING>","34.1502139","-118.2304591","https://lifestance.com/","Monday:8am-5pm; Tuesday:8am-5pm; Wednesday:8am-5pm; Thursday:8am-5pm; Friday:8am-5pm; Saturday:Closed; Sunday:Closed","<MISSING>","longitude:street_address:page_url:latitude"
"https://lifestance.com/location/san-diego-ca/","San Diego, CA","6386 Alvarado Court Suite 210","San Diego","CA","92120-4907","US","<MISSING>","858-279-1223","<MISSING>","32.776206","-117.0605381","https://lifestance.com/","Monday:8:30am-8pm; Tuesday:8:30am-8pm; Wednesday:8:30am-8pm; Thursday:8:30am-8pm; Friday:830am-6pm; Saturday:8am-4pm; Sunday:Closed","<MISSING>","longitude:street_address:page_url:latitude"
"https://lifestance.com/location/san-diego-ca-2/","San Diego, CA","11515 El Camino Real Suite 100","San Diego","CA","92130-3034","US","<MISSING>","858-279-1223","<MISSING>","33.9839492","-118.0547976","https://lifestance.com/","Monday:830am-8pm; Tuesday:830am-8pm; Wednesday:830am-8pm; Thursday:830am-8pm; Friday:830am-6pm; Saturday:8am-4pm; Sunday:Closed","<MISSING>","longitude:street_address:page_url:latitude"
"https://lifestance.com/location/san-diego-ca-3/","San Diego, CA","12264 El Camino Real Suite 203","San Diego","CA","92130-3061","US","<MISSING>","858-279-1223","<MISSING>","32.9474803","-117.2395484","https://lifestance.com/","Monday:830am-8pm; Tuesday:8:30am-8pm; Wednesday:8:30am-8pm; Thursday:8:30am-8pm; Friday:8:30am-6pm; Saturday:8am-4pm; Sunday:Closed","<MISSING>","longitude:street_address:page_url:latitude"
"https://lifestance.com/location/del-mar-ca/","Del Mar, CA","1104 Camino Del Mar Suite 10","Del Mar","CA","92014-2644","US","<MISSING>","858-279-1223","<MISSING>","32.9555165","-117.2642418","https://lifestance.com/","Monday:8am-5pm; Tuesday:8am-5pm; Wednesday:8am-5pm; Thursday:8am-5pm; Friday:8am-5pm; Saturday:Closed; Sunday:Closed","<MISSING>","longitude:street_address:page_url:latitude"
"https://lifestance.com/location/chula-vista-ca/","Chula Vista, CA","2300 Boswell Rd Suite 275","Chula Vista","CA","91914-3557","US","<MISSING>","858-279-1223","<MISSING>","32.6547152","-116.9660176","https://lifestance.com/","Monday:8:30am-8pm; Tuesday:830am-8pm; Wednesday:830am-8pm; Thursday:830am-8pm; Friday:830am-530pm; Saturday:8am-4pm; Sunday:Closed","<MISSING>","longitude:street_address:page_url:latitude"
"https://lifestance.com/location/chula-vista-ca-2/","Chula Vista, CA","2452 Fenton Street Suite 202","Chula Vista","CA","91914-4551","US","<MISSING>","858-279-1223","<MISSING>","32.6508938","-116.9562325","https://lifestance.com/","Monday:830am-8pm; Tuesday:8:30am-8pm; Wednesday:8:30am-8pm; Thursday:8:30am-8pm; Friday:8:30am-6pm; Saturday:8a-4p; Sunday:Closed","<MISSING>","longitude:street_address:page_url:latitude"
"https://lifestance.com/location/encinitas-ca/","Encinitas, CA","351 Santa Fe Drive Suite 200","Encinitas","CA","92024-5137","US","<MISSING>","858-279-1223","<MISSING>","33.0355149","-117.2846572","https://lifestance.com/","Monday:830am-8pm; Tuesday:830am-8pm; Wednesday:830am-8pm; Thursday:830am-8pm; Friday:830am-6pm; Saturday:8am-4pm; Sunday:Closed","<MISSING>","longitude:street_address:page_url:latitude"
"https://lifestance.com/location/glendale-ca-2/","Glendale, CA","1560 E Chevy Chase Drive Suite 130","Glendale","CA","91206-4140","US","<MISSING>","818-240-0340","<MISSING>","34.1527305","-118.2301718","https://lifestance.com/","Monday:9am-5pm; Tuesday:9am-5pm; Wednesday:9am-5pm; Thursday:9am-5pm; Friday:9am-5pm; Saturday:8:30am-2pm; Sunday:Closed","<MISSING>","longitude:street_address:page_url:latitude"
"https://lifestance.com/location/glendale-ca-3/","Glendale, CA","1577 E Chevy Chase Drive Suite 120","Glendale","CA","91206-4008","US","<MISSING>","818-240-0340","<MISSING>","34.1533185","-118.2301164","https://lifestance.com/","Monday:8am-5pm; Tuesday:8am-5pm; Wednesday:8am-5pm; Thursday:8am-5pm; Friday:8am-5pm; Saturday:Closed; Sunday:Closed","<MISSING>","longitude:street_address:page_url:latitude"
"https://lifestance.com/location/san-diego-ca-4/","San Diego, CA","4540 Kearny Villa Rd Suite 103","San Diego","CA","92123-1578","US","<MISSING>","858-279-1223","<MISSING>","32.8225954","-117.1448936","https://lifestance.com/","Monday:8:30am-8pm; Tuesday:8:30am-8pm; Wednesday:8:30am-8pm; Thursday:8:30am-8pm; Friday:830am-6pm; Saturday:8am-4pm; Sunday:Closed","<MISSING>","longitude:street_address:page_url:latitude"
"https://lifestance.com/location/san-diego-ca-5/","San Diego, CA","4550 Kearny Villa Rd Suite 116","San Diego","CA","92123-1578","US","<MISSING>","858-279-1223","<MISSING>","32.8226035","-117.1449313","https://lifestance.com/","Monday:830am-8pm; Tuesday:8:30am-8pm; Wednesday:8:30am-8pm; Thursday:8:30am-8pm; Friday:8:30am-5:30pm; Saturday:8am-4pm; Sunday:Closed","<MISSING>","longitude:street_address:page_url:latitude"
"https://lifestance.com/location/oceanside-ca/","Oceanside, CA","3609 Ocean Ranch Blvd","Oceanside","CA","92056-2698","US","<MISSING>","858-279-1223","<MISSING>","33.210533","-117.310588","https://lifestance.com/","Monday:830am-8pm; Tuesday:830am-8pm; Wednesday:830am-8pm; Thursday:830am-8pm; Friday:8:30am-6pm; Saturday:8am-4pm; Sunday:Closed","<MISSING>","longitude:street_address:page_url:latitude"
"https://lifestance.com/location/poway-ca/","Poway, CA","15611 Pomerado Rd Suite 535","Poway","CA","92064-2437","US","<MISSING>","858-279-1223","<MISSING>","32.996412","-117.0545223","https://lifestance.com/","Monday:830am-8pm; Tuesday:8:30am-8pm; Wednesday:8:30am-8pm; Thursday:8:30am-8pm; Friday:8:30am-6pm; Saturday:8am-4pm; Sunday:Closed","<MISSING>","longitude:street_address:page_url:latitude"
"https://lifestance.com/location/san-marcos-ca/","San Marcos, CA","300 Rancheros Dr Suite 130","San Marcos","CA","92069-2968","US","<MISSING>","858-279-1223","<MISSING>","33.1388307","-117.1585813","https://lifestance.com/","Monday:830am-8pm; Tuesday:8:30am-8pm; Wednesday:8:30am-8pm; Thursday:8:30am-8pm; Friday:8:30am-6pm; Saturday:8am-4pm; Sunday:Closed","<MISSING>","longitude:street_address:page_url:latitude"
"https://lifestance.com/location/temecula-ca/","Temecula, CA","31573 Rancho Pueblo Rd Suite 200","Temecula","CA","92592-4835","US","<MISSING>","858-279-1223","<MISSING>","33.4788046","-117.1089643","https://lifestance.com/","Monday:830am-8pm; Tuesday:830am-8pm; Wednesday:830am-8pm; Thursday:830am-8pm; Friday:8:30am-6pm; Saturday:8am-4pm; Sunday:Closed","<MISSING>","longitude:street_address:page_url:latitude"
"https://lifestance.com/location/mc-lean-va/","Mc Lean, VA","1360 Beverly Rd Suite 200","Lean","VA","22101-3647","US","<MISSING>","703-831-8300","<MISSING>","38.9296441","-77.1803821","https://lifestance.com/","Monday:8am-5:30pm; Tuesday:8am-5:30pm; Wednesday:8am-5:30pm; Thursday:8am-5:30pm; Friday:8am-5:30pm; Saturday:Closed; Sunday:Closed","<MISSING>","longitude:street_address:page_url:latitude"
"https://lifestance.com/location/goleta-ca/","Goleta, CA","5901 Encina Rd Suite A","Goleta","CA","93117-2270","US","<MISSING>","805-681-0035","<MISSING>","34.4426989","-119.8285667","https://lifestance.com/","Monday:8am-5pm; Tuesday:8am-5pm; Wednesday:8am-5pm; Thursday:8am-5pm; Friday:8am-5pm; Saturday:Closed; Sunday:Closed","<MISSING>","longitude:street_address:page_url:latitude"
"https://lifestance.com/location/santa-barbara-ca/","Santa Barbara, CA","1332 De La Vina Street","Santa Barbara","CA","93101-3121","US","<MISSING>","805-681-0035","<MISSING>","34.4231164","-119.7090249","https://lifestance.com/","Monday:8am-8pm; Tuesday:8am-8pm; Wednesday:8am-8pm; Thursday:8am-8pm; Friday:8am-8pm; Saturday:9am-12pm; Sunday:Closed","<MISSING>","longitude:street_address:page_url:latitude"
"https://lifestance.com/location/colorado-springs-co/","Colorado Springs, CO","5265 North Academy Boulevard Suite 2600","Colorado Springs","CO","80918-4060","US","<MISSING>","970-310-3406","<MISSING>","38.9069629","-104.7801897","https://lifestance.com/","Monday:7:30am-9pm; Tuesday:7:30am-9pm; Wednesday:7:30am-9pm; Thursday:7:30am-9pm; Friday:7:30am-9pm; Saturday:8am-4pm; Sunday:Closed","<MISSING>","longitude:street_address:page_url:latitude"
"https://lifestance.com/location/lakewood-co/","Lakewood, CO","8015 W Alameda Avenue","Lakewood","CO","80226-3041","US","<MISSING>","970-310-3406","<MISSING>","39.7116275","-105.0865674","https://lifestance.com/","Monday:8am-5pm; Tuesday:8am-5pm; Wednesday:8am-5pm; Thursday:8am-5pm; Friday:8am-5pm; Saturday:Closed; Sunday:Closed","<MISSING>","longitude:street_address:page_url:latitude"
"https://lifestance.com/location/westminster-co/","Westminster, CO","8300 Alcott Street Suite 101","Westminster","CO","80031-4008","US","<MISSING>","970-310-3406","<MISSING>","39.8480679","-105.01643","https://lifestance.com/","Monday:7:30am-9pm; Tuesday:7:30am-9pm; Wednesday:7:30am-9pm; Thursday:7:30am-9pm; Friday:7:30am-9pm; Saturday:8am-4pm; Sunday:Closed","<MISSING>","longitude:street_address:page_url:latitude"
"https://lifestance.com/location/windsor-co/","Windsor, CO","1204 W Ash Street Suite A","Windsor","CO","80550-4602","US","<MISSING>","970-310-3406","<MISSING>","40.4812309","-104.9203605","https://lifestance.com/","Monday:7:30am-9pm; Tuesday:7:30am-9pm; Wednesday:7:30am-9pm; Thursday:7:30am-9pm; Friday:7:30am-9pm; Saturday:8am-4pm; Sunday:Closed","<MISSING>","longitude:street_address:page_url:latitude"
"https://lifestance.com/location/littleton-co/","Littleton, CO","7780 S Broadway Suite 300","Littleton","CO","80122-2648","US","<MISSING>","970-310-3406","<MISSING>","39.575369","-104.9855179","https://lifestance.com/","Monday:7:30am-9pm; Tuesday:7:30am-9pm; Wednesday:7:30am-9pm; Thursday:7:30am-9pm; Friday:7:30am-9pm; Saturday:8am-4pm; Sunday:Closed","<MISSING>","longitude:street_address:page_url:latitude"
"https://lifestance.com/location/cripple-creek-co/","Cripple Creek, CO","166 E Bennett Ave","Cripple Creek","CO","80813-5038","US","<MISSING>","970-310-3406","<MISSING>","38.7463618","-105.1790108","https://lifestance.com/","Monday:8am-5pm; Tuesday:8am-5pm; Wednesday:8am-5pm; Thursday:8am-5pm; Friday:8am-5pm; Saturday:Closed; Sunday:Closed","<MISSING>","longitude:street_address:page_url:latitude"
"https://lifestance.com/location/englewood-co/","Englewood, CO","300 East Hampden Avenue Suite 400","Englewood","CO","80113-2638","US","<MISSING>","970-310-3406","<MISSING>","39.653","-104.9837462","https://lifestance.com/","Monday:7:30am-9pm; Tuesday:7:30am-9pm; Wednesday:7:30am-9pm; Thursday:7:30am-9pm; Friday:7:30am-9pm; Saturday:8am-4pm; Sunday:Closed","<MISSING>","longitude:street_address:page_url:latitude"
"https://lifestance.com/location/loveland-co/","Loveland, CO","323 East 27Th Street","Loveland","CO","80538-3203","US","<MISSING>","970-310-3406","<MISSING>","40.4203919","-105.072231","https://lifestance.com/","Monday:7:30am-9pm; Tuesday:7:30am-9pm; Wednesday:7:30am-9pm; Thursday:7:30am-9pm; Friday:7:30am-9pm; Saturday:8am-4pm; Sunday:Closed","<MISSING>","longitude:street_address:page_url:latitude"
"https://lifestance.com/location/loveland-co-2/","Loveland, CO","1661 N Estrella","Loveland","CO","80538-3522","US","<MISSING>","<MISSING>","<MISSING>","40.409099","-105.1085826","https://lifestance.com/","Monday:7:30am-9pm; Tuesday:7:30am-9pm; Wednesday:7:30am-9pm; Thursday:7:30am-9pm; Friday:7:30am-9pm; Saturday:8am-4pm; Sunday:Closed","<MISSING>","longitude:street_address:page_url:latitude"
"https://lifestance.com/location/fort-collins-co/","Fort Collins, CO","215 W Oak St 4Th Floor","Fort Collins","CO","80521-2734","US","<MISSING>","970-310-3406","<MISSING>","40.5853177","-105.0793968","https://lifestance.com/","Monday:7:30am-9pm; Tuesday:7:30am-9pm; Wednesday:7:30am-9pm; Thursday:7:30am-9pm; Friday:7:30am-9pm; Saturday:8am-4pm; Sunday:Closed","<MISSING>","longitude:street_address:page_url:latitude"
"https://lifestance.com/location/greeley-co/","Greeley, CO","1770 25Th Avenue Suite 202 & 206","Greeley","CO","80634-4949","US","<MISSING>","970-310-3406","<MISSING>","40.4121981","-104.7187813","https://lifestance.com/","Monday:7:30am-9pm; Tuesday:7:30am-9pm; Wednesday:7:30am-9pm; Thursday:7:30am-9pm; Friday:7:30am-9pm; Saturday:8am-4pm; Sunday:Closed","<MISSING>","longitude:street_address:page_url:latitude"
"https://lifestance.com/location/denver-co/","Denver, CO","9725 East Hampden Avenue Suite 102","Denver","CO","80231-4916","US","<MISSING>","970-310-3406","<MISSING>","39.6539639","-104.8749245","https://lifestance.com/","Monday:7:30am-9pm; Tuesday:7:30am-9pm; Wednesday:7:30am-9pm; Thursday:7:30am-9pm; Friday:7:30am-9pm; Saturday:8am-4pm; Sunday:Closed","<MISSING>","longitude:street_address:page_url:latitude"
"https://lifestance.com/location/denver-co-2/","Denver, CO","950 East Harvard Avenue Suite 670","Denver","CO","80210-7011","US","<MISSING>","970-310-3406","<MISSING>","39.6704418","-104.9764435","https://lifestance.com/","Monday:7:30am-9pm; Tuesday:7:30am-9pm; Wednesday:7:30am-9pm; Thursday:7:30am-9pm; Friday:7:30am-9pm; Saturday:8am-4pm; Sunday:Closed","<MISSING>","longitude:street_address:page_url:latitude"
"https://lifestance.com/location/englewood-co-2/","Englewood, CO","304 Inverness Way S","Englewood","CO","80112-5828","US","<MISSING>","970-310-3406","<MISSING>","39.5644109","-104.8647069","https://lifestance.com/","Monday:7:30am-9pm; Tuesday:7:30am-9pm; Wednesday:7:30am-9pm; Thursday:7:30am-9pm; Friday:7:30am-9pm; Saturday:8am-4pm; Sunday:Closed","<MISSING>","longitude:street_address:page_url:latitude"
"https://lifestance.com/location/lakewood-co-2/","Lakewood, CO","7114 West Jefferson Avenue Suite 306","Lakewood","CO","80235-2354","US","<MISSING>","970-310-3406","<MISSING>","39.6490502","-105.0755606","https://lifestance.com/","Monday:7:30am-9pm; Tuesday:7:30am-9pm; Wednesday:7:30am-9pm; Thursday:7:30am-9pm; Friday:7:30am-9pm; Saturday:8am-4pm; Sunday:Closed","<MISSING>","longitude:street_address:page_url:latitude"
"https://lifestance.com/location/littleton-co-2/","Littleton, CO","5911 S Middlefield Road Suite 100","Littleton","CO","80123-2893","US","<MISSING>","970-310-3406","<MISSING>","39.6092313","-105.0355823","https://lifestance.com/","Monday:7:30am-9pm; Tuesday:7:30am-9pm; Wednesday:7:30am-9pm; Thursday:7:30am-9pm; Friday:7:30am-9pm; Saturday:8am-4pm; Sunday:Closed","<MISSING>","longitude:street_address:page_url:latitude"
"https://lifestance.com/location/littleton-co-3/","Littleton, CO","5901 S Middlefield Road Suite 101","Littleton","CO","80123-2891","US","<MISSING>","970-310-3406","<MISSING>","39.6093343","-105.0353997","https://lifestance.com/","Monday:8am-5pm; Tuesday:8am-5pm; Wednesday:8am-5pm; Thursday:8am-5pm; Friday:8am-5pm; Saturday:Closed; Sunday:Closed","<MISSING>","longitude:street_address:page_url:latitude"
"https://lifestance.com/location/littleton-co-4/","Littleton, CO","5941 S Middlefield Road Suite 201","Littleton","CO","80123-7937","US","<MISSING>","970-310-3406","<MISSING>","39.6087848","-105.0354485","https://lifestance.com/","Monday:8am-5pm; Tuesday:8am-5pm; Wednesday:8am-5pm; Thursday:8am-5pm; Friday:8am-5pm; Saturday:Closed; Sunday:Closed","<MISSING>","longitude:street_address:page_url:latitude"
"https://lifestance.com/location/longmont-co/","Longmont, CO","1630 Dry Creek Drive Suite 100 B","Longmont","CO","80503-6405","US","<MISSING>","970-310-3406","<MISSING>","40.1360513","-105.1380362","https://lifestance.com/","Monday:7:30am-9pm; Tuesday:7:30am-9pm; Wednesday:7:30am-9pm; Thursday:7:30am-9pm; Friday:7:30am-9pm; Saturday:8am-4pm; Sunday:Closed","<MISSING>","longitude:street_address:page_url:latitude"
"https://lifestance.com/location/aurora-co/","Aurora, CO","1421 Potomac Street Suite 110","Aurora","CO","80012-4535","US","<MISSING>","970-310-3406","<MISSING>","39.6904541","-104.8326148","https://lifestance.com/","Monday:7:30am-9pm; Tuesday:7:30am-9pm; Wednesday:7:30am-9pm; Thursday:7:30am-9pm; Friday:7:30am-9pm; Saturday:8am-4pm; Sunday:Closed","<MISSING>","longitude:street_address:page_url:latitude"
"https://lifestance.com/location/loveland-co-3/","Loveland, CO","1032 North Lincoln Avenue","Loveland","CO","80537-4989","US","<MISSING>","970-310-3406","<MISSING>","40.402896","-105.072867","https://lifestance.com/","Monday:7:30am-9pm; Tuesday:7:30am-9pm; Wednesday:7:30am-9pm; Thursday:7:30am-9pm; Friday:7:30am-9pm; Saturday:8am-4pm; Sunday:Closed","<MISSING>","longitude:street_address:page_url:latitude"
"https://lifestance.com/location/fort-collins-co-2/","Fort Collins, CO","320 West Olive Street","Fort Collins","CO","80521-2716","US","<MISSING>","970-310-3406","<MISSING>","40.5844787","-105.0819087","https://lifestance.com/","Monday:7:30am-9pm; Tuesday:7:30am-9pm; Wednesday:7:30am-9pm; Thursday:7:30am-9pm; Friday:7:30am-9pm; Saturday:8am-4pm; Sunday:Closed","<MISSING>","longitude:street_address:page_url:latitude"
"https://lifestance.com/location/colorado-springs-co-2/","Colorado Springs, CO","9475 Briar Village Pointe Suite 320","Colorado Springs","CO","80920-7901","US","<MISSING>","970-310-3406","<MISSING>","38.9680958","-104.7829533","https://lifestance.com/","Monday:7:30am-9pm; Tuesday:7:30am-9pm; Wednesday:7:30am-9pm; Thursday:7:30am-9pm; Friday:7:30am-9pm; Saturday:8am-4pm; Sunday:Closed","<MISSING>","longitude:street_address:page_url:latitude"
"https://lifestance.com/location/aurora-co-2/","Aurora, CO","750 Potomac Street","Aurora","CO","80011-6700","US","<MISSING>","970-310-3406","<MISSING>","39.7284112","-104.8270392","https://lifestance.com/","Monday:7:30am-9pm; Tuesday:7:30am-9pm; Wednesday:7:30am-9pm; Thursday:7:30am-9pm; Friday:7:30am-9pm; Saturday:8am-4pm; Sunday:Closed","<MISSING>","longitude:street_address:page_url:latitude"
"https://lifestance.com/location/fort-collins-co-3/","Fort Collins, CO","208 Racquette Drive","Fort Collins","CO","80524-4851","US","<MISSING>","970-310-3406","<MISSING>","40.5874138","-105.0437781","https://lifestance.com/","Monday:7:30am-9pm; Tuesday:7:30am-9pm; Wednesday:7:30am-9pm; Thursday:7:30am-9pm; Friday:7:30am-9pm; Saturday:8am-4pm; Sunday:Closed","<MISSING>","longitude:street_address:page_url:latitude"
"https://lifestance.com/location/fort-collins-co-4/","Fort Collins, CO","1525 Riverside Avenue","Fort Collins","CO","80524-4392","US","<MISSING>","970-310-3406","<MISSING>","40.5721051","-105.0472254","https://lifestance.com/","Monday:7:30am-9pm; Tuesday:7:30am-9pm; Wednesday:7:30am-9pm; Thursday:7:30am-9pm; Friday:7:30am-9pm; Saturday:8am-4pm; Sunday:Closed","<MISSING>","longitude:street_address:page_url:latitude"
"https://lifestance.com/location/fort-collins-co-5/","Fort Collins, CO","1531 Riverside Avenue","Fort Collins","CO","80524-4389","US","<MISSING>","970-310-3406","<MISSING>","40.5719655","-105.0468145","https://lifestance.com/","Monday:8am-5pm; Tuesday:8am-5pm; Wednesday:8am-5pm; Thursday:8am-5pm; Friday:8am-5pm; Saturday:Closed; Sunday:Closed","<MISSING>","longitude:street_address:page_url:latitude"
"https://lifestance.com/location/fort-collins-co-6/","Fort Collins, CO","1537 Riverside Avenue","Fort Collins","CO","80524-4386","US","<MISSING>","970-310-3406","<MISSING>","40.571863","-105.0465634","https://lifestance.com/","Monday:8am-5pm; Tuesday:8am-5pm; Wednesday:8am-5pm; Thursday:8am-5pm; Friday:8am-5pm; Saturday:Closed; Sunday:Closed","<MISSING>","longitude:street_address:page_url:latitude"
"https://lifestance.com/location/denver-co-3/","Denver, CO","4380 South Syracuse Street Suite 309","Denver","CO","80237-2625","US","<MISSING>","970-310-3406","<MISSING>","39.6373601","-104.8987319","https://lifestance.com/","Monday:7:30am-9pm; Tuesday:7:30am-9pm; Wednesday:7:30am-9pm; Thursday:7:30am-9pm; Friday:7:30am-9pm; Saturday:8am-4pm; Sunday:Closed","<MISSING>","longitude:street_address:page_url:latitude"
"https://lifestance.com/location/colorado-springs-co-3/","Colorado Springs, CO","5350 Tomah Drive Suite 3600","Colorado Springs","CO","80918-6991","US","<MISSING>","970-310-3406","<MISSING>","38.9075113","-104.7797797","https://lifestance.com/","Monday:7:30am-9pm; Tuesday:7:30am-9pm; Wednesday:7:30am-9pm; Thursday:7:30am-9pm; Friday:7:30am-9pm; Saturday:8am-4pm; Sunday:Closed","<MISSING>","longitude:street_address:page_url:latitude"
"https://lifestance.com/location/westminster-co-2/","Westminster, CO","8471 Turnpike Drive Suite 250","Westminster","CO","80031-4387","US","<MISSING>","970-310-3406","<MISSING>","39.8496531","-105.0493883","https://lifestance.com/","Monday:7:30am-9pm; Tuesday:7:30am-9pm; Wednesday:7:30am-9pm; Thursday:7:30am-9pm; Friday:7:30am-9pm; Saturday:8am-4pm; Sunday:Closed","<MISSING>","longitude:street_address:page_url:latitude"
"https://lifestance.com/location/colorado-springs-co-4/","Colorado Springs, CO","5353 North Union Blvd Suite 202","Colorado Springs","CO","80918-2069","US","<MISSING>","970-310-3406","<MISSING>","38.909344","-104.7747744","https://lifestance.com/","Monday:7:30am-9pm; Tuesday:7:30am-9pm; Wednesday:7:30am-9pm; Thursday:7:30am-9pm; Friday:7:30am-9pm; Saturday:8am-4pm; Sunday:Closed","<MISSING>","longitude:street_address:page_url:latitude"
"https://lifestance.com/location/greeley-co-2/","Greeley, CO","5401 W 10Th St Suite 200","Greeley","CO","80634-4459","US","<MISSING>","970-310-3406","<MISSING>","40.421702","-104.7711867","https://lifestance.com/","Monday:7:30am-9pm; Tuesday:7:30am-9pm; Wednesday:7:30am-9pm; Thursday:7:30am-9pm; Friday:7:30am-9pm; Saturday:8am-4pm; Sunday:Closed","<MISSING>","longitude:street_address:page_url:latitude"
"https://lifestance.com/location/greeley-co-3/","Greeley, CO","1013 37Th Avenue Ct Suite 202","Greeley","CO","80634-2575","US","<MISSING>","970-310-3406","<MISSING>","40.4215095","-104.7400474","https://lifestance.com/","Monday:7:30am-9pm; Tuesday:7:30am-9pm; Wednesday:7:30am-9pm; Thursday:7:30am-9pm; Friday:7:30am-9pm; Saturday:8am-4pm; Sunday:Closed","<MISSING>","longitude:street_address:page_url:latitude"
"https://lifestance.com/location/woodland-park-co/","Woodland Park, CO","1017B E Us Highway 24","Woodland Park","CO","80863-2138","US","<MISSING>","970-310-3406","<MISSING>","38.9847794","-105.0466547","https://lifestance.com/","Monday:7:30am-9pm; Tuesday:7:30am-9pm; Wednesday:7:30am-9pm; Thursday:7:30am-9pm; Friday:7:30am-9pm; Saturday:8am-4pm; Sunday:Closed","<MISSING>","longitude:street_address:page_url:latitude"
"https://lifestance.com/location/loveland-co-4/","Loveland, CO","1413 West 29Th Street","Loveland","CO","80538-2403","US","<MISSING>","970-310-3406","<MISSING>","40.422012","-105.098601","https://lifestance.com/","Monday:7:30am-9pm; Tuesday:7:30am-9pm; Wednesday:7:30am-9pm; Thursday:7:30am-9pm; Friday:7:30am-9pm; Saturday:8am-4pm; Sunday:Closed","<MISSING>","longitude:street_address:page_url:latitude"
"https://lifestance.com/location/charlotte-nc/","Charlotte, NC","10430 Harris Oaks Blvd","Charlotte","NC","28269-7513","US","<MISSING>","704-360-3637","<MISSING>","35.343639","-80.8432281","https://lifestance.com/","Monday:9am-6pm; Tuesday:9am-6pm; Wednesday:9am-6pm; Thursday:9am-6pm; Friday:9am-5pm; Saturday:Closed; Sunday:Closed","<MISSING>","longitude:street_address:page_url:latitude"
"https://lifestance.com/location/denver-nc/","Denver, NC","7490 Waterside Crossing Blvd S Suite 2A","Denver","NC","28037-3004","US","<MISSING>","980-800-9380","<MISSING>","35.4422812","-80.9968525","https://lifestance.com/","Monday:9am-6pm; Tuesday:9am-6pm; Wednesday:9am-6pm; Thursday:9am-6pm; Friday:9am-6pm; Saturday:Closed; Sunday:Closed","<MISSING>","longitude:street_address:page_url:latitude"
"https://lifestance.com/location/mooresville-nc/","Mooresville, NC","122 Gateway Blvd Suite C","Mooresville","NC","28117-5544","US","<MISSING>","704-360-3637","<MISSING>","35.5557632","-80.8555682","https://lifestance.com/","Monday:9am-6pm; Tuesday:9am-6pm; Wednesday:9am-6pm; Thursday:9am-6pm; Friday:9am-5pm; Saturday:Closed; Sunday:Closed","<MISSING>","longitude:street_address:page_url:latitude"
"https://lifestance.com/location/statesville-nc/","Statesville, NC","276 Old Mocksville Rd Suite 100","Statesville","NC","28625-1951","US","<MISSING>","704-360-3637","<MISSING>","35.8215652","-80.8295206","https://lifestance.com/","Monday:9am-6pm; Tuesday:9am-6pm; Wednesday:9am-6pm; Thursday:9am-6pm; Friday:9am-6pm; Saturday:Closed; Sunday:Closed","<MISSING>","longitude:street_address:page_url:latitude"
"https://lifestance.com/location/las-vegas-nv/","Las Vegas, NV","2810 W Charleston Blvd Suite 70","Las Vegas","NV","89102-1993","US","<MISSING>","702-805-5360","<MISSING>","36.1600551","-115.1796525","https://lifestance.com/","Monday:8am-5pm; Tuesday:8am-5pm; Wednesday:8am-5pm; Thursday:8am-5pm; Friday:8am-5pm; Saturday:Closed; Sunday:Closed","<MISSING>","longitude:street_address:page_url:latitude"
"https://lifestance.com/location/bloomington-il/","Bloomington, IL","808 S Eldorado Rd Suite 102","Bloomington","IL","61704-6075","US","<MISSING>","309-706-3190","<MISSING>","40.4693298","-88.9523456","https://lifestance.com/","Monday:8am-7:30pm; Tuesday:8am-7:30pm; Wednesday:8am-7:30pm; Thursday:8am-7:30pm; Friday:8am-7:30pm; Saturday:Closed; Sunday:Closed","<MISSING>","longitude:street_address:page_url:latitude"
"https://lifestance.com/location/bloomington-il-2/","Bloomington, IL","2406 E Empire 2Nd Floor","Bloomington","IL","61704-3630","US","<MISSING>","309-706-3190","<MISSING>","40.4889832","-88.9342902","https://lifestance.com/","Monday:8am-6pm; Tuesday:8am-6pm; Wednesday:8am-6pm; Thursday:8am-6pm; Friday:8am-6pm; Saturday:Closed; Sunday:Closed","<MISSING>","longitude:street_address:page_url:latitude"
"https://lifestance.com/location/bloomington-il-3/","Bloomington, IL","1111 Trinity Lane","Bloomington","IL","61704-8112","US","<MISSING>","309-706-3190","<MISSING>","40.4919234","-88.9175863","https://lifestance.com/","Monday:9am-5pm; Tuesday:9am-5pm; Wednesday:9am-5pm; Thursday:9am-5pm; Friday:9am-5pm; Saturday:Closed; Sunday:Closed","<MISSING>","longitude:street_address:page_url:latitude"
"https://lifestance.com/location/champaign-il/","Champaign, IL","2506 Galen Drive Suite 101","Champaign","IL","61821-7047","US","<MISSING>","217-693-6072","<MISSING>","40.0813118","-88.2623592","https://lifestance.com/","Monday:9am-7pm; Tuesday:9am-7pm; Wednesday:9am-7pm; Thursday:9am-7pm; Friday:9am-3pm; Saturday:Closed; Sunday:Closed","<MISSING>","longitude:street_address:page_url:latitude"
