"page_url","location_name","street_address","city","state","zip","country_code","store_number","phone","location_type","latitude","longitude","locator_domain","hours_of_operation","raw_address","record_id"
"https://restaurants.subway.com/austria/bu/eisenstadt/viktor-kaplan-str-2a","Viktor Kaplanstrasse 2A","Viktor-Kaplan-Str. 2A","Eisenstadt","<MISSING>","7000","AT","<MISSING>","0664 1368936","<MISSING>","47.8270096","16.5307332","https://restaurants.subway.com/","Mo 08:00-20:00; Tu 08:00-20:00; We 08:00-20:00; Th 08:00-20:00; Fr 08:00-22:00; Sa 08:00-20:00; Su 16:00-20:00","<MISSING>","page_url:street_address:phone:city"
"https://restaurants.subway.com/austria/bu/parndorf/gewerbestr-4","Fashion Outlet Center","Gewerbestr. 4 Unit 309","Parndorf","<MISSING>","7111","AT","<MISSING>","02166 20786","<MISSING>","47.97816717758535","16.849660347221402","https://restaurants.subway.com/","Mo 09:30-19:00; Tu 09:30-19:00; We 09:30-19:00; Th 09:30-19:00; Fr 09:30-21:00; Sa 09:00-18:00; Su Closed","<MISSING>","page_url:street_address:phone:city"
"https://restaurants.subway.com/austria/ka/klagenfurt/heuplatz-5-city-arkaden","Heuplatz 5 City Arkaden","Heuplatz 5 City Arkaden","Klagenfurt","<MISSING>","9020","AT","<MISSING>","0650 3567889","<MISSING>","46.62757550050005","14.309930777001","https://restaurants.subway.com/","Mo 09:00-19:30; Tu 09:00-19:30; We 09:00-19:30; Th 09:00-19:30; Fr 09:00-19:30; Sa 09:00-18:00; Su Closed","<MISSING>","page_url:street_address:phone:city"
"https://restaurants.subway.com/austria/ka/klagenfurt/volkermarkter-str-274","Obi Department Store","Völkermarkter Str. 274","Klagenfurt","<MISSING>","9020","AT","<MISSING>","0463 319029","<MISSING>","46.628603999400966","14.356562180449597","https://restaurants.subway.com/","Mo 09:00-00:00; Tu 09:00-00:00; We 09:00-00:00; Th 09:00-00:00; Fr 09:00-00:00; Sa 09:00-00:00; Su 10:00-00:00","<MISSING>","page_url:street_address:phone:city"
"https://restaurants.subway.com/austria/ka/spittal-an-der-drau/villacher-str-44","Villacher Strasse 44","Villacher Str. 44 Eni Tankstelle","Spittal An Der Drau","<MISSING>","9800","AT","<MISSING>","0676 6950259","<MISSING>","46.79175182419552","13.508062416020493","https://restaurants.subway.com/","Mo 09:00-23:00; Tu 09:00-23:00; We 09:00-23:00; Th 09:00-23:00; Fr 09:00-23:00; Sa 09:00-23:00; Su 09:00-23:00","<MISSING>","page_url:street_address:phone:city"
"https://restaurants.subway.com/austria/ka/villach/bruno-kreisky-str-27","Bruno-Kreisky Strasse 27","Bruno-Kreisky Str. 27","Villach","<MISSING>","9500","AT","<MISSING>","0660 7823108","<MISSING>","46.6049878","13.8616564","https://restaurants.subway.com/","Mo 10:00-00:00; Tu 10:00-00:00; We 10:00-00:00; Th 10:00-00:00; Fr 10:00-00:00; Sa 10:00-00:00; Su 10:00-00:00","<MISSING>","page_url:street_address:phone:city"
"https://restaurants.subway.com/austria/ni/amstetten/stadionstr-11","Stadionstrasse 11","Stadionstr. 11","Amstetten","<MISSING>","3300","AT","<MISSING>","07472 25043","<MISSING>","48.11686163611973","14.875145587108696","https://restaurants.subway.com/","Mo 10:00-22:00; Tu 10:00-22:00; We 10:00-22:00; Th 10:00-22:00; Fr 10:00-22:00; Sa 10:00-22:00; Su 10:00-22:00","<MISSING>","page_url:street_address:phone:city"
"https://restaurants.subway.com/austria/ni/gerasdorf/g3-shopping-resort-gerasdorf","G3 Shopping Resort Gerasdorf","G3 Shopping Resort Gerasdorf","Gerasdorf","<MISSING>","2201","AT","<MISSING>","0664 88006275","<MISSING>","48.342989066396584","16.46189983068848","https://restaurants.subway.com/","Mo 09:30-19:00; Tu 09:30-19:00; We 09:30-19:00; Th 09:30-20:00; Fr 09:30-20:00; Sa 10:00-18:00; Su Closed","<MISSING>","page_url:street_address:phone:city"
"https://restaurants.subway.com/austria/ni/vosendorf/scs/multiplex-shop-385","Scs Multi Plex Cinema","Scs/Multiplex Shop 385 Ug/Top 1.136","Vösendorf","<MISSING>","2334","AT","<MISSING>","02236 677744","<MISSING>","48.103903","16.318302","https://restaurants.subway.com/","Mo 08:30-22:30; Tu 08:30-22:30; We 08:30-22:30; Th 08:30-22:30; Fr 08:30-23:30; Sa 08:30-23:30; Su 10:30-22:30","<MISSING>","page_url:street_address:phone:city"
"https://restaurants.subway.com/austria/ni/wiener-neudorf/griesfeldstr-6","Griesfeldstrasse 6","Griesfeldstr. 6 Ug/Top 1.136","Wiener Neudorf","<MISSING>","2351","AT","<MISSING>","0664 8507566","<MISSING>","48.0783543","16.3228702","https://restaurants.subway.com/","Mo 09:00-23:00; Tu 09:00-23:00; We 09:00-23:00; Th 09:00-23:00; Fr 09:00-23:00; Sa 09:00-23:00; Su 09:00-23:00","<MISSING>","page_url:street_address:phone:city"
"https://restaurants.subway.com/austria/ni/wiener-neustadt/pottendorfer-str-29/1-b","Pottendorfer Strasse 29/1 B","Pottendorfer Str. 29/1 B","Wiener Neustadt","<MISSING>","2700","AT","<MISSING>","02622 235642","<MISSING>","47.82524880884471","16.250167535689798","https://restaurants.subway.com/","Mo 09:00-23:00; Tu 09:00-23:00; We 09:00-23:00; Th 09:00-23:30; Fr 09:00-23:30; Sa 10:00-23:00; Su 09:00-23:00","<MISSING>","page_url:street_address:phone:city"
"https://restaurants.subway.com/austria/ob/linz/freistadter-str-313-315","Freistädter Str. 313-315","Freistädter Str. 313-315 Mall-U.07","Linz","<MISSING>","4040","AT","<MISSING>","059 959 910","<MISSING>","48.32968265721604","14.319109715708692","https://restaurants.subway.com/","Mo 08:30-23:00; Tu 08:30-23:00; We 08:30-23:00; Th 08:30-23:00; Fr 08:30-00:00; Sa 08:30-00:00; Su 08:30-23:00","<MISSING>","page_url:street_address:phone:city"
"https://restaurants.subway.com/austria/ob/linz/landstr-17-25","Passage Linz Ekz","Landstr. 17-25 Mall-U.07","Linz","<MISSING>","4020","AT","<MISSING>","059 959 920","<MISSING>","48.30299329292207","14.289916789137692","https://restaurants.subway.com/","Mo 09:00-19:30; Tu 09:00-19:30; We 09:00-19:30; Th 09:00-19:30; Fr 09:00-19:30; Sa 09:00-19:30; Su Closed","<MISSING>","page_url:street_address:phone:city"
"https://restaurants.subway.com/austria/ob/linz/landstr-76","Landstrasse 76","Landstr. 76 Mall-U.07","Linz","<MISSING>","4020","AT","<MISSING>","0732 995825","<MISSING>","48.296949926189605","14.291506138464001","https://restaurants.subway.com/","Mo 09:00-23:00; Tu 09:00-23:00; We 09:00-23:00; Th 09:00-23:00; Fr 09:00-23:00; Sa 09:00-23:00; Su 09:00-23:00","<MISSING>","page_url:street_address:phone:city"
"https://restaurants.subway.com/austria/ob/pasching/pluskaufstrabe-7","Pluscity Shopping Mall","Pluskaufstrabe 7 Mall-U.07","Pasching","<MISSING>","4061","AT","<MISSING>","0664 8507585","<MISSING>","48.243706880595184","14.23632685703069","https://restaurants.subway.com/","Mo 09:00-23:00; Tu 09:00-23:00; We 09:00-23:00; Th 09:00-23:00; Fr 09:00-23:00; Sa 09:00-23:00; Su 09:00-23:00","<MISSING>","page_url:street_address:phone:city"
"https://restaurants.subway.com/austria/ob/ried-im-innkreis/rossmarkt-1","Rossmarkt 1","Rossmarkt 1","Ried Im Innkreis","<MISSING>","4910","AT","<MISSING>","07752 70518","<MISSING>","48.2097769806655","13.48640856564134","https://restaurants.subway.com/","Mo 10:00-21:00; Tu 10:00-21:00; We 10:00-21:00; Th 10:00-21:00; Fr 10:00-21:00; Sa 10:00-21:00; Su Closed","<MISSING>","page_url:street_address:phone:city"
"https://restaurants.subway.com/austria/ob/wels/salzburgerstr-223","Shopping City Wels","Salzburgerstr. 223","Wels","<MISSING>","4600","AT","<MISSING>","07242 890065","<MISSING>","48.14441707164482","13.974891712254015","https://restaurants.subway.com/","Mo 09:00-20:00; Tu 09:00-20:00; We 09:00-20:00; Th 09:00-20:00; Fr 09:00-20:00; Sa 09:00-20:00; Su 10:00-20:00","<MISSING>","page_url:street_address:phone:city"
"https://restaurants.subway.com/austria/sa/eugendorf/mobelstr-12","Moebelstrasse 12","Möbelstr. 12 Ec Eugendorf Center","Eugendorf","<MISSING>","5301","AT","<MISSING>","06225 28082","<MISSING>","47.85968080617914","13.127141706466107","https://restaurants.subway.com/","Mo 11:00-22:00; Tu 11:00-22:00; We 11:00-22:00; Th 11:00-22:00; Fr 11:00-22:00; Sa 11:00-22:00; Su 11:00-22:00","<MISSING>","page_url:street_address:phone:city"
"https://restaurants.subway.com/austria/sa/salzburg/griesgasse-27","Griesgasse 27","Griesgasse 27 Ec Eugendorf Center","Salzburg","<MISSING>","5020","AT","<MISSING>","0800 295135","<MISSING>","47.8007065","13.040642","https://restaurants.subway.com/","Mo Closed; Tu Closed; We Closed; Th Closed; Fr Closed; Sa Closed; Su Closed","<MISSING>","page_url:street_address:phone:city"
"https://restaurants.subway.com/austria/sa/salzburg/rainerstr-21-(kiesel-ekz)","Rainerstrasse 21 (Kiesel Ekz)","Rainerstr. 21 (Kiesel Ekz) Ec Eugendorf Center","Salzburg","<MISSING>","5020","AT","<MISSING>","0662 873189","<MISSING>","47.81056025067965","13.042675545770521","https://restaurants.subway.com/","Mo 09:00-23:00; Tu 09:00-23:00; We 09:00-23:00; Th 09:00-23:00; Fr 09:00-00:00; Sa 09:00-00:00; Su 10:00-23:00","<MISSING>","page_url:street_address:phone:city"
"https://restaurants.subway.com/austria/st/graz/europaplatz-2-9","Oebb Train Station","Europaplatz 2-9","Graz","<MISSING>","8020","AT","<MISSING>","0664 8334247","<MISSING>","47.072109312500075","15.41729676700481","https://restaurants.subway.com/","Mo 09:00-22:00; Tu 09:00-22:00; We 09:00-22:00; Th 09:00-22:00; Fr 09:00-22:00; Sa 09:00-22:00; Su 09:00-22:00","<MISSING>","page_url:street_address:phone:city"
"https://restaurants.subway.com/austria/st/graz/jakominiplatz-17","Jakominiplatz 17","Jakominiplatz 17","Graz","<MISSING>","8010","AT","<MISSING>","0316 840909","<MISSING>","47.06665838942652","15.441895411085966","https://restaurants.subway.com/","Mo 10:00-00:00; Tu 10:00-00:00; We 10:00-00:00; Th 10:00-00:00; Fr 10:00-00:00; Sa 10:00-00:00; Su 10:00-00:00","<MISSING>","page_url:street_address:phone:city"
"https://restaurants.subway.com/austria/st/graz/karntner-str-30","F.Leitner Gas Station/C-Store","Kärntner Str. 30","Graz","<MISSING>","8020","AT","<MISSING>","0316 715553","<MISSING>","47.061081343059996","15.42027581078878","https://restaurants.subway.com/","Mo 10:30-23:00; Tu 10:30-23:00; We 10:30-23:00; Th 10:30-23:00; Fr 10:30-23:00; Sa 10:30-23:00; Su 10:30-23:00","<MISSING>","page_url:street_address:phone:city"
"https://restaurants.subway.com/austria/st/graz/triester-str-360","Spritkönig","Triester Str. 360","Graz","<MISSING>","8055","AT","<MISSING>","0316 292828","<MISSING>","47.029494254780055","15.431813502867385","https://restaurants.subway.com/","Mo 09:00-00:00; Tu 09:00-00:00; We 09:00-00:00; Th 09:00-00:00; Fr 09:00-00:00; Sa 09:00-00:00; Su 09:00-00:00","<MISSING>","page_url:street_address:phone:city"
"https://restaurants.subway.com/austria/st/liezen/gesausestr-16","Gesäusestrasse 16","Gesäusestr. 16","Liezen","<MISSING>","8940","AT","<MISSING>","0650 2328929","<MISSING>","47.55938886845857","14.253281898147634","https://restaurants.subway.com/","Mo 10:00-22:30; Tu 10:00-22:30; We 10:00-22:30; Th 10:00-22:30; Fr 10:00-22:30; Sa 10:00-22:30; Su 10:00-22:30","<MISSING>","page_url:street_address:phone:city"
"https://restaurants.subway.com/austria/ti/innsbruck/amraser-str-1","Amraser Strasse 1","Amraser Str. 1","Innsbruck","<MISSING>","6020","AT","<MISSING>","0512 552864","<MISSING>","47.265474","11.403714","https://restaurants.subway.com/","Mo 08:00-22:00; Tu 08:00-22:00; We 08:00-22:00; Th 08:00-22:00; Fr 08:00-22:00; Sa 08:00-22:00; Su 08:00-22:00","<MISSING>","page_url:street_address:phone:city"
"https://restaurants.subway.com/austria/ti/innsbruck/innrain-12","Innrain 12","Innrain 12","Innsbruck","<MISSING>","6020","AT","<MISSING>","0512 923273","<MISSING>","47.26686333015862","11.390152671775695","https://restaurants.subway.com/","Mo 08:00-22:00; Tu 08:00-22:00; We 08:00-22:00; Th 08:00-22:00; Fr 08:00-22:00; Sa 08:00-22:00; Su 08:00-22:00","<MISSING>","page_url:street_address:phone:city"
"https://restaurants.subway.com/austria/ti/kufstein/oberer-stadtplatz-2","Oberer Stadtplatz 2","Oberer Stadtplatz 2","Kufstein","<MISSING>","6330","AT","<MISSING>","0650 6482564","<MISSING>","47.583162470246435","12.171135499999991","https://restaurants.subway.com/","Mo 09:00-23:00; Tu 09:00-23:00; We 09:00-23:00; Th 09:00-23:00; Fr 09:00-23:00; Sa 09:00-23:00; Su 21:00-23:00","<MISSING>","page_url:street_address:phone:city"
"https://restaurants.subway.com/austria/ti/vols/gewerbezone-4","Autohaus Daubeck","Gewerbezone 4","Vols","<MISSING>","6176","AT","<MISSING>","0512 302378","<MISSING>","47.25816266415989","11.323776984994083","https://restaurants.subway.com/","Mo 08:00-22:00; Tu 08:00-22:00; We 08:00-22:00; Th 08:00-22:00; Fr 08:00-22:00; Sa 08:00-22:00; Su 08:00-22:00","<MISSING>","page_url:street_address:phone:city"
"https://restaurants.subway.com/austria/ti/worgl/innsbrucker-str-60","Innsbrucker Str. 60","Innsbrucker Str. 60","Wörgl","<MISSING>","6300","AT","<MISSING>","05332 23914","<MISSING>","47.48174727575487","12.056340399137525","https://restaurants.subway.com/","Mo 08:00-22:00; Tu 08:00-22:00; We 08:00-22:00; Th 08:00-22:00; Fr 08:00-22:00; Sa 08:00-22:00; Su 08:00-22:00","<MISSING>","page_url:street_address:phone:city"
"https://restaurants.subway.com/austria/vi/wien/albert-schweitzer-gasse-6","Cineplexx Auhof","Albert Schweitzer Gasse 6 Shop 3","Wien","<MISSING>","1140","AT","<MISSING>","0664 88006276","<MISSING>","48.173757270317964","16.41646797369966","https://restaurants.subway.com/","Mo 11:00-20:00; Tu 11:00-20:00; We 11:00-20:00; Th 11:00-20:00; Fr 11:00-20:00; Sa 13:00-20:00; Su 12:00-20:00","<MISSING>","page_url:street_address:phone:city"
"https://restaurants.subway.com/austria/vi/wien/am-hauptbahnhof-1","Hauptbahnhof Wien","Am Hauptbahnhof 1 Ug/Top 1.136","Wien","<MISSING>","1110","AT","<MISSING>","0664 800228620","<MISSING>","48.185126667528785","16.37608169788157","https://restaurants.subway.com/","Mo 09:00-19:00; Tu 09:00-19:00; We 09:00-19:00; Th 09:00-19:00; Fr 09:00-19:00; Sa 09:00-19:00; Su 09:00-19:00","<MISSING>","page_url:street_address:phone:city"
"https://restaurants.subway.com/austria/vi/wien/europaplatz-1","Bahnhofcity Wien West","Europaplatz 1 E1 / Top 1.23","Wien","<MISSING>","1150","AT","<MISSING>","0699 17006796","<MISSING>","48.19679239535617","16.33770294457286","https://restaurants.subway.com/","Mo 10:00-22:00; Tu 10:00-22:00; We 10:00-22:00; Th 10:00-22:00; Fr 10:00-23:00; Sa 10:00-23:00; Su 10:00-22:00","<MISSING>","page_url:street_address:phone:city"
"https://restaurants.subway.com/austria/vi/wien/gablenzgasse-1-3","Lugner Kino City","Gablenzgasse 1-3 E1 / Top 1.23","Wien","<MISSING>","1160","AT","<MISSING>","0664 1361778","<MISSING>","48.20390983535494","16.33615661330805","https://restaurants.subway.com/","Mo 11:00-19:00; Tu 11:00-19:00; We 11:00-19:00; Th 11:00-19:00; Fr 11:00-19:00; Sa 11:00-19:00; Su 11:00-19:00","<MISSING>","page_url:street_address:phone:city"
"https://restaurants.subway.com/austria/vi/wien/handelskai-94-96","Handelskai 94-96","Handelskai 94-96","Wien","<MISSING>","1200","AT","<MISSING>","0660 5134836","<MISSING>","48.24001886364148","16.387543595699455","https://restaurants.subway.com/","Mo 10:00-22:00; Tu 10:00-22:00; We 10:00-22:00; Th 10:00-22:00; Fr 10:00-23:00; Sa 10:00-23:00; Su 10:00-22:00","<MISSING>","page_url:street_address:phone:city"
"https://restaurants.subway.com/austria/vi/wien/neubaugasse-16","Neubaugasse 16","Neubaugasse 16 E1 / Top 1.23","Wien","<MISSING>","1070","AT","<MISSING>","01 9614559","<MISSING>","48.199451700283916","16.34958866908903","https://restaurants.subway.com/","Mo 09:00-23:00; Tu 09:00-23:00; We 09:00-23:00; Th 09:00-23:00; Fr 09:00-23:00; Sa 09:00-23:00; Su 09:00-23:00","<MISSING>","page_url:street_address:phone:city"
"https://restaurants.subway.com/austria/vi/wien/opernring-3-5-top-12-13","Opernring 3-5, Top 12-13","Opernring 3-5, Top 12-13","Wien","<MISSING>","1010","AT","<MISSING>","01 9663890","<MISSING>","48.20229977311736","16.368238048832495","https://restaurants.subway.com/","Mo 10:00-20:30; Tu 10:00-20:30; We 10:00-20:30; Th 10:00-20:30; Fr 10:00-20:30; Sa 10:00-20:30; Su 10:00-20:30","<MISSING>","page_url:street_address:phone:city"
"https://restaurants.subway.com/austria/vi/wien/rotenturmstr-19","Rotenturmstrasse 19","Rotenturmstr. 19","Wien","<MISSING>","1010","AT","<MISSING>","0660 5134836","<MISSING>","48.21061985274498","16.374499299092825","https://restaurants.subway.com/","Mo 10:00-22:00; Tu 10:00-22:00; We 10:00-22:00; Th 10:00-22:00; Fr 10:00-23:00; Sa 10:00-23:00; Su 10:00-22:00","<MISSING>","page_url:street_address:phone:city"
"https://restaurants.subway.com/austria/vi/wien/schwedenplatz-3-4","Schwedenplatz 3-4","Schwedenplatz 3-4","Wien","<MISSING>","1010","AT","<MISSING>","01 5350269","<MISSING>","48.21120057799387","16.378704976693044","https://restaurants.subway.com/","Mo 08:00-23:00; Tu 08:00-23:00; We 08:00-23:00; Th 08:00-23:00; Fr 08:00-00:00; Sa 08:00-02:00; Su 00:00-02:00 08:00-23:00","<MISSING>","page_url:street_address:phone:city"
"https://restaurants.subway.com/austria/vi/wien/ungargasse-66","ZRS-Zentrum Rennweg","Ungargasse 66 Ug/Top 1.136","Wien","<MISSING>","1030","AT","<MISSING>","01 8906226","<MISSING>","48.1951326146857","16.386332192403643","https://restaurants.subway.com/","Mo 08:30-23:00; Tu 08:30-23:00; We 08:30-23:00; Th 08:30-23:00; Fr 08:30-23:00; Sa 09:00-23:00; Su 10:00-23:00","<MISSING>","page_url:street_address:phone:city"
"https://restaurants.subway.com/austria/vi/wien/wagramer-strasse-79/og2","The Kitchen Im Donau Zentrum","Wagramer Strasse 79/Og2","Wien","<MISSING>","1220","AT","<MISSING>","0664 1361792","<MISSING>","48.24164496837282","16.433497311656758","https://restaurants.subway.com/","Mo 11:00-19:00; Tu 11:00-19:00; We 11:00-19:00; Th 11:00-19:00; Fr 11:00-19:00; Sa 11:00-19:00; Su 11:00-19:00","<MISSING>","page_url:street_address:phone:city"
"https://restaurants.subway.com/belgium/an/anvers/meir-125","Meir 125","Meir 125","Anvers","<MISSING>","2000","BE","<MISSING>","0475 98 89 18","<MISSING>","51.21848162593308","4.412591761350541","https://restaurants.subway.com/","Mo 09:00-18:30; Tu 09:00-18:30; We 09:00-18:30; Th 09:00-18:30; Fr 09:00-18:30; Sa 09:00-18:30; Su 11:00-17:00","<MISSING>","page_url:street_address:phone:city"
"https://restaurants.subway.com/belgium/an/brasschaat/kapelsesteenweg-71a","Texaco Ekeren","Kapelsesteenweg 71A","Brasschaat","<MISSING>","2180","BE","<MISSING>","03 645 16 09","<MISSING>","51.27089788858963","4.458713491788217","https://restaurants.subway.com/","Mo 07:00-19:00; Tu 07:00-19:00; We 07:00-19:00; Th 07:00-19:00; Fr 07:00-19:00; Sa 07:00-19:00; Su 07:00-19:00","<MISSING>","page_url:street_address:phone:city"
"https://restaurants.subway.com/belgium/bf/brugge/katelijnestraat-20","Katelijnestraat 20","Katelijnestraat 20","Brugge","<MISSING>","8000","BE","<MISSING>","050 66 28 82","<MISSING>","51.20355691924336","3.2246513244177777","https://restaurants.subway.com/","Mo 07:30-19:00; Tu 07:30-19:00; We 07:30-19:00; Th 07:30-19:00; Fr 07:30-19:00; Sa 09:00-19:00; Su Closed","<MISSING>","page_url:street_address:phone:city"
"https://restaurants.subway.com/belgium/bw/leuven/recto-de-somerplein-6","Rector de Somerplein 18","Recto de Somerplein 6 -","Leuven","<MISSING>","3000","BE","<MISSING>","016 84 33 74","<MISSING>","50.8792258","4.7029472","https://restaurants.subway.com/","Mo 09:00-22:00; Tu 09:00-22:00; We 09:00-22:00; Th 09:00-22:00; Fr 09:00-22:00; Sa 09:00-22:00; Su 09:00-21:00","<MISSING>","page_url:street_address:phone:city"
"https://restaurants.subway.com/belgium/br/brussels/46-avenue-fonsny","Gare Bruxelles Midi","46 Avenue Fonsny","Brussels","<MISSING>","1060","BE","<MISSING>","0800 71 312","<MISSING>","50.8369406947876","4.335633880950911","https://restaurants.subway.com/","Mo 08:00-21:00; Tu 08:00-21:00; We 08:00-21:00; Th 08:00-21:00; Fr 08:00-21:00; Sa 09:00-20:00; Su 09:00-20:00","<MISSING>","page_url:street_address:phone:city"
"https://restaurants.subway.com/belgium/ef/aalst/esplanade-21-kattestraat-81","Esplanade 21 Kattestraat 81","Esplanade 21 Kattestraat 81","Aalst","<MISSING>","9300","BE","<MISSING>","053 43 33 37","<MISSING>","50.9392459765468","4.038050297968337","https://restaurants.subway.com/","Mo 09:00-18:30; Tu 09:00-18:30; We 09:00-18:30; Th 09:00-18:30; Fr 09:00-18:30; Sa 09:00-18:30; Su Closed","<MISSING>","page_url:street_address:phone:city"
"https://restaurants.subway.com/belgium/wf/brugge/stationsplein-a8b","Bruges Rail Station","Stationsplein A8b","Brugge","<MISSING>","8000","BE","<MISSING>","050 70 41 31","<MISSING>","51.197432528864304","3.219154856227192","https://restaurants.subway.com/","Mo 08:00-21:00; Tu 08:00-21:00; We 08:00-21:00; Th 08:00-21:00; Fr 08:00-21:00; Sa 08:00-21:00; Su 08:00-21:00","<MISSING>","page_url:street_address:phone:city"
"https://restaurants.subway.com/bulgaria/bansko/113a-pirin-st","Bansko Town","113A Pirin St","<MISSING>","<MISSING>","2770","BG","<MISSING>","088 862 9035","<MISSING>","41.8269581","23.4789951","https://restaurants.subway.com/","Mo All Day; Tu All Day; We All Day; Th All Day; Fr All Day; Sa All Day; Su All Day","<MISSING>","page_url:street_address:phone:city"
"https://restaurants.subway.com/bulgaria/borovets/borovets-resort-hotel-rila","Hotel Rila","Borovets Resort, Hotel Rila","<MISSING>","<MISSING>","2010","BG","<MISSING>","087 686 6453","<MISSING>","42.265433","23.605884","https://restaurants.subway.com/","Mo All Day; Tu All Day; We All Day; Th All Day; Fr All Day; Sa All Day; Su All Day","<MISSING>","page_url:street_address:phone:city"
"https://restaurants.subway.com/bulgaria/burgas/""transporta""-strno6","Transporta Str.","""Transporta"" Str.No.6","<MISSING>","<MISSING>","8000","BG","<MISSING>","087 991 7668","<MISSING>","42.5273388","27.4532377","https://restaurants.subway.com/","Mo 09:00-22:00; Tu 09:00-22:00; We 09:00-22:00; Th 09:00-22:00; Fr 09:00-22:00; Sa 09:00-22:00; Su 09:00-22:00","<MISSING>","page_url:street_address:phone:city"
"https://restaurants.subway.com/bulgaria/burgas/6-yanko-komitov-str","Galleria Burgas Shopping Ctr.","6 Yanko Komitov Str","<MISSING>","<MISSING>","8000","BG","<MISSING>","088 726 4149","<MISSING>","42.5144809","27.4528408","https://restaurants.subway.com/","Mo 10:00-22:00; Tu 10:00-22:00; We 10:00-22:00; Th 10:00-22:00; Fr 10:00-22:00; Sa 10:00-22:00; Su 10:00-22:00","<MISSING>","page_url:street_address:phone:city"
"https://restaurants.subway.com/bulgaria/burgas/91-aleksandrovska-str","91 Aleksandrovska Str.","91 Aleksandrovska Str.","<MISSING>","<MISSING>","8000","BG","<MISSING>","088 726 4149","<MISSING>","42.49617477564637","27.471521958322434","https://restaurants.subway.com/","Mo 10:00-22:00; Tu 10:00-22:00; We 10:00-22:00; Th 10:00-22:00; Fr 10:00-22:00; Sa 10:00-22:00; Su 10:00-22:00","<MISSING>","page_url:street_address:phone:city"
"https://restaurants.subway.com/bulgaria/burgas/alley-kuban","Sunny Beach Resort","Alley Kuban","<MISSING>","<MISSING>","8240","BG","<MISSING>","088 745 8942","<MISSING>","42.69444472465234","27.712170120376598","https://restaurants.subway.com/","Mo All Day; Tu All Day; We All Day; Th All Day; Fr All Day; Sa All Day; Su All Day","<MISSING>","page_url:street_address:phone:city"
"https://restaurants.subway.com/bulgaria/burgas/alley-no-1-hotel-phoenix","Sunny Beach Resort","Alley No 1, Hotel Phoenix","<MISSING>","<MISSING>","8230","BG","<MISSING>","087 686 6453","<MISSING>","42.41532255915964","27.699192304506564","https://restaurants.subway.com/","Mo All Day; Tu All Day; We All Day; Th All Day; Fr All Day; Sa All Day; Su All Day","<MISSING>","page_url:street_address:phone:city"
"https://restaurants.subway.com/bulgaria/burgas/alley-no-1-plazamarvel-hotel","Sunny Beach Resort","Alley No 1, Plaza,Marvel Hotel","<MISSING>","<MISSING>","8230","BG","<MISSING>","088 851 4516","<MISSING>","42.70788245286375","27.72381754232788","https://restaurants.subway.com/","Mo All Day; Tu All Day; We All Day; Th All Day; Fr All Day; Sa All Day; Su All Day","<MISSING>","page_url:street_address:phone:city"
"https://restaurants.subway.com/bulgaria/burgas/sunny-beach-karlovo-hotel","Sunny Beach Resort Luxury","Sunny Beach, Karlovo Hotel","<MISSING>","<MISSING>","8240","BG","<MISSING>","087 686 6453","<MISSING>","42.699603","27.713704","https://restaurants.subway.com/","Mo All Day; Tu All Day; We All Day; Th All Day; Fr All Day; Sa All Day; Su All Day","<MISSING>","page_url:street_address:phone:city"
"https://restaurants.subway.com/bulgaria/nesebar/11-han-krum-str","Aldo Supermarket","11 Han Krum Str.","<MISSING>","<MISSING>","8230","BG","<MISSING>","087 712 3456","<MISSING>","42.66250771234889","27.720066576452975","https://restaurants.subway.com/","Mo 10:00-22:00; Tu 10:00-22:00; We 10:00-22:00; Th 10:00-22:00; Fr 10:00-22:00; Sa 10:00-22:00; Su 10:00-22:00","<MISSING>","page_url:street_address:phone:city"
"https://restaurants.subway.com/bulgaria/nessebar/sveti-vlas","Aldo Supermarket","Sveti Vlas","<MISSING>","<MISSING>","8256","BG","<MISSING>","087 925 2025","<MISSING>","42.71340319999999","27.7587542","https://restaurants.subway.com/","Mo All Day; Tu All Day; We All Day; Th All Day; Fr All Day; Sa All Day; Su All Day","<MISSING>","page_url:street_address:phone:city"
"https://restaurants.subway.com/bulgaria/nova-zagora/trakia-hwy-land-estate-077018","Trakia Hwy Rest Area","Trakia Hwy, Land Estate 077018","<MISSING>","<MISSING>","8900","BG","<MISSING>","087 966 3528","<MISSING>","42.4552451","26.0541628","https://restaurants.subway.com/","Mo 08:00-20:00; Tu 08:00-20:00; We 08:00-20:00; Th 08:00-20:00; Fr 08:00-20:00; Sa 08:00-20:00; Su 08:00-20:00","<MISSING>","page_url:street_address:phone:city"
"https://restaurants.subway.com/bulgaria/plovdiv/""georgi-stranski""-str-no3","Mall Plaza","""Georgi Stranski"" Str. No.3","<MISSING>","<MISSING>","4006","BG","<MISSING>","087 992 6162","<MISSING>","42.145027867370494","24.78176032341786","https://restaurants.subway.com/","Mo 10:00-22:00; Tu 10:00-22:00; We 10:00-22:00; Th 10:00-22:00; Fr 10:00-22:00; Sa 10:00-22:00; Su 10:00-22:00","<MISSING>","page_url:street_address:phone:city"
"https://restaurants.subway.com/bulgaria/plovdiv/""ruski""-blvd-no54","Markovo Tepe Mall","""Ruski"" Blvd No.54","<MISSING>","<MISSING>","4000","BG","<MISSING>","087 992 6162","<MISSING>","42.14168","24.741037","https://restaurants.subway.com/","Mo 10:00-22:00; Tu 10:00-22:00; We 10:00-22:00; Th 10:00-22:00; Fr 10:00-22:00; Sa 10:00-22:00; Su 10:00-22:00","<MISSING>","page_url:street_address:phone:city"
"https://restaurants.subway.com/bulgaria/plovdiv/49-knyaz-alexandar-i-batemberg","49 Knyaz Alexandar I Batemberg","49 Knyaz Alexandar I Batemberg","<MISSING>","<MISSING>","4000","BG","<MISSING>","088 462 4948","<MISSING>","42.1315056","24.7195815","https://restaurants.subway.com/","Mo 08:00-00:00; Tu 08:00-00:00; We 08:00-00:00; Th 08:00-00:00; Fr 08:00-00:00; Sa 08:00-00:00; Su 08:00-00:00","<MISSING>","page_url:street_address:phone:city"
"https://restaurants.subway.com/bulgaria/plovdiv/8-perushtitsa-str","Mall Plovdiv","8 Perushtitsa Str.","<MISSING>","<MISSING>","4002","BG","<MISSING>","087 992 6162","<MISSING>","42.1403054","24.7191533","https://restaurants.subway.com/","Mo 10:00-22:00; Tu 10:00-22:00; We 10:00-22:00; Th 10:00-22:00; Fr 10:00-22:00; Sa 10:00-22:00; Su 10:00-22:00","<MISSING>","page_url:street_address:phone:city"
"https://restaurants.subway.com/bulgaria/sofia/""bulgaria-blvd""-no-69","Bulgaria Mall","""Bulgaria Blvd"" No. 69","<MISSING>","<MISSING>","1000","BG","<MISSING>","098 827 2991","<MISSING>","42.66410815905931","23.28867397140865","https://restaurants.subway.com/","Mo 10:00-22:00; Tu 10:00-22:00; We 10:00-22:00; Th 10:00-22:00; Fr 10:00-22:00; Sa 10:00-22:00; Su 10:00-22:00","<MISSING>","page_url:street_address:phone:city"
"https://restaurants.subway.com/bulgaria/sofia/""sitnyakovo""-no-48","Sitnyakovo 48","""Sitnyakovo"" No. 48","<MISSING>","<MISSING>","1505","BG","<MISSING>","02 495 2374","<MISSING>","42.69160764938022","23.353574894298397","https://restaurants.subway.com/","Mo 10:00-22:00; Tu 10:00-22:00; We 10:00-22:00; Th 10:00-22:00; Fr 10:00-22:00; Sa 10:00-22:00; Su 10:00-22:00","<MISSING>","page_url:street_address:phone:city"
"https://restaurants.subway.com/bulgaria/sofia/""tsarigradsko-shosse""-no-115","The Mall","""Tsarigradsko Shosse"" No. 115","<MISSING>","<MISSING>","1784","BG","<MISSING>","02 878 7939","<MISSING>","42.660497240420185","23.383024239616542","https://restaurants.subway.com/","Mo 10:00-22:00; Tu 10:00-22:00; We 10:00-22:00; Th 10:00-22:00; Fr 10:00-22:00; Sa 10:00-22:00; Su 10:00-22:00","<MISSING>","page_url:street_address:phone:city"
"https://restaurants.subway.com/bulgaria/sofia/15-academic-boris-stefanov-st","15 Academic Boris Stefanov St","15 Academic Boris Stefanov St.","<MISSING>","<MISSING>","1700","BG","<MISSING>","02 961 6011","<MISSING>","42.64995955594967","23.34212500375047","https://restaurants.subway.com/","Mo All Day; Tu All Day; We All Day; Th All Day; Fr All Day; Sa All Day; Su All Day","<MISSING>","page_url:street_address:phone:city"
"https://restaurants.subway.com/bulgaria/sofia/15-tsaritsa-yoanna-blvd","Mega Mall Sofia","15 Tsaritsa Yoanna Blvd.","<MISSING>","<MISSING>","1335","BG","<MISSING>","02 439 0154","<MISSING>","42.710321657978916","23.27112129378343","https://restaurants.subway.com/","Mo 10:00-22:00; Tu 10:00-22:00; We 10:00-22:00; Th 10:00-22:00; Fr 10:00-22:00; Sa 10:00-22:00; Su 10:00-22:00","<MISSING>","page_url:street_address:phone:city"
"https://restaurants.subway.com/bulgaria/sofia/3-business-park-sofia-str","Alexandra Group Building","3 Business Park Sofia Str","<MISSING>","<MISSING>","1000","BG","<MISSING>","<MISSING>","<MISSING>","42.6277509568527","23.374720906683933","https://restaurants.subway.com/","Mo 08:00-21:00; Tu 08:00-21:00; We 08:00-21:00; Th 08:00-21:00; Fr 10:00-20:00; Sa 10:00-20:00; Su 08:00-17:00","<MISSING>","page_url:street_address:phone:city"
"https://restaurants.subway.com/bulgaria/sofia/33-al-sambolijski-blvd","33 Al. Sambolijski Blvd.","33 Al. Sambolijski Blvd.","<MISSING>","<MISSING>","1301","BG","<MISSING>","087 847 5826","<MISSING>","42.6971088","23.3180295","https://restaurants.subway.com/","Mo 08:00-23:00; Tu 08:00-23:00; We 08:00-23:00; Th 08:00-23:00; Fr 08:00-23:00; Sa 08:00-23:00; Su 09:00-23:00","<MISSING>","page_url:street_address:phone:city"
"https://restaurants.subway.com/bulgaria/sofia/35-san-stefano-st","Orlov Most","35 San Stefano St.","<MISSING>","<MISSING>","1509","BG","<MISSING>","088 220 4155","<MISSING>","42.693783","23.332353","https://restaurants.subway.com/","Mo All Day; Tu All Day; We All Day; Th All Day; Fr All Day; Sa All Day; Su All Day","<MISSING>","page_url:street_address:phone:city"
"https://restaurants.subway.com/bulgaria/sofia/89-alexander-stambolijski-blvd","89 Alexander Stambolijski Blvd","89 Alexander Stambolijski Blvd","<MISSING>","<MISSING>","1000","BG","<MISSING>","02 950 6244","<MISSING>","42.69834139588053","23.31007077286722","https://restaurants.subway.com/","Mo All Day; Tu All Day; We All Day; Th All Day; Fr All Day; Sa All Day; Su All Day","<MISSING>","page_url:street_address:phone:city"
"https://restaurants.subway.com/bulgaria/sofia/aleksandar-stamboliiski-blvd","Mall of Sofia","Aleksandar Stamboliiski Blvd.","<MISSING>","<MISSING>","1303","BG","<MISSING>","02 920 0838","<MISSING>","42.697116502911626","23.318037384994103","https://restaurants.subway.com/","Mo 10:00-22:00; Tu 10:00-22:00; We 10:00-22:00; Th 10:00-22:00; Fr 10:00-22:00; Sa 10:00-22:00; Su 10:00-22:00","<MISSING>","page_url:street_address:phone:city"
"https://restaurants.subway.com/bulgaria/sofia/bulgaria-no-1","Sofia Triaditsa Square","Bulgaria No 1","<MISSING>","<MISSING>","1000","BG","<MISSING>","087 769 1075","<MISSING>","42.68559515591604","23.319376519014376","https://restaurants.subway.com/","Mo 00:00-23:59; Tu 00:00-23:59; We 00:00-23:59; Th 00:00-23:59; Fr 00:00-23:59; Sa 00:00-23:59; Su 00:00-23:59","<MISSING>","page_url:street_address:phone:city"
"https://restaurants.subway.com/bulgaria/sofia/cherni-vrah-60","Paradise Center","Cherni Vrah 60","<MISSING>","<MISSING>","1000","BG","<MISSING>","02 423 4998","<MISSING>","42.662978144955545","23.316866586342595","https://restaurants.subway.com/","Mo 10:00-22:00; Tu 10:00-22:00; We 10:00-22:00; Th 10:00-22:00; Fr 10:00-22:00; Sa 10:00-22:00; Su 10:00-22:00","<MISSING>","page_url:street_address:phone:city"
"https://restaurants.subway.com/bulgaria/sofia/ring-road","Ring Road","Ring Road","<MISSING>","<MISSING>","1797","BG","<MISSING>","088 862 9503","<MISSING>","42.640273","23.3156516","https://restaurants.subway.com/","Mo 10:00-22:30; Tu 10:00-22:30; We 10:00-22:30; Th 10:00-22:30; Fr 10:00-22:30; Sa 10:00-22:30; Su 10:00-22:30","<MISSING>","page_url:street_address:phone:city"
"https://restaurants.subway.com/bulgaria/sofia/tsarigradsko-shosse-blvd-7-11","Sofia Outlet Center","Tsarigradsko Shosse Blvd. 7-11","<MISSING>","<MISSING>","1000","BG","<MISSING>","02 902 5000","<MISSING>","42.689821396170935","23.339236359565458","https://restaurants.subway.com/","Mo 10:00-21:00; Tu 10:00-21:00; We 10:00-21:00; Th 10:00-21:00; Fr 10:00-21:00; Sa 10:00-21:00; Su 10:00-21:00","<MISSING>","page_url:street_address:phone:city"
"https://restaurants.subway.com/bulgaria/stara-zagora/30-han-asparuh-str","Galleria Stara Zagora Mall","30 Han Asparuh Str.","<MISSING>","<MISSING>","6000","BG","<MISSING>","087 530 0603","<MISSING>","42.437972","25.632283","https://restaurants.subway.com/","Mo 10:00-22:00; Tu 10:00-22:00; We 10:00-22:00; Th 10:00-22:00; Fr 10:00-22:00; Sa 10:00-22:00; Su 10:00-22:00","<MISSING>","page_url:street_address:phone:city"
"https://restaurants.subway.com/bulgaria/varna/185-slivnitsa-blvd","Delta Planet Mall","185 Slivnitsa Blvd.","<MISSING>","<MISSING>","9000","BG","<MISSING>","052 355 290","<MISSING>","43.2832784","28.0399514","https://restaurants.subway.com/","Mo 10:00-22:00; Tu 10:00-22:00; We 10:00-22:00; Th 10:00-22:00; Fr 10:00-22:00; Sa 10:00-22:00; Su 10:00-22:00","<MISSING>","page_url:street_address:phone:city"
"https://restaurants.subway.com/bulgaria/varna/186-vlvarnenchik-blvd","Mall Varna","186 Vl.Varnenchik Blvd.","<MISSING>","<MISSING>","9000","BG","<MISSING>","088 578 2929","<MISSING>","43.200675","27.905308","https://restaurants.subway.com/","Mo 10:00-22:00; Tu 10:00-22:00; We 10:00-22:00; Th 10:00-22:00; Fr 10:00-22:00; Sa 10:00-22:00; Su 10:00-22:00","<MISSING>","page_url:street_address:phone:city"
"https://restaurants.subway.com/bulgaria/varna/1st-alley-golden-sands","Golden Sands Complex","1st Alley Golden Sands","<MISSING>","<MISSING>","9007","BG","<MISSING>","052 355 118","<MISSING>","43.2858479","28.0350374","https://restaurants.subway.com/","Mo All Day; Tu All Day; We All Day; Th All Day; Fr All Day; Sa All Day; Su All Day","<MISSING>","page_url:street_address:phone:city"
"https://restaurants.subway.com/bulgaria/varna/1st-alley-marina-hotel","Golden Sands","1st Alley Marina Hotel","<MISSING>","<MISSING>","9007","BG","<MISSING>","087 925 5050","<MISSING>","43.28006741225133","28.04214028836058","https://restaurants.subway.com/","Mo All Day; Tu All Day; We All Day; Th All Day; Fr All Day; Sa All Day; Su All Day","<MISSING>","page_url:street_address:phone:city"
"https://restaurants.subway.com/bulgaria/varna/2nd-andrey-saharov-str","Grand Mall of Varna","2nd Andrey Saharov Str.","<MISSING>","<MISSING>","9000","BG","<MISSING>","088 579 2250","<MISSING>","43.21772207551813","27.898196801379584","https://restaurants.subway.com/","Mo 10:00-23:00; Tu 10:00-23:00; We 10:00-23:00; Th 10:00-23:00; Fr 10:00-23:00; Sa 10:00-23:00; Su 10:00-23:00","<MISSING>","page_url:street_address:phone:city"
"https://restaurants.subway.com/bulgaria/varna/41-slivnica-blvd","41 Slivnica Blvd","41 Slivnica Blvd","<MISSING>","<MISSING>","9000","BG","<MISSING>","088 579 9229","<MISSING>","43.20576730400679","27.918993933921115","https://restaurants.subway.com/","Mo All Day; Tu All Day; We All Day; Th All Day; Fr All Day; Sa All Day; Su All Day","<MISSING>","page_url:street_address:phone:city"
"https://restaurants.subway.com/bulgaria/varna/83-8th-primorski-polk-blvd","83 8th Primorski Polk Blvd","83 8th Primorski Polk Blvd","<MISSING>","<MISSING>","9002","BG","<MISSING>","087 686 6013","<MISSING>","43.21019837754141","27.92095364651766","https://restaurants.subway.com/","Mo 08:00-00:00; Tu 08:00-00:00; We 08:00-00:00; Th 08:00-00:00; Fr 08:00-00:00; Sa All Day; Su All Day","<MISSING>","page_url:street_address:phone:city"
"https://restaurants.subway.com/canada/ab/acheson/9817-266-street","Acheson Commercial Corner","9817-266 Street Unit #120","Acheson","AB","T7X 6H6","CA","<MISSING>","(780) 571-1905","<MISSING>","53.537738162520476","-113.76573358895496","https://restaurants.subway.com/","Mo 09:00-17:00; Tu 09:00-17:00; We 09:00-17:00; Th 09:00-17:00; Fr 09:00-17:00; Sa 09:00-15:00; Su Closed","<MISSING>","page_url:street_address:phone:city"
"https://restaurants.subway.com/canada/ab/airdrie/108-edmonton-trail-ne","108 Edmonton Trail NE","108 Edmonton Trail NE Bay E","Airdrie","AB","T4B 1R9","CA","<MISSING>","(403) 948-2912","<MISSING>","51.291779318571045","-114.00089720279408","https://restaurants.subway.com/","Mo 07:00-21:00; Tu 07:00-21:00; We 07:00-21:00; Th 07:00-21:00; Fr 07:00-21:00; Sa 09:00-20:00; Su 09:00-20:00","<MISSING>","page_url:street_address:phone:city"
"https://restaurants.subway.com/canada/ab/airdrie/114-sierra-springs-drive-se","Sierra Springs Shopping Centre","114 Sierra Springs Drive SE Suite 102","Airdrie","AB","T4B 2B5","CA","<MISSING>","(403) 948-0014","<MISSING>","51.269383837813","-114.00300336814166","https://restaurants.subway.com/","Mo 07:00-21:00; Tu 07:00-21:00; We 07:00-21:00; Th 07:00-21:00; Fr 07:00-21:00; Sa 09:00-21:00; Su 09:00-21:00","<MISSING>","page_url:street_address:phone:city"
"https://restaurants.subway.com/canada/ab/airdrie/117-east-lake-crescent-ne","117 East Lake Crescent NE","117 East Lake Crescent NE Suite 201","Airdrie","AB","T2A 2H6","CA","<MISSING>","(403) 945-0755","<MISSING>","51.29059525049593","-113.99844512014477","https://restaurants.subway.com/","Mo 08:00-20:00; Tu 08:00-20:00; We 07:00-20:00; Th 08:00-21:00; Fr 08:00-21:00; Sa 09:00-20:00; Su 09:00-19:00","<MISSING>","page_url:street_address:phone:city"
"https://restaurants.subway.com/canada/ab/airdrie/2100-market-stse","Kingsview Market Square","2100 Market St.SE Unit #109","Airdrie","AB","T4A 0K9","CA","<MISSING>","(403) 912-0759","<MISSING>","51.269360583539736","-113.99437159611921","https://restaurants.subway.com/","Mo 07:00-21:00; Tu 07:00-21:00; We 07:00-21:00; Th 07:00-21:00; Fr 07:00-21:00; Sa 09:00-21:00; Su 09:00-21:00","<MISSING>","page_url:street_address:phone:city"
"https://restaurants.subway.com/canada/ab/airdrie/35-mackenzie-way","Creekside Crossing Shp Ctr","35 Mackenzie Way Suite # 5101","Airdrie","AB","T4B 0V7","CA","<MISSING>","(403) 945-0088","<MISSING>","51.29151469302246","-114.02480005617235","https://restaurants.subway.com/","Mo 08:00-21:00; Tu 08:00-21:00; We 07:00-21:00; Th 08:00-21:00; Fr 08:00-21:00; Sa 09:00-21:00; Su 09:00-20:00","<MISSING>","page_url:street_address:phone:city"
"https://restaurants.subway.com/canada/ab/airdrie/800-yankee-valley-blvd-sw","Bayside Village","800 Yankee Valley Blvd SW Unit 205","Airdrie","AB","T4B3E3","CA","<MISSING>","(587) 775-3600","<MISSING>","51.271147365729036","-114.02773605023589","https://restaurants.subway.com/","Mo 07:00-21:00; Tu 08:00-21:00; We 08:00-21:00; Th 08:00-21:00; Fr 08:00-21:00; Sa 09:00-20:00; Su 09:00-20:00","<MISSING>","page_url:street_address:phone:city"
"https://restaurants.subway.com/canada/ab/athabasca/4812-50th-st","4812 50th St","4812 50th St Unit 103","Athabasca","AB","T9S 1C9","CA","<MISSING>","(780) 675-5588","<MISSING>","54.71850083563217","-113.28541485173048","https://restaurants.subway.com/","Mo 06:00-21:00; Tu 06:00-21:00; We 06:00-21:00; Th 06:00-21:00; Fr 06:00-21:00; Sa 09:00-21:00; Su 09:00-21:00","<MISSING>","page_url:street_address:phone:city"
"https://restaurants.subway.com/canada/ab/banff/137-banff-avenue","Banff National Park","137 Banff Avenue Bay 9","Banff","AB","T1L 1A7","CA","<MISSING>","(403) 985-5589","<MISSING>","51.17654734413401","-115.57150343614427","https://restaurants.subway.com/","Mo 09:00-23:00; Tu 09:00-23:00; We 09:00-23:00; Th 09:00-23:00; Fr 09:00-23:00; Sa 09:00-23:00; Su 09:00-23:00","<MISSING>","page_url:street_address:phone:city"
"https://restaurants.subway.com/canada/ab/banff/317-banff-avenue","Cascade Plaza","317 Banff Avenue Unit C3a","Banff","AB","T1L 1A7","CA","<MISSING>","(403) 985-5599","<MISSING>","51.178762","-115.571375","https://restaurants.subway.com/","Mo 11:00-19:00; Tu 11:00-19:00; We 11:00-19:00; Th 11:00-19:00; Fr 11:00-20:00; Sa 11:00-20:00; Su 11:00-19:00","<MISSING>","page_url:street_address:phone:city"
"https://restaurants.subway.com/canada/ab/barrhead/5307-49-st","5307 49 St","5307 49 St","Barrhead","AB","T7N 1A5","CA","<MISSING>","(780) 674-9482","<MISSING>","54.12367670151251","-114.40246641571957","https://restaurants.subway.com/","Mo 06:00-21:00; Tu 06:00-21:00; We 06:00-21:00; Th 06:00-21:00; Fr 06:00-21:00; Sa 08:00-21:00; Su 09:00-21:00","<MISSING>","page_url:street_address:phone:city"
"https://restaurants.subway.com/canada/ab/bassano/601-12-street","601 12 Street","601 12 Street","Bassano","AB","T0J 0B0","CA","<MISSING>","(403) 641-8667","<MISSING>","50.79122572009184","-112.45096848820333","https://restaurants.subway.com/","Mo 06:00-21:00; Tu 06:00-21:00; We 06:00-21:00; Th 06:00-21:00; Fr 06:00-21:00; Sa 07:00-21:00; Su 07:00-21:00","<MISSING>","page_url:street_address:phone:city"
"https://restaurants.subway.com/canada/ab/beaumont/6110-50th-st","Gallerie Shopping Centre","6110-50th St Suite #102","Beaumont","AB","T4X1T8","CA","<MISSING>","(780) 929-2399","<MISSING>","53.36214124971024","-113.41723658980129","https://restaurants.subway.com/","Mo 08:00-22:00; Tu 08:00-22:00; We 08:00-22:00; Th 08:00-22:00; Fr 08:00-22:00; Sa 08:00-22:00; Su 08:00-22:00","<MISSING>","page_url:street_address:phone:city"
"https://restaurants.subway.com/canada/ab/beaverlodge/1022-1st-ave","1022 - 1st Ave","1022 - 1st Ave","Beaverlodge","AB","T0H 0C0","CA","<MISSING>","(780) 354-2844","<MISSING>","55.21063756594714","-119.43081245153206","https://restaurants.subway.com/","Mo 06:00-22:00; Tu 06:00-22:00; We 06:00-22:00; Th 06:00-22:00; Fr 06:00-22:00; Sa 07:00-22:00; Su 09:00-21:00","<MISSING>","page_url:street_address:phone:city"
"https://restaurants.subway.com/canada/ab/bentley/4930-50th-ave","Not Shopping Plaza","4930 50th Ave","Bentley","AB","T0C0J0","CA","<MISSING>","(403) 748-4272","<MISSING>","52.4653269","-114.048922","https://restaurants.subway.com/","Mo 07:30-21:00; Tu 07:30-21:00; We 07:30-21:00; Th 07:30-21:00; Fr 07:30-21:00; Sa 07:30-21:00; Su 08:00-21:00","<MISSING>","page_url:street_address:phone:city"
"https://restaurants.subway.com/canada/ab/black-diamond/201-government-rd","201 Government Rd","201 Government Rd Bay 4","Black Diamond","AB","T0L 0H0","CA","<MISSING>","(403) 933-3333","<MISSING>","50.687045466533675","-114.23298230365276","https://restaurants.subway.com/","Mo 07:00-21:00; Tu 07:00-21:00; We 07:00-21:00; Th 07:00-21:00; Fr 07:00-22:00; Sa 08:00-22:00; Su 08:00-21:00","<MISSING>","page_url:street_address:phone:city"
"https://restaurants.subway.com/canada/ab/blackfalds/5053-parkwood-rd","5053 Parkwood Rd","5053 Parkwood Rd Bay 4","Blackfalds","AB","T0M 0J0","CA","<MISSING>","(403) 885-5379","<MISSING>","52.382143","-113.7873491","https://restaurants.subway.com/","Mo 07:00-22:00; Tu 07:00-22:00; We 07:00-22:00; Th 07:00-22:00; Fr 07:00-22:00; Sa 08:00-22:00; Su 08:00-21:00","<MISSING>","page_url:street_address:phone:city"
"https://restaurants.subway.com/canada/ab/bonnyville/4803-50-avenue","Bonnyville","4803 50 Avenue","Bonnyville","AB","T9N 2G7","CA","<MISSING>","(780) 826-6446","<MISSING>","54.268187034118306","-110.73508874493302","https://restaurants.subway.com/","Mo 07:00-22:00; Tu 07:00-22:00; We 07:00-22:00; Th 07:00-22:00; Fr 07:00-22:00; Sa 09:00-22:00; Su 09:00-22:00","<MISSING>","page_url:street_address:phone:city"
"https://restaurants.subway.com/canada/ab/bow-island/7th-ave-east-&-2nd-street-east","7th Ave East & 2nd Street East","7th Ave East & 2nd Street East","Bow Island","AB","T0K 0G0","CA","<MISSING>","(403) 584-0022","<MISSING>","49.86710374622714","-111.37490895337294","https://restaurants.subway.com/","Mo 09:00-21:00; Tu 09:00-21:00; We 09:00-21:00; Th 09:00-21:00; Fr 09:00-21:00; Sa 09:00-20:00; Su 09:00-20:00","<MISSING>","page_url:street_address:phone:city"
"https://restaurants.subway.com/canada/ab/bragg-creek/1-white-ave","1 White Ave","1 White Ave Bay 2","Bragg Creek","AB","T0L 0K0","CA","<MISSING>","(403) 949-5654","<MISSING>","50.95194007348178","-114.56051362324382","https://restaurants.subway.com/","Mo 08:00-21:00; Tu 08:00-20:00; We 08:00-21:00; Th 08:00-21:00; Fr 08:00-21:00; Sa 08:00-21:00; Su 08:00-21:00","<MISSING>","page_url:street_address:phone:city"
"https://restaurants.subway.com/canada/ab/brooks/1025-2-street-west","1025-2 Street West","1025-2 Street West","Brooks","AB","T1R0N9","CA","<MISSING>","(403) 362-6555","<MISSING>","50.578862286721346","-111.89782724716349","https://restaurants.subway.com/","Mo 09:00-22:00; Tu 09:00-22:00; We 09:00-22:00; Th 09:00-22:00; Fr 09:00-22:00; Sa 09:00-22:00; Su 09:00-21:00","<MISSING>","page_url:street_address:phone:city"
"https://restaurants.subway.com/canada/ab/calgary/120-5504-macleod-trail-sw","Poplar Centre","#120, 5504 Macleod Trail S.W. Unit # 4","Calgary","AB","T2H0J5","CA","<MISSING>","(403) 252-7760","<MISSING>","51.00491434120675","-114.06936810046395","https://restaurants.subway.com/","Mo 08:00-21:00; Tu 08:00-21:00; We 08:00-21:00; Th 08:00-21:00; Fr 08:00-21:00; Sa 09:00-21:00; Su 09:00-21:00","<MISSING>","page_url:street_address:phone:city"
"https://restaurants.subway.com/canada/ab/calgary/100-anderson-rd-se","Southcentre Mall","100 Anderson Rd SE Space #Fc3","Calgary","AB","T2J 3V1","CA","<MISSING>","(403) 271-3080","<MISSING>","50.95254478101334","-114.06591733791538","https://restaurants.subway.com/","Mo 09:30-19:00; Tu 09:30-19:00; We 09:30-19:00; Th 09:30-19:00; Fr 09:30-19:00; Sa 09:30-19:00; Su 09:30-18:00","<MISSING>","page_url:street_address:phone:city"
"https://restaurants.subway.com/canada/ab/calgary/1000-hamptons-drive-nw","Hamptons Co-op Shopping Centre","1000 Hamptons Drive NW Bay #480","Calgary","AB","T3A 6A7","CA","<MISSING>","(403) 263-2239","<MISSING>","51.14181695087201","-114.13033140082905","https://restaurants.subway.com/","Mo 08:00-23:00; Tu 08:00-00:00; We 08:00-00:00; Th 08:00-00:00; Fr 08:00-00:00; Sa 08:00-00:00; Su 09:00-23:00","<MISSING>","page_url:street_address:phone:city"
"https://restaurants.subway.com/canada/ab/calgary/108-16th-ave-ne","108 16th Ave NE","108 16th Ave NE 101","Calgary","AB","T2E 1J5","CA","<MISSING>","(403) 230-1690","<MISSING>","51.06721565848317","-114.06201291805917","https://restaurants.subway.com/","Mo 07:00-21:30; Tu 07:00-21:30; We 07:00-21:30; Th 07:00-21:30; Fr 07:00-21:30; Sa 08:00-21:30; Su 09:00-21:00","<MISSING>","page_url:street_address:phone:city"
"https://restaurants.subway.com/canada/ab/calgary/10822-50th-street-se","Eastlake Commons","10822 - 50th Street SE 230","Calgary","AB","T2C 2X8","CA","<MISSING>","(587) 296-6611","<MISSING>","50.95641081963246","-113.96111433918509","https://restaurants.subway.com/","Mo 06:00-19:00; Tu 06:00-19:00; We 06:00-19:00; Th 06:00-19:00; Fr 06:00-19:00; Sa 09:00-17:00; Su 10:00-17:00","<MISSING>","page_url:street_address:phone:city"
"https://restaurants.subway.com/canada/ab/calgary/110-2929-sunride-way-ne","Lowe's Sunridge Centre","110-2929 Sunride Way NE Unit E4","Calgary","AB","T1Y 7K7","CA","<MISSING>","(403) 237-8328","<MISSING>","51.06873894669136","-113.99458953556825","https://restaurants.subway.com/","Mo 08:00-20:00; Tu 08:00-20:00; We 08:00-21:00; Th 08:00-21:00; Fr 08:00-21:00; Sa 09:00-20:00; Su 09:00-19:00","<MISSING>","page_url:street_address:phone:city"
"https://restaurants.subway.com/canada/ab/calgary/1110-panatella-blvd-nw","Gates of Panorama Hills","1110 Panatella Blvd N.W. #210","Calgary","AB","T3K 6K6","CA","<MISSING>","(403) 730-1800","<MISSING>","51.16826008665013","-114.08976387098119","https://restaurants.subway.com/","Mo 07:00-22:00; Tu 07:00-22:00; We 07:00-22:00; Th 07:00-22:00; Fr 07:00-22:00; Sa 08:00-22:00; Su 09:00-21:00","<MISSING>","page_url:street_address:phone:city"
"https://restaurants.subway.com/canada/ab/calgary/11135-14th-street-ne","The District","11135 14th Street NE 200, Unit A-102","Calgary","AB","T3K 0Z7","CA","<MISSING>","(587) 230-0213","<MISSING>","51.15308038894442","-114.02999396334536","https://restaurants.subway.com/","Mo 09:00-21:00; Tu 09:00-21:00; We 09:00-21:00; Th 09:00-21:00; Fr 09:00-21:00; Sa 09:00-21:00; Su 09:00-21:00","<MISSING>","page_url:street_address:phone:city"
"https://restaurants.subway.com/canada/ab/calgary/11300-tuscany-blvd-nw","Tuscany Market","11300 Tuscany Blvd NW Unit 1070","Calgary","AB","T3V 2V7","CA","<MISSING>","(403) 239-7620","<MISSING>","51.1241428","-114.2487368","https://restaurants.subway.com/","Mo 09:00-21:00; Tu 09:00-21:00; We 09:00-21:00; Th 09:00-21:00; Fr 09:00-21:00; Sa 09:00-21:00; Su 09:00-21:00","<MISSING>","page_url:street_address:phone:city"
"https://restaurants.subway.com/canada/ab/calgary/11440-braeside-dr-sw","Brae Centre Shopping Plaza","11440 Braeside Dr SW Suite 7","Calgary","AB","T2W 3N4","CA","<MISSING>","(403) 281-5401","<MISSING>","50.95334043608411","-114.11590486862713","https://restaurants.subway.com/","Mo 07:00-23:00; Tu 07:00-23:00; We 07:00-23:00; Th 07:00-23:00; Fr 07:00-23:00; Sa 08:00-23:00; Su 09:00-23:00","<MISSING>","page_url:street_address:phone:city"
"https://restaurants.subway.com/canada/ab/calgary/11566-24th-st-se","Douglas Square","11566 24th St SE 230","Calgary","AB","T2Z 3J3","CA","<MISSING>","(780) 791-7795","<MISSING>","50.950866860327444","-114.00191766794046","https://restaurants.subway.com/","Mo 08:00-20:00; Tu 08:00-20:00; We 08:00-20:00; Th 08:00-20:00; Fr 08:00-20:00; Sa 09:00-20:00; Su 09:00-20:00","<MISSING>","page_url:street_address:phone:city"
"https://restaurants.subway.com/canada/ab/calgary/11595-rocky-valley-dr-nw","Rocky Ridge Retail Centre","11595 Rocky Valley Dr NW Unit 2014","Calgary","AB","T3G 5Y6","CA","<MISSING>","(403) 241-8307","<MISSING>","51.148108262304646","-114.2564452378711","https://restaurants.subway.com/","Mo 08:00-21:00; Tu 08:00-21:00; We 08:00-21:00; Th 08:00-22:00; Fr 08:00-22:00; Sa 08:00-21:00; Su 09:00-21:00","<MISSING>","page_url:street_address:phone:city"
"https://restaurants.subway.com/canada/ab/calgary/11625-elbow-dr-sw","11625 Elbow Dr SW","11625 Elbow Dr SW Unit 103","Calgary","AB","T2W 0S2","CA","<MISSING>","(403) 238-4431","<MISSING>","50.94837428942729","-114.08602173676775","https://restaurants.subway.com/","Mo 08:00-22:00; Tu 08:00-22:00; We 08:00-22:00; Th 08:00-23:00; Fr 08:00-00:00; Sa 09:00-00:00; Su 09:00-22:00","<MISSING>","page_url:street_address:phone:city"
"https://restaurants.subway.com/canada/ab/calgary/11658-sarcee-trail-nw","Beacon Hill Centre","11658 Sarcee Trail NW Bldg. E305, Unit No. 120","Calgary","AB","T3R 0A1","CA","<MISSING>","(403) 295-7550","<MISSING>","51.15642141823721","-114.1581406503318","https://restaurants.subway.com/","Mo 07:00-22:00; Tu 07:00-22:00; We 07:00-22:00; Th 07:00-22:00; Fr 07:00-22:00; Sa 08:00-22:00; Su 09:00-22:00","<MISSING>","page_url:street_address:phone:city"
"https://restaurants.subway.com/canada/ab/calgary/11988-symons-valley-rd-nw","Creekside Shopping Centre","11988 Symons Valley Rd NW Unit 114","Calgary","AB","T3P 0A3","CA","<MISSING>","(403) 295-3324","<MISSING>","51.16079216177049","-114.12235294121143","https://restaurants.subway.com/","Mo 07:00-22:00; Tu 07:00-22:00; We 07:00-22:00; Th 07:00-22:00; Fr 07:00-22:00; Sa 08:00-22:00; Su 09:00-22:00","<MISSING>","page_url:street_address:phone:city"
"https://restaurants.subway.com/canada/ab/calgary/1216-16th-ave-nw","1216 16th Ave NW","1216 16th Ave NW Unit 1807","Calgary","AB","T2M 0K9","CA","<MISSING>","(403) 282-9566","<MISSING>","51.067308496590556","-114.08826749570085","https://restaurants.subway.com/","Mo 08:00-02:00; Tu 08:00-02:00; We 08:00-02:00; Th 08:00-02:00; Fr 08:00-02:00; Sa 09:00-02:00; Su 09:00-02:00","<MISSING>","page_url:street_address:phone:city"
"https://restaurants.subway.com/canada/ab/calgary/1301-16th-avenue-nw","Johnson Cobb Building","1301 16th Avenue NW Unit 1807","Calgary","AB","T2M 0L4","CA","<MISSING>","(403) 220-1917","<MISSING>","51.06480157564064","-114.09112981481934","https://restaurants.subway.com/","Mo 09:00-15:00; Tu 09:00-15:00; We 09:00-15:00; Th 09:00-15:00; Fr 09:00-15:00; Sa Closed; Su Closed","<MISSING>","page_url:street_address:phone:city"
"https://restaurants.subway.com/canada/ab/calgary/1313-1-street-sw","Union Square CRU","1313 - 1 Street SW Unit# 120","Calgary","AB","T2R 0W3","CA","<MISSING>","(403) 457-3388","<MISSING>","51.04036124962383","-114.06608708130017","https://restaurants.subway.com/","Mo 09:00-21:00; Tu 09:00-21:00; We 09:00-21:00; Th 09:00-21:00; Fr 09:00-21:00; Sa 09:00-21:00; Su 09:00-21:00","<MISSING>","page_url:street_address:phone:city"
"https://restaurants.subway.com/canada/ab/calgary/1330-15th-ave-sw","Wellington Square","1330 15th Ave SW #103","Calgary","AB","T3C 3N6","CA","<MISSING>","(403) 228-0390","<MISSING>","51.0397318","-114.0942584","https://restaurants.subway.com/","Mo 08:00-00:00; Tu 08:00-01:00; We 08:00-01:00; Th 08:00-01:00; Fr 08:00-01:00; Sa 09:00-01:00; Su 00:00-01:00 09:00-22:00","<MISSING>","page_url:street_address:phone:city"
"https://restaurants.subway.com/canada/ab/calgary/13417-52nd-street-se","Lowe's #2953","13417 52nd Street SE Unit 13","Calgary","AB","T2Z 0B2","CA","<MISSING>","(403) 279-0450","<MISSING>","50.929404599536966","-113.96066862767856","https://restaurants.subway.com/","Mo 08:00-21:00; Tu 08:00-21:00; We 08:00-21:00; Th 08:00-21:00; Fr 08:00-21:00; Sa 08:00-21:00; Su 09:00-20:00","<MISSING>","page_url:street_address:phone:city"
"https://restaurants.subway.com/canada/ab/calgary/136-30-springborough-blvd-sw","Springborough Professional","136-30 Springborough Blvd SW Unit #120","Calgary","AB","T3H0N9","CA","<MISSING>","(403) 242-0220","<MISSING>","51.03469127496133","-114.19164689644731","https://restaurants.subway.com/","Mo 08:00-22:00; Tu 08:00-22:00; We 08:00-22:00; Th 08:00-22:00; Fr 08:00-22:00; Sa 09:00-22:00; Su 09:00-21:00","<MISSING>","page_url:street_address:phone:city"
"https://restaurants.subway.com/canada/ab/calgary/141-crowfoot-way-nw-6","Crowfoot Auto Ctr","141 Crowfoot Way NW 6 Unit 1070","Calgary","AB","T3G 4B7","CA","<MISSING>","(403) 239-6276","<MISSING>","51.1255444893321","-114.20786579491698","https://restaurants.subway.com/","Mo 09:00-21:00; Tu 09:00-21:00; We 09:00-21:00; Th 09:00-21:00; Fr 09:00-21:00; Sa 09:00-21:00; Su 10:00-21:00","<MISSING>","page_url:street_address:phone:city"
"https://restaurants.subway.com/canada/ab/calgary/142-4242-7th-st-se","Mac's C-Store","142, 4242 7th St SE","Calgary","AB","T2G 2Y8","CA","<MISSING>","(403) 207-9215","<MISSING>","51.016569","-114.045281","https://restaurants.subway.com/","Mo 06:00-20:00; Tu 06:00-20:00; We 06:00-20:00; Th 06:00-20:00; Fr 06:00-20:00; Sa 07:00-18:00; Su 07:00-17:00","<MISSING>","page_url:street_address:phone:city"
"https://restaurants.subway.com/canada/ab/calgary/1421-kensington-rd-nw","1421 Kensington Rd NW","1421 Kensington Rd NW","Calgary","AB","T2N 3R1","CA","<MISSING>","(403) 270-9617","<MISSING>","51.052351946068626","-114.09350641939074","https://restaurants.subway.com/","Mo 07:00-04:00; Tu 07:00-04:00; We 07:00-04:00; Th 07:00-04:00; Fr 07:00-04:00; Sa 08:00-04:00; Su 09:00-04:00","<MISSING>","page_url:street_address:phone:city"
"https://restaurants.subway.com/canada/ab/calgary/1440-52nd-st-ne","Trans Canada Centre","1440 52nd St NE Unit 178/C01178a","Calgary","AB","T2A 4T8","CA","<MISSING>","(403) 569-9393","<MISSING>","51.063492801197754","-113.95614946011915","https://restaurants.subway.com/","Mo 08:00-00:00; Tu 08:00-00:00; We 08:00-00:00; Th 08:00-00:00; Fr 08:00-00:00; Sa 08:00-00:00; Su 08:00-00:00","<MISSING>","page_url:street_address:phone:city"
"https://restaurants.subway.com/canada/ab/calgary/1470-7-mahogany-plaza-se","Mahogany Village Market","1470 #7 Mahogany Plaza SE #344","Calgary","AB","T3M 2P8","CA","<MISSING>","(587) 535-8887","<MISSING>","50.89923535643346","-113.94319056073215","https://restaurants.subway.com/","Mo 07:00-23:00; Tu 07:00-23:00; We 07:00-23:00; Th 07:00-22:30; Fr 07:00-23:00; Sa 07:00-23:00; Su 07:00-23:00","<MISSING>","page_url:street_address:phone:city"
"https://restaurants.subway.com/canada/ab/calgary/14919-deer-ridge-dr-se","Deer Point Plaza","14919 Deer Ridge Dr SE Suite # B103","Calgary","AB","T2J 7C4","CA","<MISSING>","(403) 271-0027","<MISSING>","50.92998687694473","-114.02536531768749","https://restaurants.subway.com/","Mo 09:00-21:00; Tu 09:00-21:00; We 09:00-21:00; Th 09:00-21:00; Fr 09:00-21:00; Sa 09:00-21:00; Su 09:00-21:00","<MISSING>","page_url:street_address:phone:city"
"https://restaurants.subway.com/canada/ab/calgary/15-sunpark-plaza-se","Sundance Place 6000","15 Sunpark Plaza SE Unit #6103","Calgary","AB","T2X 0M5","CA","<MISSING>","(403) 931-8880","<MISSING>","50.905354341639296","-114.05881977841156","https://restaurants.subway.com/","Mo 07:00-22:00; Tu 07:00-22:00; We 07:00-22:00; Th 07:00-22:00; Fr 07:00-22:00; Sa 08:00-22:00; Su 09:00-21:00","<MISSING>","page_url:street_address:phone:city"
"https://restaurants.subway.com/canada/ab/calgary/150-6th-ave-sw","Suncor Energy Centre","150 6th Ave SW Unit 225","Calgary","AB","T2P 3Y7","CA","<MISSING>","(403) 263-3335","<MISSING>","51.04823889182953","-114.06441026256562","https://restaurants.subway.com/","Mo 09:00-15:00; Tu 09:00-15:00; We 09:00-15:00; Th 09:00-15:00; Fr 09:00-14:00; Sa Closed; Su Closed","<MISSING>","page_url:street_address:phone:city"
"https://restaurants.subway.com/canada/ab/calgary/151-walden-gate-se","Gates of Walden","151 Walden Gate S.E Unit #410","Calgary","AB","T2X 0R2","CA","<MISSING>","(403) 262-1640","<MISSING>","50.87561441554919","-114.03806044311284","https://restaurants.subway.com/","Mo 07:00-22:00; Tu 07:00-22:00; We 07:00-22:00; Th 07:00-22:00; Fr 07:00-22:00; Sa 08:00-22:00; Su 08:00-22:00","<MISSING>","page_url:street_address:phone:city"
"https://restaurants.subway.com/canada/ab/calgary/1600-90th-avenue-sw","Glenmore Landing","1600 90th Avenue SW Unit # A102","Calgary","AB","T2V 5A8","CA","<MISSING>","(403) 719-3594","<MISSING>","50.9740546","-114.0988123","https://restaurants.subway.com/","Mo 09:00-21:00; Tu 09:00-21:00; We 09:00-21:00; Th 09:00-21:00; Fr 09:00-21:00; Sa 09:00-21:00; Su 09:00-21:00","<MISSING>","page_url:street_address:phone:city"
"https://restaurants.subway.com/canada/ab/calgary/16th-ave-nw-&-14th-ave-nw","North Hill Centre","16th Ave NW & 14th Ave NW Unit 1807","Calgary","AB","T2N 1M7","CA","<MISSING>","(403) 457-1375","<MISSING>","51.06584470016871","-114.102183199061","https://restaurants.subway.com/","Mo 10:00-19:30; Tu 10:00-19:30; We 10:00-19:30; Th 10:00-19:30; Fr 10:00-19:30; Sa 10:00-18:00; Su 11:00-17:00","<MISSING>","page_url:street_address:phone:city"
"https://restaurants.subway.com/canada/ab/calgary/18-7750-ranchview-drive-nw","Ranchlands","18, 7750 Ranchview Drive NW","Calgary","AB","T3G1Y9","CA","<MISSING>","(403) 452-4443","<MISSING>","51.12078140244877","-114.18050091307191","https://restaurants.subway.com/","Mo 08:00-21:00; Tu 08:00-21:00; We 08:00-21:00; Th 08:00-21:00; Fr 08:00-21:00; Sa 09:00-21:00; Su 09:00-20:00","<MISSING>","page_url:street_address:phone:city"
"https://restaurants.subway.com/canada/ab/calgary/1923-centre-street-nw","1923 Centre Street NW","1923 Centre Street NW 101","Calgary","AB","T2E2S7","CA","<MISSING>","(403) 457-3635","<MISSING>","51.0695617","-114.0631063","https://restaurants.subway.com/","Mo 07:00-22:00; Tu 07:00-22:00; We 07:00-22:00; Th 07:00-22:00; Fr 07:00-22:00; Sa 08:00-22:00; Su 09:00-21:00","<MISSING>","page_url:street_address:phone:city"
"https://restaurants.subway.com/canada/ab/calgary/19369-sheriff-king-street-sw","Silverado Marketplace","19369 Sheriff King Street SW Unit #602","Calgary","AB","T2X 0T9","CA","<MISSING>","(403) 294-1145","<MISSING>","50.87971390200274","-114.07125657866919","https://restaurants.subway.com/","Mo 09:00-21:00; Tu 09:00-21:00; We 09:00-21:00; Th 09:00-21:00; Fr 09:00-21:00; Sa 09:00-21:00; Su 09:00-21:00","<MISSING>","page_url:street_address:phone:city"
"https://restaurants.subway.com/canada/ab/calgary/19489-seton-crescent-se","19489 Seton Crescent SE","19489 Seton Crescent SE #344","Calgary","AB","T3M 1T4","CA","<MISSING>","(403) 726-6335","<MISSING>","50.881015237720774","-113.95737196072952","https://restaurants.subway.com/","Mo All Day; Tu All Day; We All Day; Th All Day; Fr All Day; Sa All Day; Su All Day","<MISSING>","page_url:street_address:phone:city"
"https://restaurants.subway.com/canada/ab/calgary/200-barclay-parade-sw","Eau Claire Market","200 Barclay Parade SW Unit 185 (F06)","Calgary","AB","T2P 4R5","CA","<MISSING>","(403) 263-5676","<MISSING>","51.05260655114718","-114.06838550551748","https://restaurants.subway.com/","Mo 10:00-16:00; Tu 10:00-16:00; We 10:00-16:00; Th 10:00-16:00; Fr 10:00-16:00; Sa 10:00-17:00; Su 10:00-17:00","<MISSING>","page_url:street_address:phone:city"
"https://restaurants.subway.com/canada/ab/calgary/2000-airport-rd-ne-15049-0","Calgary Int'L Airport-Mezzanin","2000 Airport Rd NE Rm M49e05","Calgary","AB","T2E 6W5","CA","<MISSING>","(403) 291-2398","<MISSING>","51.130341","-114.008556","https://restaurants.subway.com/","Mo 08:00-20:00; Tu 08:00-20:00; We 08:00-20:00; Th 08:00-20:00; Fr 08:00-20:00; Sa 08:00-20:00; Su 08:00-20:00","<MISSING>","page_url:street_address:phone:city"
"https://restaurants.subway.com/canada/ab/calgary/2000-airport-rd-ne-27704-0","Calgary Int'L Airport","2000 Airport Rd NE Rm D80k03 - Concourse A","Calgary","AB","T2E 6W5","CA","<MISSING>","(403) 291-6732","<MISSING>","51.132546","-114.011888","https://restaurants.subway.com/","Mo Closed; Tu Closed; We Closed; Th Closed; Fr Closed; Sa Closed; Su Closed","<MISSING>","page_url:street_address:phone:city"
"https://restaurants.subway.com/canada/ab/calgary/2000-airport-road-ne","Calgary International Airport","2000 Airport Road NE Air Terminal Bldg Fc-04","Calgary","AB","T2E 6W5","CA","<MISSING>","(403) 765-4859","<MISSING>","51.130311","-114.008546","https://restaurants.subway.com/","Mo 08:00-16:00; Tu 08:00-16:00; We 08:00-16:00; Th 08:00-16:00; Fr 08:00-16:00; Sa 08:00-16:00; Su 08:00-16:00","<MISSING>","page_url:street_address:phone:city"
"https://restaurants.subway.com/canada/ab/calgary/2060-symons-valley-parkway-nw","Evanston Towne Centre","2060 Symons Valley Parkway NW Unit #3006","Calgary","AB","T3P 0C3","CA","<MISSING>","(587) 755-5399","<MISSING>","51.174320595827545","-114.10837062578827","https://restaurants.subway.com/","Mo 07:00-22:00; Tu 07:00-22:00; We 07:00-22:00; Th 07:00-22:00; Fr 07:00-22:00; Sa 08:00-22:00; Su 08:30-22:00","<MISSING>","page_url:street_address:phone:city"
"https://restaurants.subway.com/canada/ab/calgary/2066-18th-ave-ne","2066 18th Ave NE","2066 18th Ave NE #106","Calgary","AB","T2E 8N5","CA","<MISSING>","(403) 250-9799","<MISSING>","51.0693243815697","-114.01260467074331","https://restaurants.subway.com/","Mo 08:00-22:00; Tu 08:00-22:00; We 08:00-22:00; Th 08:00-22:00; Fr 08:00-22:00; Sa 09:00-20:00; Su 10:00-20:00","<MISSING>","page_url:street_address:phone:city"
"https://restaurants.subway.com/canada/ab/calgary/2105-33rd-ave-sw","Marda Loop Village","2105 33rd Ave SW Wyckham House","Calgary","AB","T2T 1Z7","CA","<MISSING>","(403) 246-1676","<MISSING>","51.02383511310923","-114.109947271755","https://restaurants.subway.com/","Mo 07:00-22:00; Tu 07:00-22:00; We 07:00-22:00; Th 07:00-22:00; Fr 07:00-22:00; Sa 08:00-22:00; Su 09:00-21:00","<MISSING>","page_url:street_address:phone:city"
"https://restaurants.subway.com/canada/ab/calgary/216-saddletowne-circle-ne","216 Saddletowne Circle NE","216 Saddletowne Circle NE Unit #129","Calgary","AB","T3J 4K6","CA","<MISSING>","(403) 590-7821","<MISSING>","51.12447324875088","-113.94779922161024","https://restaurants.subway.com/","Mo 07:00-22:30; Tu 07:00-22:30; We 07:00-22:30; Th 07:00-23:00; Fr 07:00-23:00; Sa 08:00-23:00; Su 09:00-22:30","<MISSING>","page_url:street_address:phone:city"
"https://restaurants.subway.com/canada/ab/calgary/2220-68th-st-ne","Monterey Square","2220 68th St NE Unit 901","Calgary","AB","T1Y 6Y7","CA","<MISSING>","(403) 293-1111","<MISSING>","51.06962324057938","-113.93290703696346","https://restaurants.subway.com/","Mo 08:00-23:00; Tu 08:00-00:00; We 08:00-00:00; Th 08:00-00:00; Fr 08:00-00:00; Sa 08:00-00:00; Su 09:00-23:00","<MISSING>","page_url:street_address:phone:city"
"https://restaurants.subway.com/canada/ab/calgary/225-7th-avenue-sw","Scotia Centre","225-7th Avenue SW Unit #125","Calgary","AB","T2P 2W3","CA","<MISSING>","(403) 234-7710","<MISSING>","51.04648121581258","-114.06743594702299","https://restaurants.subway.com/","Mo 06:00-19:00; Tu 06:00-19:00; We 06:00-19:00; Th 06:00-19:00; Fr 06:00-19:00; Sa 09:00-17:00; Su 11:00-16:00","<MISSING>","page_url:street_address:phone:city"
"https://restaurants.subway.com/canada/ab/calgary/2317-4th-street-sw","Trolley Square","2317 4th Street SW SW","Calgary","AB","T2S 3B4","CA","<MISSING>","(403) 228-9933","<MISSING>","51.03187495068419","-114.07174227056964","https://restaurants.subway.com/","Mo 07:30-23:00; Tu 07:30-23:00; We 07:30-00:00; Th All Day; Fr All Day; Sa All Day; Su 00:00-22:00","<MISSING>","page_url:street_address:phone:city"
"https://restaurants.subway.com/canada/ab/calgary/2323-32nd-ave-ne","Airways Mall","2323 32nd Ave NE Suite 105","Calgary","AB","T2E 6Z3","CA","<MISSING>","(403) 250-1629","<MISSING>","51.080918406149976","-114.00621281797964","https://restaurants.subway.com/","Mo 08:00-23:00; Tu 08:00-23:00; We 08:00-23:00; Th 08:00-23:00; Fr 08:00-23:00; Sa 09:00-22:00; Su 09:00-22:00","<MISSING>","page_url:street_address:phone:city"
"https://restaurants.subway.com/canada/ab/calgary/2335-162nd-ave-sw","Bridlewood Shopping Center","2335 162nd Ave SW #503","Calgary","AB","T2Y 4S6","CA","<MISSING>","(403) 201-6404","<MISSING>","50.9060719","-114.1110037","https://restaurants.subway.com/","Mo 09:00-21:30; Tu 09:00-21:30; We 09:00-21:30; Th 09:00-21:30; Fr 09:00-21:30; Sa 10:00-21:30; Su 10:00-21:30","<MISSING>","page_url:street_address:phone:city"
"https://restaurants.subway.com/canada/ab/calgary/2500-university-dr-nw","University of Calgary","2500 University Dr NW Macewan Student Ctr Unit #115A","Calgary","AB","T2H 1H4","CA","<MISSING>","(403) 220-1042","<MISSING>","51.078528000000006","-114.13045299999999","https://restaurants.subway.com/","Mo 08:00-17:00; Tu 08:00-17:00; We 08:00-17:00; Th 08:00-17:00; Fr 08:00-17:00; Sa 08:00-15:00; Su 08:00-15:00","<MISSING>","page_url:street_address:phone:city"
"https://restaurants.subway.com/canada/ab/calgary/2515-90-ave-sw","2515 90 Ave SW","2515 90 Ave SW Unit # A102","Calgary","AB","T2V 0L8","CA","<MISSING>","(403) 238-4727","<MISSING>","50.97192697616878","-114.12030108465575","https://restaurants.subway.com/","Mo 09:00-21:00; Tu 09:00-21:00; We 09:00-21:00; Th 09:00-21:00; Fr 09:00-21:00; Sa 09:00-21:00; Su 09:00-21:00","<MISSING>","page_url:street_address:phone:city"
"https://restaurants.subway.com/canada/ab/calgary/2525-36th-street","Sunridge Mall Food Court","2525 36th Street Unit # F114","Calgary","AB","T1Y 5T4","CA","<MISSING>","(403) 280-0755","<MISSING>","51.07448974915436","-113.9855009128243","https://restaurants.subway.com/","Mo 10:00-20:00; Tu 10:00-20:00; We 10:00-20:00; Th 10:00-20:00; Fr 10:00-20:00; Sa 10:00-20:00; Su 11:00-17:00","<MISSING>","page_url:street_address:phone:city"
"https://restaurants.subway.com/canada/ab/calgary/255-28th-st-se","255 - 28th St SE","255 - 28th St SE Unit 308","Calgary","AB","T2A 5K4","CA","<MISSING>","(403) 248-0585","<MISSING>","51.05033745816884","-113.99337296199133","https://restaurants.subway.com/","Mo 08:30-21:00; Tu 08:30-21:00; We 08:30-21:00; Th 08:30-21:00; Fr 08:30-21:00; Sa 08:30-19:30; Su 09:00-19:30","<MISSING>","page_url:street_address:phone:city"
"https://restaurants.subway.com/canada/ab/calgary/2640-52nd-st-ne","Village Square Shopping Ctr","2640 52nd St NE Bay F005","Calgary","AB","T1Y 3R6","CA","<MISSING>","(403) 280-7746","<MISSING>","51.07558530607796","-113.95634695768211","https://restaurants.subway.com/","Mo 11:00-16:00; Tu 11:00-16:00; We 11:00-16:00; Th 11:00-16:00; Fr 11:00-16:00; Sa 11:00-15:00; Su Closed","<MISSING>","page_url:street_address:phone:city"
"https://restaurants.subway.com/canada/ab/calgary/275-shawville-blvd-se","RioCan Shawnessy Centre","275 Shawville Blvd SE Bay 3","Calgary","AB","T2Y 3H9","CA","<MISSING>","(403) 452-9571","<MISSING>","50.90173673948524","-114.06794024902109","https://restaurants.subway.com/","Mo 08:00-22:00; Tu 08:00-22:00; We 08:00-22:00; Th 08:00-22:00; Fr 08:00-22:00; Sa 09:00-22:00; Su 09:00-21:00","<MISSING>","page_url:street_address:phone:city"
"https://restaurants.subway.com/canada/ab/calgary/28-high-st-se","McKenzie Towne Centre","28 High St SE Unit 13","Calgary","AB","T2Z 3T8","CA","<MISSING>","(403) 257-8833","<MISSING>","50.91563735776132","-113.96012474436998","https://restaurants.subway.com/","Mo 07:00-22:00; Tu 07:00-22:00; We 07:00-22:00; Th 07:00-22:00; Fr 07:00-22:00; Sa 08:00-22:00; Su 08:00-21:00","<MISSING>","page_url:street_address:phone:city"
"https://restaurants.subway.com/canada/ab/calgary/306-aspen-glen-landing-sw","306 Aspen Glen Landing SW","306 Aspen Glen Landing SW Unit #120","Calgary","AB","T3H 0N5","CA","<MISSING>","(403) 217-0234","<MISSING>","51.039013166876245","-114.20762281525401","https://restaurants.subway.com/","Mo 08:00-23:00; Tu 08:00-00:00; We 08:00-00:00; Th 08:00-00:00; Fr 08:00-00:00; Sa 08:00-00:00; Su 09:00-23:00","<MISSING>","page_url:street_address:phone:city"
"https://restaurants.subway.com/canada/ab/calgary/3110-36-street-se","Centex Dover -","3110 36 Street SE Bay #2","Calgary","AB","T2B 3B6","CA","<MISSING>","(403) 272-6162","<MISSING>","51.0266158","-113.9811354","https://restaurants.subway.com/","Mo 09:00-21:00; Tu 09:00-21:00; We 09:00-22:00; Th 09:00-21:00; Fr 09:00-22:00; Sa 09:00-21:00; Su 10:00-21:00","<MISSING>","page_url:street_address:phone:city"
"https://restaurants.subway.com/canada/ab/calgary/315-8th-avenue","Bankers Hall West Retail","315 8th Avenue Unit #367","Calgary","AB","T2P 4K1","CA","<MISSING>","(403) 264-8565","<MISSING>","51.0453225444396","-114.06903002155354","https://restaurants.subway.com/","Mo 09:00-16:00; Tu 09:00-16:00; We 09:00-16:00; Th 09:00-16:00; Fr 09:00-15:00; Sa Closed; Su Closed","<MISSING>","page_url:street_address:phone:city"
"https://restaurants.subway.com/canada/ab/calgary/3174-sunridge-blvd-ne","Sunridge Corner","3174 Sunridge Blvd NE Unit # F114","Calgary","AB","T1Y 7G6","CA","<MISSING>","(403) 250-5295","<MISSING>","51.07627591025265","-113.99000064909114","https://restaurants.subway.com/","Mo 07:00-21:00; Tu 07:00-21:00; We 07:00-21:00; Th 07:00-21:00; Fr 07:00-21:00; Sa 08:00-21:00; Su 09:00-21:00","<MISSING>","page_url:street_address:phone:city"
"https://restaurants.subway.com/canada/ab/calgary/350-shawville-blvd-se","RioCan Shawnessy Centre","350 Shawville Blvd SE #260, Site 1","Calgary","AB","T2Y 3S4","CA","<MISSING>","(403) 201-1116","<MISSING>","50.89820716452202","-114.06199537307396","https://restaurants.subway.com/","Mo 08:00-22:00; Tu 08:00-22:00; We 08:00-22:00; Th 08:00-22:00; Fr 08:00-22:00; Sa 09:00-21:30; Su 09:00-21:00","<MISSING>","page_url:street_address:phone:city"
"https://restaurants.subway.com/canada/ab/calgary/3500-24th-ave-nw","The University of Calgary","3500 24th Ave NW Yamnuska Hall","Calgary","AB","T2N 4V5","CA","<MISSING>","(403) 474-7242","<MISSING>","51.07487517960225","-114.13665190096856","https://restaurants.subway.com/","Mo 09:00-20:00; Tu 09:00-20:00; We 09:00-20:00; Th 09:00-20:00; Fr 09:00-20:00; Sa 09:00-20:00; Su 09:00-20:00","<MISSING>","page_url:street_address:phone:city"
"https://restaurants.subway.com/canada/ab/calgary/356-cranston-road-se","Cranston Market","356 Cranston Road SE #344","Calgary","AB","T3M 0J4","CA","<MISSING>","(403) 236-8833","<MISSING>","50.880142307912244","-113.97760627116395","https://restaurants.subway.com/","Mo 07:00-22:00; Tu 07:00-22:00; We 07:00-22:00; Th 07:00-22:00; Fr 07:00-22:00; Sa 08:00-22:00; Su 09:00-21:00","<MISSING>","page_url:street_address:phone:city"
"https://restaurants.subway.com/canada/ab/calgary/3611-17th-ave-se","3611 17th Ave SE","3611 17th Ave SE Unit 308","Calgary","AB","T2A 0R8","CA","<MISSING>","(403) 569-2168","<MISSING>","51.03741939218942","-113.98228851777367","https://restaurants.subway.com/","Mo 08:00-23:00; Tu 08:00-23:00; We 08:00-23:00; Th 08:00-23:00; Fr 08:00-23:00; Sa 08:00-23:00; Su 09:00-23:00","<MISSING>","page_url:street_address:phone:city"
"https://restaurants.subway.com/canada/ab/calgary/3616-52nd-ave-nw","3616 52nd Ave NW","3616 52nd Ave NW Bay 7","Calgary","AB","T2L 1V9","CA","<MISSING>","(403) 282-5685","<MISSING>","51.10137253320483","-114.13984965856116","https://restaurants.subway.com/","Mo 10:00-20:00; Tu 10:00-20:00; We 10:00-20:00; Th 10:00-20:00; Fr 10:00-20:00; Sa 10:00-20:00; Su 10:00-20:00","<MISSING>","page_url:street_address:phone:city"
"https://restaurants.subway.com/canada/ab/calgary/3619-61st-ave-se","Foothills Crossing","3619 61st Ave SE Suite 210","Calgary","AB","T2C 4T8","CA","<MISSING>","(403) 720-6022","<MISSING>","50.998396135163446","-113.98115803086341","https://restaurants.subway.com/","Mo 06:00-21:00; Tu 06:00-21:00; We 06:00-21:00; Th 06:00-21:00; Fr 06:00-21:00; Sa 09:00-17:00; Su 11:00-17:00","<MISSING>","page_url:street_address:phone:city"
"https://restaurants.subway.com/canada/ab/calgary/3625-shaganappi-tr-nw","Market Mall","3625 Shaganappi Tr NW #8","Calgary","AB","T3A 0E2","CA","<MISSING>","(403) 202-7384","<MISSING>","51.08484","-114.154476","https://restaurants.subway.com/","Mo 10:30-19:00; Tu 10:30-19:00; We 10:30-19:00; Th 10:30-19:00; Fr 10:30-19:00; Sa 10:30-19:00; Su 10:30-18:00","<MISSING>","page_url:street_address:phone:city"
"https://restaurants.subway.com/canada/ab/calgary/3701-17th-ave-sw","3701 17th Ave SW","3701 17th Ave SW Unit 9","Calgary","AB","T3E 0C1","CA","<MISSING>","(403) 249-7902","<MISSING>","51.037538928753946","-114.14004877728081","https://restaurants.subway.com/","Mo 07:00-22:00; Tu 07:00-22:00; We 07:00-22:00; Th 07:00-22:00; Fr 07:00-22:00; Sa 08:00-22:00; Su 09:00-21:00","<MISSING>","page_url:street_address:phone:city"
"https://restaurants.subway.com/canada/ab/calgary/3800-memorial-dr-ne","Marlborough Mall","3800 Memorial Dr NE Store # 60","Calgary","AB","T2A 2K2","CA","<MISSING>","(403) 272-3215","<MISSING>","51.056234","-113.978354","https://restaurants.subway.com/","Mo 11:00-19:00; Tu 11:00-19:00; We 11:00-19:00; Th 11:00-19:00; Fr 11:00-19:00; Sa 11:00-18:00; Su 12:00-17:00","<MISSING>","page_url:street_address:phone:city"
"https://restaurants.subway.com/canada/ab/calgary/388-country-hills-blvd-ne","Northpointe at Country Hills","388 Country Hills Blvd NE Unit # 505","Calgary","AB","T3K 5J6","CA","<MISSING>","(403) 226-4737","<MISSING>","51.154782784601274","-114.06769557047653","https://restaurants.subway.com/","Mo 07:00-22:30; Tu 07:00-22:30; We 07:00-22:30; Th 07:00-22:30; Fr 07:00-22:30; Sa 08:00-22:30; Su 08:00-22:30","<MISSING>","page_url:street_address:phone:city"
"https://restaurants.subway.com/canada/ab/calgary/3919-richmond-rd-sw","Glamorgan Shopping Centre","3919 Richmond Rd SW Unit 9","Calgary","AB","T3C 2E6","CA","<MISSING>","(403) 240-4527","<MISSING>","51.02075876103455","-114.14340404338066","https://restaurants.subway.com/","Mo 09:00-21:00; Tu 09:00-21:00; We 09:00-21:00; Th 09:00-21:00; Fr 09:00-21:00; Sa 09:00-21:00; Su 09:00-21:00","<MISSING>","page_url:street_address:phone:city"
"https://restaurants.subway.com/canada/ab/calgary/396-11th-ave-sw","396 11th Ave SW","396 11th Ave SW Unit# 120","Calgary","AB","T2R 0C5","CA","<MISSING>","(403) 454-3387","<MISSING>","51.0427637","-114.0711046","https://restaurants.subway.com/","Mo 08:00-21:00; Tu 08:00-21:00; We 08:00-21:00; Th 08:00-21:00; Fr 08:00-21:00; Sa 09:00-20:00; Su 09:00-18:00","<MISSING>","page_url:street_address:phone:city"
"https://restaurants.subway.com/canada/ab/calgary/4002-edmonton-trail-ne","Esso Gas/Fill N Go C-Store","4002 Edmonton Trail NE","Calgary","AB","T2E 3P6","CA","<MISSING>","(403) 266-1166","<MISSING>","51.08806285411696","-114.05117587653524","https://restaurants.subway.com/","Mo 08:00-21:00; Tu 08:00-21:00; We 08:00-21:00; Th 08:00-21:00; Fr 08:00-21:00; Sa 09:00-21:00; Su 09:00-20:00","<MISSING>","page_url:street_address:phone:city"
"https://restaurants.subway.com/canada/ab/calgary/404-6th-ave-sw","404 6th Ave. SW","404 6th Ave. SW Suite 100","Calgary","AB","T2P 0R9","CA","<MISSING>","(403) 262-1211","<MISSING>","51.04781897350927","-114.07046017396226","https://restaurants.subway.com/","Mo 08:00-16:00; Tu 08:00-16:00; We 08:00-16:00; Th 08:00-16:00; Fr 08:00-16:00; Sa Closed; Su Closed","<MISSING>","page_url:street_address:phone:city"
"https://restaurants.subway.com/canada/ab/calgary/409-east-hills-blvd-se","East Hills Shopping Centre","409 East Hills Blvd. SE 623","Calgary","AB","T2A 3W1","CA","<MISSING>","(587) 470-8839","<MISSING>","51.03927555495111","-113.90926603923322","https://restaurants.subway.com/","Mo 08:00-22:00; Tu 08:00-22:00; We 08:00-22:00; Th 08:00-22:00; Fr 08:00-22:00; Sa 08:00-22:00; Su 09:00-21:00","<MISSING>","page_url:street_address:phone:city"
"https://restaurants.subway.com/canada/ab/calgary/4101-8338-18th-st-se","Riverbend Centre","4101 8338-18th St SE Bay 240","Calgary","AB","T2C 2X5","CA","<MISSING>","(403) 236-1010","<MISSING>","50.9777545","-114.0133967","https://restaurants.subway.com/","Mo 07:00-21:00; Tu 07:00-21:00; We 07:00-21:00; Th 07:00-21:00; Fr 07:00-22:00; Sa 09:00-22:00; Su 09:00-20:00","<MISSING>","page_url:street_address:phone:city"
"https://restaurants.subway.com/canada/ab/calgary/425-1st-st-sw","Fifth Avenue Place","425 1st St SW Unit 204","Calgary","AB","T2P 3L8","CA","<MISSING>","(403) 264-1922","<MISSING>","51.049174814929586","-114.06567505257033","https://restaurants.subway.com/","Mo 09:00-15:00; Tu 09:00-15:00; We 09:00-15:00; Th 09:00-15:00; Fr 09:00-14:00; Sa Closed; Su Closed","<MISSING>","page_url:street_address:phone:city"
"https://restaurants.subway.com/canada/ab/calgary/429-58th-ave-se","429 58th Ave SE","429 58th Ave SE Unit # 4","Calgary","AB","T2H 0P5","CA","<MISSING>","(403) 258-3477","<MISSING>","51.001099116524664","-114.05486038739724","https://restaurants.subway.com/","Mo 05:00-18:00; Tu 05:00-18:00; We 05:00-18:00; Th 05:00-18:00; Fr 05:00-18:00; Sa 06:00-16:00; Su Closed","<MISSING>","page_url:street_address:phone:city"
"https://restaurants.subway.com/canada/ab/calgary/4307-130th-ave-se","South Trail Crossing","4307 130th Ave SE Unit 13","Calgary","AB","T2Z 3V8","CA","<MISSING>","(403) 257-7626","<MISSING>","50.93054325235752","-113.97136377900813","https://restaurants.subway.com/","Mo 07:00-22:00; Tu 07:00-22:00; We 07:00-22:00; Th 07:00-22:00; Fr 07:00-22:00; Sa 08:00-21:00; Su 09:00-20:00","<MISSING>","page_url:street_address:phone:city"
"https://restaurants.subway.com/canada/ab/calgary/4575-25th-st-se","4575 25th St SE","4575 25th St SE Bay #2","Calgary","AB","T2B 3R9","CA","<MISSING>","(403) 207-5666","<MISSING>","51.013506972419435","-113.99993315313117","https://restaurants.subway.com/","Mo 07:00-21:00; Tu 07:00-21:00; We 07:00-21:00; Th 07:00-21:00; Fr 07:00-21:00; Sa 10:00-21:00; Su 10:00-21:00","<MISSING>","page_url:street_address:phone:city"
"https://restaurants.subway.com/canada/ab/calgary/4624-varsity-dr-nw","4624 Varsity Dr NW","4624 Varsity Dr NW #8","Calgary","AB","T3A 2L9","CA","<MISSING>","(403) 286-6208","<MISSING>","51.0935266","-114.1540066","https://restaurants.subway.com/","Mo 09:00-21:00; Tu 09:00-21:00; We 09:00-21:00; Th 09:00-21:00; Fr 09:00-21:00; Sa 09:00-21:00; Su 09:00-21:00","<MISSING>","page_url:street_address:phone:city"
"https://restaurants.subway.com/canada/ab/calgary/4712-16th-ave-nw","4712 16th Ave NW","4712 16th Ave NW Yamnuska Hall","Calgary","AB","T3B 0N1","CA","<MISSING>","(403) 247-9177","<MISSING>","51.07237737022286","-114.16315777163834","https://restaurants.subway.com/","Mo 08:00-22:00; Tu 08:00-22:00; We 08:00-22:00; Th 08:00-22:00; Fr 08:00-22:00; Sa 08:00-22:00; Su 09:00-22:00","<MISSING>","page_url:street_address:phone:city"
"https://restaurants.subway.com/canada/ab/calgary/4825-mount-royal-gate-sw","Mt Royal College","4825 Mount Royal Gate SW Wyckham House","Calgary","AB","T3E 6K6","CA","<MISSING>","(403) 686-2296","<MISSING>","51.01254040537297","-114.1325809221047","https://restaurants.subway.com/","Mo 10:00-17:00; Tu 10:00-17:00; We 10:00-17:00; Th 10:00-17:00; Fr 10:00-17:00; Sa Closed; Su Closed","<MISSING>","page_url:street_address:phone:city"
"https://restaurants.subway.com/canada/ab/calgary/5062-68-st-ne","Coral Springs Shopping Center","5062 68 St. NE 105","Calgary","AB","T3J 4J1","CA","<MISSING>","(403) 590-5097","<MISSING>","51.09846318732137","-113.93440294885636","https://restaurants.subway.com/","Mo 08:00-22:00; Tu 08:00-22:00; We 08:00-22:00; Th 08:00-22:00; Fr 08:00-23:00; Sa 09:00-23:00; Su 09:00-21:00","<MISSING>","page_url:street_address:phone:city"
"https://restaurants.subway.com/canada/ab/calgary/5111-northland-dr-nw","Northland Village Shopping Ctr","5111 Northland Dr NW # 120","Calgary","AB","T2L 2J8","CA","<MISSING>","(403) 398-4622","<MISSING>","51.098243576749546","-114.14377160274","https://restaurants.subway.com/","Mo 10:30-17:30; Tu 10:30-17:30; We 10:30-17:30; Th 10:30-17:30; Fr 10:30-17:30; Sa 11:00-17:00; Su 11:00-17:00","<MISSING>","page_url:street_address:phone:city"
"https://restaurants.subway.com/canada/ab/calgary/5125-126th-avenue-se","Home Depot #7082","5125 126th Avenue SE Unit 13","Calgary","AB","T2Z 0B2","CA","<MISSING>","(403) 279-8925","<MISSING>","50.933622072391856","-113.96105661902303","https://restaurants.subway.com/","Mo 07:00-22:00; Tu 07:00-22:00; We 07:00-22:00; Th 07:00-22:00; Fr 07:00-22:00; Sa 07:00-21:00; Su 08:00-20:00","<MISSING>","page_url:street_address:phone:city"
"https://restaurants.subway.com/canada/ab/calgary/520-3rd-ave-sw","Centennial Place","520 3rd Ave SW Suite 260","Calgary","AB","T2P 0R3","CA","<MISSING>","(403) 261-5666","<MISSING>","51.05109991833247","-114.07209773404963","https://restaurants.subway.com/","Mo 08:00-14:00; Tu 08:00-14:00; We 08:00-14:00; Th 08:00-14:00; Fr 08:00-14:00; Sa Closed; Su Closed","<MISSING>","page_url:street_address:phone:city"
"https://restaurants.subway.com/canada/ab/calgary/5246-50-ave-se","Eastfield Co-op Centre","5246 - 50 Ave SE Unit #105","Calgary","AB","T2B3T1","CA","<MISSING>","(403) 234-8300","<MISSING>","51.009357686532255","-113.95950454881142","https://restaurants.subway.com/","Mo 07:00-20:00; Tu 07:00-20:00; We 07:00-20:00; Th 07:00-20:00; Fr 07:00-20:00; Sa 09:00-17:00; Su 09:00-17:00","<MISSING>","page_url:street_address:phone:city"
"https://restaurants.subway.com/canada/ab/calgary/5303-68-ave-se","Great Plains Plaza","5303-68 Ave SE Unit #105","Calgary","AB","T2C4Z2","CA","<MISSING>","(403) 720-3888","<MISSING>","50.993885964526974","-113.9568314643468","https://restaurants.subway.com/","Mo 07:00-21:00; Tu 07:00-21:00; We 07:00-21:00; Th 07:00-21:00; Fr 07:00-21:00; Sa 09:00-18:00; Su 10:00-18:00","<MISSING>","page_url:street_address:phone:city"
"https://restaurants.subway.com/canada/ab/calgary/5401-temple-drive-ne","Temple Crossing Shopping Ctr","5401 Temple Drive NE 105","Calgary","AB","T1Y 3R7","CA","<MISSING>","(587) 352-6767","<MISSING>","51.084942593595294","-113.95724375679708","https://restaurants.subway.com/","Mo 08:00-22:00; Tu 08:00-22:00; We 08:00-22:00; Th 08:00-22:00; Fr 08:00-22:00; Sa 09:00-22:00; Su 09:00-22:00","<MISSING>","page_url:street_address:phone:city"
"https://restaurants.subway.com/canada/ab/calgary/5404-falsbridge-dr-ne","McKnight Village Shopping Ctr","5404 Falsbridge Dr NE 105","Calgary","AB","T3J 3C7","CA","<MISSING>","(403) 285-1644","<MISSING>","51.09828141176214","-113.956354682209","https://restaurants.subway.com/","Mo 07:00-01:00; Tu 07:00-03:00; We 07:00-03:00; Th 07:00-03:00; Fr 07:00-03:00; Sa 07:00-03:00; Su 07:00-03:00","<MISSING>","page_url:street_address:phone:city"
"https://restaurants.subway.com/canada/ab/calgary/55-skyview-ranch-way-ne","Skyview Station","55 Skyview Ranch Way NE #3107","Calgary","AB","T2A 6K4","CA","<MISSING>","(403) 730-0702","<MISSING>","51.16487917248438","-113.96242760331955","https://restaurants.subway.com/","Mo 08:00-21:30; Tu 08:00-21:30; We 08:00-21:30; Th 08:00-21:30; Fr 08:00-21:30; Sa 08:00-21:30; Su 09:30-21:00","<MISSING>","page_url:street_address:phone:city"
"https://restaurants.subway.com/canada/ab/calgary/560-64th-ave-ne","Hunterhorn Plaza","560 64th Ave NE A111","Calgary","AB","T2K 6H9","CA","<MISSING>","(403) 295-3399","<MISSING>","51.1112082","-114.0546019","https://restaurants.subway.com/","Mo 07:00-22:00; Tu 07:00-22:00; We 07:00-22:00; Th 07:00-22:00; Fr 07:00-22:00; Sa 08:00-22:00; Su 09:00-21:00","<MISSING>","page_url:street_address:phone:city"
"https://restaurants.subway.com/canada/ab/calgary/5606-b-fourth-st-nw","5606 B Fourth St NW","5606 B Fourth St NW A111","Calgary","AB","T2K 1B2","CA","<MISSING>","(403) 295-1559","<MISSING>","51.101589820997035","-114.07066092316546","https://restaurants.subway.com/","Mo 09:00-22:00; Tu 09:00-22:00; We 09:00-22:00; Th 09:00-22:00; Fr 09:00-22:00; Sa 09:00-22:00; Su 09:00-21:00","<MISSING>","page_url:street_address:phone:city"
"https://restaurants.subway.com/canada/ab/calgary/6-252-aviation-blvd-ne","6 - 252 Aviation Blvd NE","6 - 252 Aviation Blvd NE A111","Calgary","AB","T2E 7G1","CA","<MISSING>","(587) 538-1155","<MISSING>","51.09731925414874","-114.03237307177562","https://restaurants.subway.com/","Mo 08:00-20:00; Tu 08:00-20:00; We 08:00-20:00; Th 08:00-20:00; Fr 08:00-20:00; Sa 09:00-19:00; Su 10:00-18:00","<MISSING>","page_url:street_address:phone:city"
"https://restaurants.subway.com/canada/ab/calgary/605-5th-ave-sw","Fifth And Fifth","605 5th Ave SW 270G","Calgary","AB","T2P 3H5","CA","<MISSING>","(403) 663-0663","<MISSING>","51.04861290718823","-114.07438405256119","https://restaurants.subway.com/","Mo 09:00-15:00; Tu 09:00-15:00; We 09:00-15:00; Th 09:00-15:00; Fr 09:00-15:00; Sa Closed; Su Closed","<MISSING>","page_url:street_address:phone:city"
"https://restaurants.subway.com/canada/ab/calgary/6130-1a-st-sw","Admiral Court","6130 1A St SW Unit # 4","Calgary","AB","T2H 0G3","CA","<MISSING>","(403) 252-8060","<MISSING>","50.99836827042749","-114.06742042213796","https://restaurants.subway.com/","Mo 08:00-21:00; Tu 08:00-21:00; We 08:00-21:00; Th 08:00-21:00; Fr 08:00-21:00; Sa 09:00-21:00; Su 09:00-21:00","<MISSING>","page_url:street_address:phone:city"
"https://restaurants.subway.com/canada/ab/calgary/6404-bowness-rd-nw","6404 Bowness Rd NW","6404 Bowness Rd NW","Calgary","AB","T3B 0E7","CA","<MISSING>","(403) 452-4500","<MISSING>","51.086062480240734","-114.1802400675939","https://restaurants.subway.com/","Mo 07:00-22:00; Tu 07:00-22:00; We 07:00-22:00; Th 07:00-22:00; Fr 07:00-22:00; Sa 08:00-22:00; Su 09:00-21:00","<MISSING>","page_url:street_address:phone:city"
"https://restaurants.subway.com/canada/ab/calgary/6455-macleod-trail","Chinook Mall","6455 Macleod Trail #F0018","Calgary","AB","T2H0K8","CA","<MISSING>","(403) 453-0672","<MISSING>","50.998247","-114.073233","https://restaurants.subway.com/","Mo 11:00-19:00; Tu 11:00-19:00; We 11:00-19:00; Th 11:00-19:00; Fr 11:00-19:00; Sa 11:00-19:00; Su 11:00-18:00","<MISSING>","page_url:street_address:phone:city"
"https://restaurants.subway.com/canada/ab/calgary/66-sandarac-dr-nw","Sandstone Village","66 Sandarac Dr NW Unit 204","Calgary","AB","T3K 3V2","CA","<MISSING>","(403) 275-1120","<MISSING>","51.133444886309476","-114.09885341365543","https://restaurants.subway.com/","Mo 07:00-22:00; Tu 07:00-22:00; We 07:00-22:00; Th 07:00-22:00; Fr 07:00-22:00; Sa 08:00-22:00; Su 09:00-22:00","<MISSING>","page_url:street_address:phone:city"
"https://restaurants.subway.com/canada/ab/calgary/7000-48th-st-se","Calgary Soccer Centre","7000 48th St. SE Unit #105","Calgary","AB","T2C 4E1","CA","<MISSING>","(403) 263-2633","<MISSING>","50.99242275418492","-113.96103502756637","https://restaurants.subway.com/","Mo 09:00-17:00; Tu 09:00-17:00; We 09:00-17:00; Th 09:00-17:00; Fr 09:00-17:00; Sa 10:00-16:00; Su 00:00-23:59","<MISSING>","page_url:street_address:phone:city"
"https://restaurants.subway.com/canada/ab/calgary/705-8th-st-sw","Silcorp Ltd/Mac's","705 8th St SW 270G","Calgary","AB","T2P 2A8","CA","<MISSING>","(403) 262-9655","<MISSING>","51.0467328","-114.0815933","https://restaurants.subway.com/","Mo 09:00-23:00; Tu 09:00-23:00; We 09:00-23:00; Th 09:00-23:00; Fr 09:00-23:00; Sa 09:00-23:00; Su 09:00-23:00","<MISSING>","page_url:street_address:phone:city"
"https://restaurants.subway.com/canada/ab/calgary/711-5005-dalhousie-dr-nw","Dalhousie Station","711 5005 Dalhousie Dr NW #8","Calgary","AB","T3A 5R8","CA","<MISSING>","(403) 288-3899","<MISSING>","51.10600868140142","-114.16347071049415","https://restaurants.subway.com/","Mo 09:00-21:00; Tu 09:00-21:00; We 09:00-21:00; Th 09:00-21:00; Fr 09:00-21:00; Sa 09:00-21:00; Su 09:00-21:00","<MISSING>","page_url:street_address:phone:city"
"https://restaurants.subway.com/canada/ab/calgary/725-17th-ave-sw","725 17th Ave SW","725 17th Ave SW SW","Calgary","AB","T2S 0B6","CA","<MISSING>","(403) 228-0233","<MISSING>","51.037679074114955","-114.0786911296359","https://restaurants.subway.com/","Mo 07:00-22:00; Tu 07:00-22:00; We 07:00-22:00; Th 07:00-22:00; Fr 07:00-22:00; Sa 09:00-22:00; Su 09:00-21:00","<MISSING>","page_url:street_address:phone:city"
"https://restaurants.subway.com/canada/ab/calgary/728-northmount-dr-nw","Northmount Village","728 Northmount Dr NW #4","Calgary","AB","T2K 3K2","CA","<MISSING>","(403) 289-4642","<MISSING>","51.08239622337782","-114.09226868470773","https://restaurants.subway.com/","Mo 07:00-22:00; Tu 07:00-22:00; We 07:00-22:00; Th 07:00-22:00; Fr 07:00-22:00; Sa 08:00-22:00; Su 09:00-21:00","<MISSING>","page_url:street_address:phone:city"
"https://restaurants.subway.com/canada/ab/calgary/751-3rd-st-sw","Calgary Eaton Centre","751 3rd St SW Unit F12","Calgary","AB","T2P 4K8","CA","<MISSING>","(403) 262-5512","<MISSING>","51.04620713782776","-114.07093500000002","https://restaurants.subway.com/","Mo 11:00-17:00; Tu 11:00-17:00; We 11:00-17:00; Th 11:00-17:00; Fr 11:00-17:00; Sa 11:00-17:00; Su 12:00-17:00","<MISSING>","page_url:street_address:phone:city"
"https://restaurants.subway.com/canada/ab/calgary/755-lake-bonavista-drive-se","Lake Bonavista Promenade","755 Lake Bonavista Drive SE Unit 139","Calgary","AB","T2J 0N3","CA","<MISSING>","(403) 278-7690","<MISSING>","50.94212344577063","-114.0461877385103","https://restaurants.subway.com/","Mo 08:00-22:00; Tu 08:00-22:00; We 08:00-22:00; Th 08:00-22:00; Fr 08:00-22:00; Sa 09:00-21:30; Su 09:00-21:00","<MISSING>","page_url:street_address:phone:city"
"https://restaurants.subway.com/canada/ab/calgary/8-midlake-blvd-se","8 Midlake Blvd SE","8 Midlake Blvd SE Unit #6103","Calgary","AB","T2X 2X7","CA","<MISSING>","(403) 256-7117","<MISSING>","50.91478453801339","-114.06494440381925","https://restaurants.subway.com/","Mo 07:00-00:00; Tu 07:00-00:00; We 07:00-00:00; Th 07:00-00:00; Fr 07:00-00:00; Sa 08:00-00:00; Su 08:00-23:00","<MISSING>","page_url:street_address:phone:city"
"https://restaurants.subway.com/canada/ab/calgary/8060-silver-springs-blvd-nw","Mac's C-Store","8060 Silver Springs Blvd NW","Calgary","AB","T3B 5K1","CA","<MISSING>","(403) 286-6142","<MISSING>","51.116012917184044","-114.20554125247907","https://restaurants.subway.com/","Mo 08:00-21:00; Tu 08:00-21:00; We 08:00-21:00; Th 08:00-21:00; Fr 08:00-21:00; Sa 08:00-20:00; Su 08:00-20:00","<MISSING>","page_url:street_address:phone:city"
"https://restaurants.subway.com/canada/ab/calgary/817-19th-st-ne","817 19th St NE","817 19th St NE Suite #1A","Calgary","AB","T2E 4X4","CA","<MISSING>","(403) 276-3366","<MISSING>","51.05907492986545","-114.01441813926289","https://restaurants.subway.com/","Mo 08:00-22:00; Tu 08:00-22:00; We 08:00-22:00; Th 08:00-22:00; Fr 08:00-22:00; Sa 09:00-22:00; Su 09:00-21:00","<MISSING>","page_url:street_address:phone:city"
"https://restaurants.subway.com/canada/ab/calgary/8180-11th-st-se","Deerfoot Meadows Shopping Ctr","8180 11th St SE Unitj14, #824","Calgary","AB","T2H 3B5","CA","<MISSING>","(403) 212-1142","<MISSING>","50.9781159","-114.0416481","https://restaurants.subway.com/","Mo 08:30-21:00; Tu 08:30-21:00; We 08:30-21:00; Th 08:30-21:00; Fr 08:30-21:00; Sa 08:30-20:00; Su 09:00-19:00","<MISSING>","page_url:street_address:phone:city"
"https://restaurants.subway.com/canada/ab/calgary/8220-centre-st-ne","8220 Centre St NE","8220 Centre St NE Suite #118","Calgary","AB","T3K 1J7","CA","<MISSING>","(403) 275-1146","<MISSING>","51.126643624138445","-114.06950045932552","https://restaurants.subway.com/","Mo 07:00-22:00; Tu 07:00-22:00; We 07:00-22:00; Th 07:00-22:00; Fr 07:00-22:00; Sa 08:00-22:00; Su 09:00-21:00","<MISSING>","page_url:street_address:phone:city"
"https://restaurants.subway.com/canada/ab/calgary/826-68-st-ne","Abbeydale Mall","826-68 St NE Unit 901","Calgary","AB","T2A 6X7","CA","<MISSING>","(403) 264-7823","<MISSING>","51.05923895116167","-113.93442341268587","https://restaurants.subway.com/","Mo 09:00-22:00; Tu 09:00-22:00; We 09:00-22:00; Th 09:00-22:00; Fr 09:00-22:00; Sa 09:00-22:00; Su 09:00-21:00","<MISSING>","page_url:street_address:phone:city"
"https://restaurants.subway.com/canada/ab/calgary/831-edmonton-trl-ne","831 Edmonton Trl NE","831 Edmonton Trl NE 101","Calgary","AB","T2E 3J8","CA","<MISSING>","(403) 277-2793","<MISSING>","51.05952854444986","-114.05465150114003","https://restaurants.subway.com/","Mo 08:00-21:30; Tu 08:00-21:30; We 08:00-21:30; Th 08:00-21:30; Fr 08:00-21:30; Sa 09:00-21:00; Su 09:00-21:00","<MISSING>","page_url:street_address:phone:city"
"https://restaurants.subway.com/canada/ab/calgary/8311-fairmont-dr-se","Acadia Shopping Centre","8311 Fairmont Dr SE Suite # 39","Calgary","AB","T2H 1M8","CA","<MISSING>","(403) 252-5277","<MISSING>","50.979151330540866","-114.06059304543902","https://restaurants.subway.com/","Mo 08:00-21:00; Tu 08:00-21:00; We 08:00-21:00; Th 08:00-21:00; Fr 08:00-21:00; Sa 08:00-21:00; Su 09:00-21:00","<MISSING>","page_url:street_address:phone:city"
"https://restaurants.subway.com/canada/ab/calgary/847-17-avenue","Mount Royal Plaza","847, 17 Avenue SW","Calgary","AB","T2S 0B7","CA","<MISSING>","(403) 243-0485","<MISSING>","51.03763913653809","-114.0816387324512","https://restaurants.subway.com/","Mo 08:00-22:00; Tu 08:00-22:00; We 08:00-22:00; Th 08:00-22:00; Fr 08:00-22:00; Sa 08:00-22:00; Su 09:00-21:00","<MISSING>","page_url:street_address:phone:city"
"https://restaurants.subway.com/canada/ab/calgary/85-bowridge-dr-nw","85 Bowridge Dr NW","85 Bowridge Dr NW #8009","Calgary","AB","T3B 3R6","CA","<MISSING>","(403) 288-8577","<MISSING>","51.084566990921545","-114.20727984655207","https://restaurants.subway.com/","Mo 07:00-22:00; Tu 07:00-22:00; We 07:00-22:00; Th 07:00-22:00; Fr 07:00-00:00; Sa 07:00-22:00; Su 08:00-22:00","<MISSING>","page_url:street_address:phone:city"
"https://restaurants.subway.com/canada/ab/calgary/873-85th-street-sw","West Springs Village","873 85th Street S.W #8009","Calgary","AB","T3H 0J5","CA","<MISSING>","(587) 538-5567","<MISSING>","51.06053897103886","-114.21143255216879","https://restaurants.subway.com/","Mo 08:00-22:00; Tu 08:00-22:00; We 08:00-22:00; Th 08:00-22:00; Fr 08:00-22:00; Sa 08:00-22:00; Su 09:00-22:00","<MISSING>","page_url:street_address:phone:city"
"https://restaurants.subway.com/canada/ab/calgary/8818-macleod-trail-se","8818 Macleod Trail SE","8818 Macleod Trail SE Suite # 39","Calgary","AB","T2H 0M4","CA","<MISSING>","(403) 252-1072","<MISSING>","50.97538701194157","-114.06928418746054","https://restaurants.subway.com/","Mo 09:00-21:30; Tu 09:00-21:30; We 09:00-21:30; Th 09:00-21:30; Fr 09:00-21:30; Sa 09:00-21:30; Su 09:00-21:00","<MISSING>","page_url:street_address:phone:city"
"https://restaurants.subway.com/canada/ab/calgary/8888-country-hills-blvd-nw","Royal Oak Centre","8888 Country Hills Blvd NW Unit # 174","Calgary","AB","T3G 5T4","CA","<MISSING>","(403) 239-7002","<MISSING>","51.15364940000001","-114.21335433353823","https://restaurants.subway.com/","Mo 07:00-21:00; Tu 07:00-21:00; We 07:00-21:00; Th 07:00-21:00; Fr 07:00-21:00; Sa 08:00-21:00; Su 09:00-21:00","<MISSING>","page_url:street_address:phone:city"
"https://restaurants.subway.com/canada/ab/calgary/902-5th-avenue-sw","902 5th Avenue SW","902 5th Avenue SW 270G","Calgary","AB","T2P 0N5","CA","<MISSING>","(403) 253-0123","<MISSING>","51.049227097088846","-114.08146741401362","https://restaurants.subway.com/","Mo 07:00-22:00; Tu 07:00-22:00; We 07:00-22:00; Th 07:00-22:00; Fr 07:00-22:00; Sa 08:00-22:00; Su 09:00-21:00","<MISSING>","page_url:street_address:phone:city"
"https://restaurants.subway.com/canada/ab/calgary/911-heritage-dr-sw","Haysboro Shopping Centre","911 Heritage Dr SW Suite # 39","Calgary","AB","T2V 2W8","CA","<MISSING>","(403) 255-7769","<MISSING>","50.97925306781269","-114.08405594106966","https://restaurants.subway.com/","Mo 09:00-21:00; Tu 09:00-21:00; We 09:00-21:00; Th 09:00-21:00; Fr 08:00-21:00; Sa 09:00-21:00; Su 09:00-21:00","<MISSING>","page_url:street_address:phone:city"
"https://restaurants.subway.com/canada/ab/calgary/929-1-ave-ne","The Bridges","929 1 Ave NE 101","Calgary","AB","T2E 2L3","CA","<MISSING>","(403) 233-8993","<MISSING>","51.0531349480828","-114.04193206521302","https://restaurants.subway.com/","Mo 07:00-22:00; Tu 07:00-22:00; We 07:00-22:00; Th 07:00-22:00; Fr 07:00-22:00; Sa 08:00-21:00; Su 09:00-21:00","<MISSING>","page_url:street_address:phone:city"
"https://restaurants.subway.com/canada/ab/calgary/951-64-ave-ne","Deerfoot City","951 - 64 Ave. N.E. A111","Calgary","AB","T2E 7Y8","CA","<MISSING>","(403) 274-4611","<MISSING>","51.11015984530728","-114.04202483029513","https://restaurants.subway.com/","Mo 07:00-22:00; Tu 07:00-22:00; We 07:00-22:00; Th 07:00-22:00; Fr 07:00-22:00; Sa 09:00-21:00; Su 10:00-20:00","<MISSING>","page_url:street_address:phone:city"
"https://restaurants.subway.com/canada/ab/calgary/9737-macleod-trail-s","Southland Crossing Sc","9737 Macleod Trail S Bay 455","Calgary","AB","T2J 6E9","CA","<MISSING>","(403) 255-9282","<MISSING>","50.96670598697101","-114.07313064418031","https://restaurants.subway.com/","Mo 08:00-21:00; Tu 08:00-21:00; We 08:00-21:00; Th 08:00-21:00; Fr 08:00-21:00; Sa 09:00-19:00; Su 09:00-19:00","<MISSING>","page_url:street_address:phone:city"
"https://restaurants.subway.com/canada/ab/calgary/b-14-1200-37-st","Westbrook Mall","B 14-1200 37 St Unit 9","Calgary","AB","T3C 1S2","CA","<MISSING>","(403) 217-4236","<MISSING>","51.04159965763524","-114.1404426608276","https://restaurants.subway.com/","Mo 10:00-19:00; Tu 10:00-19:00; We 10:00-19:00; Th 10:00-19:00; Fr 10:00-19:00; Sa 10:00-18:00; Su 11:30-17:00","<MISSING>","page_url:street_address:phone:city"
"https://restaurants.subway.com/canada/ab/calgary/stewart-green-sw-137","Westhills Towne Centre","Stewart Green SW 137 Unit 9","Calgary","AB","T3H 3C8","CA","<MISSING>","(403) 240-3755","<MISSING>","51.01706857200885","-114.169150546315","https://restaurants.subway.com/","Mo 08:00-21:00; Tu 08:00-22:00; We 08:00-22:00; Th 08:00-22:00; Fr 08:00-22:00; Sa 09:00-21:00; Su 09:00-21:00","<MISSING>","page_url:street_address:phone:city"
"https://restaurants.subway.com/canada/ab/calgary/unit-128-65-sage-hill-plaza-nw","Sage Hill Crossing","Unit 128 65 Sage Hill Plaza NW Unit # 128/Bldg 10A Ll","Calgary","AB","T3R 0S4","CA","<MISSING>","(587) 955-8822","<MISSING>","51.17626252016156","-114.14471318645319","https://restaurants.subway.com/","Mo 09:00-21:00; Tu 09:00-21:00; We 09:00-21:00; Th 09:00-21:00; Fr 09:00-21:00; Sa 09:00-21:00; Su 09:00-21:00","<MISSING>","page_url:street_address:phone:city"
